{
  "routes": [
    {
      "name": "新竹市區親子一日遊",
      "stops": [
        "新竹動物園",
        "新竹公園",
        "新竹城隍廟",
        "護城河親水公園",
        "新竹眷村博物館"
      ],
      "description": "市區親子",
      "tags": [
        "一般路線"
      ],
      "lat": 24.8138287,
      "lng": 120.9674798
    },
    {
      "name": "新竹海線一日遊",
      "stops": [
        "南寮漁港",
        "17公里海岸線",
        "香山濕地",
        "青青草原"
      ],
      "description": "海線路線",
      "tags": [
        "一般路線"
      ],
      "lat": 24.8138287,
      "lng": 120.9674798
    },
    {
      "name": "薰衣草森林、內灣一日遊",
      "stops": [
        "薰衣草森林",
        "六號花園",
        "內灣吊橋",
        "內灣老街",
        "合興車站"
      ],
      "description": "花田+老街",
      "tags": [
        "一般路線"
      ],
      "lat": 24.7057594,
      "lng": 121.1781975
    },
    {
      "name": "尖石一日遊",
      "stops": [
        "青蛙石天空步道",
        "宇老觀景台",
        "老鷹溪步道",
        "數碼天空"
      ],
      "description": "山區路線",
      "tags": [
        "一般路線"
      ],
      "lat": 24.5760667,
      "lng": 121.3084088
    },
    {
      "name": "北埔一日遊",
      "stops": [
        "綠世界生態農場",
        "北埔老街",
        "北埔冷泉"
      ],
      "description": "客家老街",
      "tags": [
        "一般路線"
      ],
      "lat": 24.6998411,
      "lng": 121.0563176
    },
    {
      "name": "關西一日遊",
      "stops": [
        "馬武督探索森林",
        "關西老街",
        "東安古橋",
        "小熊博物館",
        "關西仙草博物館"
      ],
      "description": "小鎮路線",
      "tags": [
        "一般路線"
      ],
      "lat": 24.7930874,
      "lng": 121.1776467
    },
    {
      "name": "五峰一日遊",
      "stops": [
        "山上人家",
        "張學良文化園區",
        "雪霸休閒農場"
      ],
      "description": "建議住一晚",
      "tags": [
        "一般路線"
      ],
      "lat": 24.6298238,
      "lng": 121.1194623
    },
    {
      "name": "新埔、湖口一日遊",
      "stops": [
        "味衛佳柿餅(9-1月限定)",
        "普羅旺斯小木屋",
        "湖口好客文創園區",
        "湖口老街",
        "山丘上景觀咖啡館"
      ],
      "description": "柿餅季節限定",
      "tags": [
        "一般路線"
      ],
      "lat": 24.8279033,
      "lng": 121.0771144
    },
    {
      "name": "新豐、竹北一日遊",
      "stops": [
        "新豐紅樹林",
        "新瓦屋客家文化保存區",
        "厚食聚落",
        "豆腐岩",
        "新月沙灣"
      ],
      "description": "客家+海邊",
      "tags": [
        "一般路線"
      ],
      "lat": 24.8346871,
      "lng": 120.9933678
    },
    {
      "name": "新竹雨天玻璃藝境・竹塹城內散步",
      "description": "雨天逛新竹室內景點，從玻璃工藝博物館看琉璃藝術，到巨城購物中心逛街吃飯，再到新竹市立美術館看展，最後到蕭如松藝術園區感受日式建築",
      "stops": [
        "玻璃工藝博物館",
        "巨城購物中心",
        "新竹市立美術館",
        "蕭如松藝術園區",
        "廟口鴨香飯"
      ],
      "tags": [
        "雨天路線"
      ],
      "lat": 24.804229,
      "lng": 120.9702276
    },
    {
      "name": "新竹樂齡南寮漁港海風吹",
      "description": "長輩新竹輕鬆遊，從南寮漁港散步吃海鮮，到新竹公園看花開，再到城隍廟拜拜吃貢丸米粉，全程平地好走",
      "stops": [
        "南寮漁港",
        "新竹公園",
        "新竹城隍廟",
        "護城河親水公園",
        "廟口鴨香飯"
      ],
      "tags": [
        "樂齡路線"
      ],
      "lat": 24.8097276,
      "lng": 120.9763075
    },
    {
      "name": "新竹城隍廟口美食大亂鬥",
      "description": "新竹美食集中城隍廟周邊，從廟口鴨香飯到西市汕頭館，再到段純真牛肉麵，最後來份梅花雞蛋糕，新竹必吃一站清",
      "stops": [
        "廟口鴨香飯",
        "西市汕頭館",
        "段純真牛肉麵",
        "梅花雞蛋糕",
        "北門炸粿",
        "范阿嬤野薑花粽"
      ],
      "tags": [
        "景點加美食"
      ],
      "lat": 24.8045519,
      "lng": 120.965808
    },
    {
      "name": "食尚玩家・新竹老宅美食與冰雪溜滑梯一日遊",
      "description": "從新竹車站出發，吃湯明茶樓銷魂控肉、硬派主廚舒育牛排，再到小叮噹樂園玩冰雪溜滑梯，最後春池玻璃工廠手作DIY",
      "stops": [
        "新竹車站",
        "湯明茶樓",
        "硬派主廚的軟嫩料理",
        "貓的堅持",
        "被耽誤的炒麵店",
        "東門米粉攤",
        "小叮噹科學主題樂園",
        "春池綠能玻璃觀光工廠"
      ],
      "tags": [
        "食尚玩家"
      ],
      "lat": 24.7998612,
      "lng": 120.961268
    },
    {
      "name": "食尚玩家・新竹南寮漁港海風一日遊",
      "description": "南寮漁港看魚鱗天梯、逛波光市集、17公里海岸線騎單車，吃Bliss捲捲肉桂捲與海屋咖啡",
      "stops": [
        "新竹漁港旅遊服務中心",
        "南寮魚鱗天梯",
        "波光市集",
        "國際風箏賽場",
        "17公里海岸線",
        "Bliss捲捲",
        "海屋Cafe"
      ],
      "tags": [
        "食尚玩家"
      ],
      "lat": 24.8487505,
      "lng": 120.9252429
    },
    {
      "name": "食尚玩家・新竹內灣老街客家美食行",
      "description": "逛內灣老街吃60年客家菜利興飲食店，到合興愛情車站拍美照，體驗虎帽金工手作",
      "stops": [
        "內灣老街",
        "利興飲食店",
        "虎帽金工",
        "合興愛情車站",
        "遷徙咖啡民宿"
      ],
      "tags": [
        "食尚玩家"
      ],
      "lat": 24.7052146,
      "lng": 121.1823397
    }
  ],
  "spots": [
    {
      "county": "新竹",
      "name": "新竹動物園",
      "area": "新竹市區親子",
      "rating": 4.1,
      "reviews": 19664,
      "description": "全台最古老動物園，重新翻新開放",
      "lat": 24.8001567,
      "lng": 120.9799245
    },
    {
      "county": "新竹",
      "name": "新竹公園",
      "area": "新竹市區親子",
      "rating": 4.4,
      "reviews": 7851,
      "description": "麗池公園日式庭園，市區綠洲",
      "lat": 24.8009158,
      "lng": 120.9773254
    },
    {
      "county": "新竹",
      "name": "新竹城隍廟",
      "area": "新竹市區親子",
      "rating": 4.4,
      "reviews": 9087,
      "description": "三級古蹟城隍廟，廟口美食聚集",
      "lat": 24.8045519,
      "lng": 120.965808
    },
    {
      "county": "新竹",
      "name": "護城河親水公園",
      "area": "新竹市區親子",
      "rating": 4.3,
      "reviews": 3267,
      "description": "新竹市區親水步道，河岸休憩",
      "lat": 24.8064709,
      "lng": 120.9706268
    },
    {
      "county": "新竹",
      "name": "新竹眷村博物館",
      "area": "新竹市區親子",
      "rating": 4.2,
      "reviews": 4836,
      "description": "全台首座眷村主題館，懷舊文物",
      "lat": 24.8140952,
      "lng": 120.9668285
    },
    {
      "county": "新竹",
      "name": "南寮漁港",
      "area": "新竹海線",
      "rating": 4.2,
      "reviews": 1792,
      "description": "新竹漁港，地中海風情與風箏",
      "lat": 24.8487505,
      "lng": 120.9252429
    },
    {
      "county": "新竹",
      "name": "17公里海岸線",
      "area": "新竹海線",
      "rating": 4.3,
      "reviews": 3943,
      "description": "新竹沿海自行車道，海風骑行",
      "lat": 24.8462393,
      "lng": 120.9258941
    },
    {
      "county": "新竹",
      "name": "香山濕地",
      "area": "新竹海線",
      "rating": 4.4,
      "reviews": 3638,
      "description": "新竹最大濕地，招潮蟹生態區",
      "lat": 24.7837272,
      "lng": 120.915052
    },
    {
      "county": "新竹",
      "name": "青青草原",
      "area": "新竹海線",
      "rating": 4.3,
      "reviews": 9073,
      "description": "新竹市區草原公園，溜滑梯親子",
      "lat": 24.7726541,
      "lng": 120.9254811
    },
    {
      "county": "新竹",
      "name": "薰衣草森林",
      "area": "薰衣草森林、內灣",
      "rating": 4.7,
      "reviews": 13053,
      "description": "新社薰衣草主題園，森林咖啡",
      "lat": 24.7057594,
      "lng": 121.1781975
    },
    {
      "county": "新竹",
      "name": "六號花園",
      "area": "薰衣草森林、內灣",
      "rating": 4.4,
      "reviews": 2532,
      "description": "尖石山中花園餐廳，繡球花季",
      "lat": 24.7057594,
      "lng": 121.1781975
    },
    {
      "county": "新竹",
      "name": "內灣吊橋",
      "area": "薰衣草森林、內灣",
      "rating": 4.1,
      "reviews": 2292,
      "description": "內灣老街入口吊橋，油羅溪景",
      "lat": 24.7023098,
      "lng": 121.1833248
    },
    {
      "county": "新竹",
      "name": "內灣老街",
      "area": "薰衣草森林、內灣",
      "rating": 4.2,
      "reviews": 43262,
      "description": "山城客家老街，野薑花粽必吃",
      "lat": 24.7052146,
      "lng": 121.1823397
    },
    {
      "county": "新竹",
      "name": "合興車站",
      "area": "薰衣草森林、內灣",
      "rating": 4.1,
      "reviews": 1174,
      "description": "內灣線愛情車站，木造懷舊",
      "lat": 24.71668,
      "lng": 121.15437
    },
    {
      "county": "新竹",
      "name": "青蛙石天空步道",
      "area": "尖石鄉",
      "rating": 4,
      "reviews": 4453,
      "description": "尖石透明玻璃步道，瀑布溪谷",
      "lat": 24.6853458,
      "lng": 121.229844
    },
    {
      "county": "新竹",
      "name": "宇老觀景台",
      "area": "尖石鄉",
      "rating": 4.4,
      "reviews": 9008,
      "description": "尖石最高觀景點，雲海山巒",
      "lat": 24.667653,
      "lng": 121.281963
    },
    {
      "county": "新竹",
      "name": "老鷹溪步道",
      "area": "尖石鄉",
      "rating": 4.5,
      "reviews": 122,
      "description": "尖石生態步道，瀑布與巨木",
      "lat": 24.6611184,
      "lng": 121.2996465
    },
    {
      "county": "新竹",
      "name": "數碼天空",
      "area": "尖石鄉",
      "rating": 3.9,
      "reviews": 3387,
      "description": "尖石山上景觀餐廳，超廣角山景",
      "lat": 24.7067958,
      "lng": 121.2634259
    },
    {
      "county": "新竹",
      "name": "綠世界生態農場",
      "area": "北埔鄉",
      "rating": 4.6,
      "reviews": 32600,
      "description": "北埔最大生態農場，動物互動",
      "lat": 24.6988096,
      "lng": 121.071096
    },
    {
      "county": "新竹",
      "name": "北埔老街",
      "area": "北埔鄉",
      "rating": 4.2,
      "reviews": 35825,
      "description": "客家老街，擂茶膨風茶必體驗",
      "lat": 24.6998161,
      "lng": 121.0572201
    },
    {
      "county": "新竹",
      "name": "北埔冷泉",
      "area": "北埔鄉",
      "rating": 4.1,
      "reviews": 5037,
      "description": "全台罕見冷泉，夏季消暑秘境",
      "lat": 24.6629944,
      "lng": 121.0724295
    },
    {
      "county": "新竹",
      "name": "馬武督探索森林",
      "area": "關西鎮",
      "rating": 4.3,
      "reviews": 5647,
      "description": "關西森林遊樂區，綠光小學拍攝地",
      "lat": 24.7678506,
      "lng": 121.2813658
    },
    {
      "county": "新竹",
      "name": "關西老街",
      "area": "關西鎮",
      "rating": 3.8,
      "reviews": 3293,
      "description": "關西百年老街，石板路與古厝",
      "lat": 24.7945315,
      "lng": 121.1742979
    },
    {
      "county": "新竹",
      "name": "東安古橋",
      "area": "關西鎮",
      "rating": 4.4,
      "reviews": 7839,
      "description": "關西古橋地標，石拱橋拍照",
      "lat": 24.7908574,
      "lng": 121.1798009
    },
    {
      "county": "新竹",
      "name": "小熊博物館",
      "area": "關西鎮",
      "rating": 4.8,
      "reviews": 309,
      "description": "關西泰迪熊主題館，親子必訪",
      "lat": 24.8044851,
      "lng": 121.1481284
    },
    {
      "county": "新竹",
      "name": "關西仙草博物館",
      "area": "關西鎮",
      "rating": 3.9,
      "reviews": 4615,
      "description": "關西仙草主題館，仙草DIY體驗",
      "lat": 24.801449,
      "lng": 121.186043
    },
    {
      "county": "新竹",
      "name": "山上人家",
      "area": "五峰鄉",
      "rating": 4.1,
      "reviews": 7038,
      "description": "五峰高山景觀餐廳，雲海森林",
      "lat": 24.604847,
      "lng": 121.089035
    },
    {
      "county": "新竹",
      "name": "張學良文化園區",
      "area": "五峰鄉",
      "rating": 4.2,
      "reviews": 10042,
      "description": "五峰清泉張學良故居，歷史人文",
      "lat": 24.5724819,
      "lng": 121.1054503
    },
    {
      "county": "新竹",
      "name": "雪霸休閒農場",
      "area": "五峰鄉",
      "rating": 4.5,
      "reviews": 7044,
      "description": "五峰高山農場，觀霧雲海勝地",
      "lat": 24.5276476,
      "lng": 121.1178128
    },
    {
      "county": "新竹",
      "name": "味衛佳柿餅(9-1月限定)",
      "area": "新埔、湖口",
      "rating": 4.2,
      "reviews": 9561,
      "description": "新埔柿餅加工廠，曬柿餅美景",
      "lat": 24.8406343,
      "lng": 121.0763459
    },
    {
      "county": "新竹",
      "name": "普羅旺斯小木屋",
      "area": "新埔、湖口",
      "rating": 4.6,
      "reviews": 3470,
      "description": "新埔花園小木屋，歐風拍照",
      "lat": 24.8814458,
      "lng": 121.0449768
    },
    {
      "county": "新竹",
      "name": "湖口好客文創園區",
      "area": "新埔、湖口",
      "rating": 4.3,
      "reviews": 8782,
      "description": "湖口客家文創園區，擂茶體驗",
      "lat": 24.8965969,
      "lng": 121.0624912
    },
    {
      "county": "新竹",
      "name": "湖口老街",
      "area": "新埔、湖口",
      "rating": null,
      "reviews": null,
      "description": "湖口百年老街，紅磒拱廊建築",
      "lat": 24.8768721,
      "lng": 121.0551483
    },
    {
      "county": "新竹",
      "name": "山丘上景觀咖啡館",
      "area": "新埔、湖口",
      "rating": 4.3,
      "reviews": 4569,
      "description": "湖口山上景觀咖啡，俯瞰夜景",
      "lat": 24.8730334,
      "lng": 121.0812096
    },
    {
      "county": "新竹",
      "name": "新豐紅樹林",
      "area": "新豐、竹北",
      "rating": 4,
      "reviews": 5470,
      "description": "新豐紅樹林生態區，木棧道觀蟹",
      "lat": 24.9089919,
      "lng": 120.9691999
    },
    {
      "county": "新竹",
      "name": "新瓦屋客家文化保存區",
      "area": "新豐、竹北",
      "rating": 4.3,
      "reviews": 7384,
      "description": "竹北客家聚落保存區，古厝文創",
      "lat": 24.8118946,
      "lng": 121.0270378
    },
    {
      "county": "新竹",
      "name": "厚食聚落",
      "area": "新豐、竹北",
      "rating": 4,
      "reviews": 1203,
      "description": "竹北客家美食聚落，在地農產",
      "lat": 24.794641,
      "lng": 121.0027557
    },
    {
      "county": "新竹",
      "name": "豆腐岩",
      "area": "新豐、竹北",
      "rating": 4,
      "reviews": 4194,
      "description": "竹北頭前溪豆腐岩，IG打卡奇岩",
      "lat": 24.7998907,
      "lng": 121.0296557
    },
    {
      "county": "新竹",
      "name": "新月沙灣",
      "area": "新豐、竹北",
      "rating": 4.2,
      "reviews": 5372,
      "description": "竹北海邊沙灘，夕陽散步勝地",
      "lat": 24.8669891,
      "lng": 120.9428406
    },
    {
      "name": "廢物媽媽育兒農場",
      "description": "位於新竹的親子友善農場，以自然生態與環保理念為主題，提供動物餵食、植栽體驗等活動，適合家庭出遊。",
      "area": "其他",
      "rating": 4.9,
      "reviews": 19783,
      "tags": [],
      "lat": 24.8238038,
      "lng": 120.91248
    },
    {
      "name": "香山濕地賞蟹步道",
      "description": "位於新竹香山的沿海濕地生態區，擁有豐富的招潮蟹與彈塗魚生態，設有賞蟹步道供遊客近距離觀察濕地生物。",
      "area": "其他",
      "rating": 4.4,
      "reviews": 12259,
      "tags": [],
      "lat": 24.7831722,
      "lng": 120.9143118
    },
    {
      "name": "硬派主廚的軟嫩料理-東門市場",
      "area": "其他",
      "rating": 4.4,
      "reviews": 2565,
      "description": "氣氛悠閒的小巧餐廳，供應湯品、燉肉和燒肉料理。",
      "lat": 24.8054975,
      "lng": 120.9691403
    },
    {
      "name": "竹東 中央公有零售市場",
      "area": "竹東鎮",
      "rating": 4.2,
      "reviews": 5035,
      "description": "竹東中央公有零售市場，人氣小吃聚集地，品味多樣的夜市風味。",
      "lat": 24.737402,
      "lng": 121.0909338
    },
    {
      "name": "湖口市場",
      "area": "湖口鄉",
      "rating": 4,
      "reviews": 558,
      "description": "擁有多種小吃選擇，讓你品味當地風味。",
      "lat": 24.9021308,
      "lng": 121.0465522
    }
  ],
  "souvenirs": [
    {
      "name": "新竹貢丸",
      "area": "新竹市",
      "description": "新竹特產貢丸，海瑞貢丸最出名",
      "lat": 24.8138287,
      "lng": 120.9674798
    },
    {
      "name": "海瑞貢丸",
      "area": "新竹市",
      "description": "新竹貢丸第一品牌",
      "lat": 24.7906432,
      "lng": 121.004557
    },
    {
      "name": "新復珍商行",
      "area": "新竹市",
      "description": "竹塹餅創始店百年老牌",
      "lat": 24.8049384,
      "lng": 120.9661581
    },
    {
      "name": "水潤餅",
      "area": "新竹市",
      "description": "新竹特產古早味水潤餅",
      "lat": 24.8105822,
      "lng": 120.9512653
    },
    {
      "name": "彭成珍餅店",
      "area": "新竹市",
      "description": "新竹老牌糕餅店，狀元糕有名",
      "lat": 24.8030769,
      "lng": 120.9651586
    },
    {
      "name": "新埔柿餅",
      "area": "新竹縣新埔鎮",
      "description": "新埔特產柿餅，秋季限定",
      "lat": 24.8406343,
      "lng": 121.0763459
    },
    {
      "name": "北埔擂茶",
      "area": "北埔老街",
      "description": "客家擂茶特產，可買包裝伴手",
      "lat": 24.6996651,
      "lng": 121.0577392
    }
  ],
  "food": [
    {
      "name": "貓的堅持",
      "description": "",
      "area": "東區",
      "rating": 4.5,
      "reviews": 251,
      "categories": [
        "中式"
      ],
      "michelin": "bib",
      "tags": [
        "sp",
        "michelin-bib"
      ],
      "category": "中式",
      "_sort": 0,
      "dishes": [],
      "lat": 24.7956609,
      "lng": 120.9711965
    },
    {
      "name": "東門米粉攤",
      "description": "粗米粉搭配雞骨高湯與海鮮芋頭米粉湯",
      "area": "東區",
      "rating": 4.2,
      "reviews": 2460,
      "categories": [
        "中式"
      ],
      "michelin": "bib",
      "tags": [
        "sp",
        "michelin-bib"
      ],
      "category": "中式",
      "_sort": 0,
      "dishes": [],
      "lat": 24.8051353,
      "lng": 120.9688145
    },
    {
      "name": "首烏廚EAT",
      "description": "中式台菜的精緻選擇，深受食客喜愛，人氣餐廳。",
      "area": "竹北市",
      "rating": 4.5,
      "reviews": 706,
      "categories": [
        "中式"
      ],
      "category": "中式",
      "tags": [
        "michelin-bib"
      ],
      "_sort": 1,
      "dishes": [],
      "lat": 24.8201848,
      "lng": 121.0232945
    },
    {
      "name": "九添福牛肉麵館新竹城隍店",
      "description": "牛肉麵湯頭濃郁，令人回味無窮。",
      "area": "北區",
      "rating": 4.4,
      "reviews": 956,
      "categories": [
        "中式"
      ],
      "category": "中式",
      "tags": [
        "michelin-bib"
      ],
      "_sort": 1,
      "dishes": [],
      "lat": 24.803777,
      "lng": 120.9643088
    },
    {
      "name": "弄味小廚 客家菜系",
      "description": "",
      "area": "香山",
      "rating": 4.4,
      "reviews": 1095,
      "categories": [
        "中式"
      ],
      "category": "中式",
      "tags": [
        "michelin-bib"
      ],
      "_sort": 1,
      "dishes": [],
      "lat": 24.7977365,
      "lng": 120.9513005
    },
    {
      "name": "原味鴨肉麵",
      "description": "必比登推薦，新竹唯一米其林鴨肉，鵝油蔥香濃鵝肉飯超讚",
      "area": "",
      "rating": 4.3,
      "reviews": 1427,
      "categories": [
        "中式"
      ],
      "michelin": "bib",
      "category": "中式",
      "tags": [
        "michelin-bib"
      ],
      "_sort": 1,
      "dishes": [],
      "lat": 24.8005252,
      "lng": 120.9684156
    },
    {
      "name": "Bebu春嬌粄條",
      "description": "中式餐廳，在地美味",
      "area": "北埔鄉",
      "rating": 4.3,
      "reviews": 631,
      "address": "314台灣新竹縣北埔鄉南興村公園街16巷1號",
      "categories": [
        "中式"
      ],
      "category": "中式",
      "tags": [
        "michelin-bib"
      ],
      "_sort": 1,
      "dishes": [],
      "lat": 24.6986118,
      "lng": 121.0582865
    },
    {
      "name": "鄒記菜包（中正店）",
      "description": "中式餐廳，在地美味",
      "area": "北埔鄉",
      "rating": 4.3,
      "reviews": 815,
      "address": "314台灣新竹縣北埔鄉北埔村中正路49號",
      "categories": [
        "中式"
      ],
      "category": "中式",
      "tags": [
        "michelin-bib"
      ],
      "_sort": 1,
      "dishes": [],
      "lat": 24.700611,
      "lng": 121.055987
    },
    {
      "name": "ㄤ咕麵",
      "description": "新竹市區知名客家麵食，Q彈麵條配油蔥酥豬油香，簡單卻讓人一吃再吃",
      "area": "",
      "rating": 4.1,
      "reviews": 10830,
      "categories": [
        "中式"
      ],
      "michelin": "bib",
      "category": "中式",
      "tags": [
        "michelin-bib"
      ],
      "_sort": 1,
      "dishes": [
        "乾麵",
        "丸子三兄弟湯",
        "鴨肉飯",
        "肉圓"
      ],
      "lat": 24.7928139,
      "lng": 121.1773787
    },
    {
      "name": "九添福牛肉麵館",
      "description": "招牌牛肉麵濃郁入味，吸引眾多麵食愛好者光顧。",
      "area": "東區",
      "rating": 4.4,
      "reviews": 956,
      "categories": [
        "中式"
      ],
      "michelin": "bib",
      "category": "中式",
      "tags": [
        "michelin-bib"
      ],
      "_sort": 1,
      "dishes": [],
      "lat": 24.803777,
      "lng": 120.9643088
    },
    {
      "name": "春嬌粄條",
      "description": "客家粄條、黑毛豬爌肉與家傳料理",
      "area": "北埔鄉",
      "rating": 4.3,
      "reviews": 631,
      "categories": [
        "中式"
      ],
      "michelin": "bib",
      "category": "中式",
      "tags": [
        "michelin-bib"
      ],
      "_sort": 1,
      "dishes": [],
      "lat": 24.6986118,
      "lng": 121.0582865
    },
    {
      "name": "鴻金食堂",
      "description": "百年老宅客家小炒與季節家常菜",
      "area": "峨眉鄉",
      "rating": 4.3,
      "reviews": 409,
      "categories": [
        "中式"
      ],
      "michelin": "bib",
      "category": "中式",
      "tags": [
        "michelin-bib"
      ],
      "_sort": 1,
      "dishes": [],
      "lat": 24.7599387,
      "lng": 121.0361193
    },
    {
      "name": "善菓堂",
      "description": "日式原木風格素食餐廳，融合台式、川菜與江浙菜技法",
      "area": "竹北市",
      "rating": 4.5,
      "reviews": 1152,
      "categories": [
        "素食"
      ],
      "michelin": "bib",
      "category": "素食",
      "tags": [
        "michelin-bib"
      ],
      "_sort": 1,
      "dishes": [],
      "lat": 24.8154939,
      "lng": 121.0193326
    },
    {
      "name": "唐草園",
      "description": "",
      "area": "湖口鄉",
      "rating": 4.4,
      "reviews": 730,
      "categories": [
        "中式"
      ],
      "michelin": "bib",
      "category": "中式",
      "tags": [
        "michelin-bib"
      ],
      "_sort": 1,
      "dishes": [],
      "lat": 24.8814458,
      "lng": 121.0449768
    },
    {
      "name": "菜園",
      "description": "",
      "area": "北區",
      "rating": 4.6,
      "reviews": 6130,
      "categories": [
        "中式"
      ],
      "michelin": "bib",
      "tags": [
        "michelin-bib"
      ],
      "category": "中式",
      "_sort": 1,
      "dishes": [],
      "lat": 24.8238676,
      "lng": 120.9474747
    },
    {
      "name": "禾日香",
      "description": "創意中式料理，注重食材原味",
      "area": "東區",
      "rating": 4,
      "reviews": 2049,
      "categories": [
        "中式"
      ],
      "michelin": "bib",
      "category": "中式",
      "tags": [
        "michelin-bib"
      ],
      "_sort": 1,
      "dishes": [],
      "lat": 24.8091185,
      "lng": 120.9789441
    },
    {
      "name": "弄味小廚",
      "description": "特色台菜盛宴，菜色多樣，讓人每次來都驚喜。",
      "area": "北區",
      "rating": 4.4,
      "reviews": 1096,
      "categories": [
        "中式"
      ],
      "michelin": "bib",
      "category": "中式",
      "tags": [
        "michelin-bib"
      ],
      "_sort": 1,
      "dishes": [],
      "lat": 24.7977365,
      "lng": 120.9513005
    },
    {
      "name": "禾日香古早味魯肉飯",
      "description": "",
      "area": "東區",
      "rating": 4,
      "reviews": 2049,
      "categories": [
        "中式"
      ],
      "tags": [
        "michelin-bib"
      ],
      "category": "中式",
      "_sort": 3,
      "dishes": [],
      "lat": 24.8091185,
      "lng": 120.9789441
    },
    {
      "name": "「拾起回憶」石憶食鍋（最後收客時間為2030）",
      "description": "超人氣鍋品，讓人重溫經典味道。",
      "area": "東區",
      "rating": 4.9,
      "reviews": 3301,
      "categories": [
        "中式"
      ],
      "tags": [
        "sp"
      ],
      "category": "中式",
      "_sort": 2,
      "dishes": [],
      "lat": 24.8023342,
      "lng": 120.9907791
    },
    {
      "name": "今鶴義式餐酒館-竹北店",
      "description": "超人氣義式餐酒館，提供豐富的異國美食選擇。",
      "area": "竹北市",
      "rating": 4.8,
      "reviews": 7361,
      "categories": [
        "西式"
      ],
      "tags": [
        "sp"
      ],
      "category": "西式",
      "_sort": 2,
      "dishes": [],
      "lat": 24.809736,
      "lng": 121.0259835
    },
    {
      "name": "雙月食品社 竹北店",
      "description": "提供多樣化的小吃選擇，口感豐富，實惠又美味。",
      "area": "竹北市",
      "rating": 4.6,
      "reviews": 496,
      "categories": [
        "中式"
      ],
      "category": "中式",
      "tags": [
        "sp"
      ],
      "_sort": 2,
      "dishes": [],
      "lat": 24.8355219,
      "lng": 121.0108425
    },
    {
      "name": "米庫早午食堂 & 被耽誤的炒麵店（創始店）最後點餐15:00",
      "description": "",
      "area": "東區",
      "rating": 4.4,
      "reviews": 1014,
      "categories": [
        "中式"
      ],
      "tags": [
        "sp"
      ],
      "category": "中式",
      "_sort": 2,
      "dishes": [],
      "lat": 24.810052,
      "lng": 120.9815488
    },
    {
      "name": "王記牛肉麵",
      "description": "",
      "area": "北區",
      "rating": 4.3,
      "reviews": 268,
      "categories": [
        "中式"
      ],
      "category": "中式",
      "tags": [
        "sp"
      ],
      "_sort": 2,
      "dishes": [],
      "lat": 24.8148096,
      "lng": 120.9612464
    },
    {
      "name": "湯明茶樓-新竹店",
      "description": "空間小巧的休閒餐廳，供應肉類料理、海鮮、茶飲等道地美食。",
      "area": "",
      "rating": 4.2,
      "reviews": 1031,
      "categories": [
        "咖啡廳"
      ],
      "tags": [
        "sp"
      ],
      "category": "咖啡廳",
      "_sort": 2,
      "dishes": [],
      "lat": 24.7977729,
      "lng": 120.9638791
    },
    {
      "name": "王記蚵仔煎",
      "description": "新鮮蚵仔的美味結合，讓每一口都充滿海味的幸福感。",
      "area": "北區",
      "rating": 4.1,
      "reviews": 728,
      "categories": [
        "中式"
      ],
      "tags": [
        "sp"
      ],
      "category": "中式",
      "_sort": 2,
      "dishes": [],
      "lat": 24.8041034,
      "lng": 120.965695
    },
    {
      "name": "2U Gelato 義式手工冰淇淋 新竹店",
      "description": "手工製作的義式冰淇淋，口味多樣，讓你愛不釋口。",
      "area": "北區",
      "rating": 5,
      "reviews": 219,
      "categories": [
        "甜品"
      ],
      "category": "甜品",
      "tags": [],
      "_sort": 3,
      "dishes": [],
      "lat": 24.8070285,
      "lng": 120.9656398
    },
    {
      "name": "22滿福食堂(原CLINK 餐酒館)、湖口宵夜、湖口晚餐、食堂、平價串燒",
      "description": "平價串燒及宵夜選擇，讓您在湖口享受美味與實惠的完美結合。",
      "area": "",
      "rating": 5,
      "reviews": 486,
      "categories": [
        "日式"
      ],
      "category": "日式",
      "tags": [],
      "_sort": 3,
      "dishes": [],
      "lat": 24.86978,
      "lng": 121.0292089
    },
    {
      "name": "昭日咖啡",
      "description": "優質咖啡與服務，超人氣店，讓每一位客人都感受到暖心的氛圍。",
      "area": "東區",
      "rating": 5,
      "reviews": 1805,
      "categories": [
        "咖啡廳"
      ],
      "category": "咖啡廳",
      "tags": [],
      "_sort": 3,
      "dishes": [],
      "lat": 24.811412,
      "lng": 120.9767607
    },
    {
      "name": "大丈夫燒肉居酒屋 Daijoubu Yakiniku-新竹燒肉推薦|深夜美食|熱門居酒屋|燒肉首選|熱門餐廳|居酒屋推薦",
      "description": "",
      "area": "東區",
      "rating": 5,
      "reviews": 354,
      "categories": [
        "西式"
      ],
      "category": "西式",
      "tags": [],
      "_sort": 3,
      "dishes": [],
      "lat": 24.8030224,
      "lng": 120.9671736
    },
    {
      "name": "越南素食",
      "description": "素食餐廳，提供健康蔬食料理。",
      "area": "新豐鄉",
      "rating": 5,
      "reviews": 9,
      "categories": [
        "素食"
      ],
      "tags": [],
      "category": "素食",
      "_sort": 3,
      "dishes": [],
      "lat": 24.8701896,
      "lng": 120.9955293
    },
    {
      "name": "越南素食料理",
      "description": "素食餐廳，提供健康蔬食料理。",
      "area": "竹東鎮",
      "rating": 5,
      "reviews": 5,
      "categories": [
        "素食"
      ],
      "tags": [],
      "category": "素食",
      "_sort": 3,
      "dishes": [],
      "lat": 24.7252144,
      "lng": 121.0856622
    },
    {
      "name": "活力多蔬食館",
      "description": "素食餐廳，提供健康蔬食料理。",
      "area": "竹東鎮",
      "rating": 5,
      "reviews": 6,
      "categories": [
        "素食"
      ],
      "tags": [],
      "category": "素食",
      "_sort": 3,
      "dishes": [],
      "lat": 24.7477466,
      "lng": 121.0815678
    },
    {
      "name": "彭記滷味（可素食）",
      "description": "素食餐廳，提供健康蔬食料理。",
      "area": "橫山鄉",
      "rating": 5,
      "reviews": 14,
      "categories": [
        "素食"
      ],
      "tags": [],
      "category": "素食",
      "_sort": 3,
      "dishes": [],
      "lat": 24.706257,
      "lng": 121.1801571
    },
    {
      "name": "蔬食茶飲",
      "description": "素食餐廳，提供健康蔬食料理。",
      "area": "關西鎮",
      "rating": 5,
      "reviews": 7,
      "categories": [
        "素食"
      ],
      "tags": [],
      "category": "素食",
      "_sort": 3,
      "dishes": [],
      "lat": 24.7889912,
      "lng": 121.1762887
    },
    {
      "name": "FASTARIAN 雨林美式蔬食料理（營業時間請看IG&FB限動）",
      "description": "素食餐廳，提供健康蔬食料理。",
      "area": "寶山鄉",
      "rating": 5,
      "reviews": 7,
      "categories": [
        "素食"
      ],
      "tags": [],
      "category": "素食",
      "_sort": 3,
      "dishes": [],
      "lat": 24.7786853,
      "lng": 120.9671411
    },
    {
      "name": "諾米蔬食壽司",
      "description": "素食餐廳，提供健康蔬食料理。",
      "area": "北區",
      "rating": 5,
      "reviews": 26,
      "categories": [
        "素食"
      ],
      "tags": [],
      "category": "素食",
      "_sort": 3,
      "dishes": [],
      "lat": 24.8160024,
      "lng": 120.9739354
    },
    {
      "name": "蜜蜂工坊_蜜蜂星球Bee planet",
      "description": "中式餐廳，在地美味",
      "area": "北埔鄉",
      "rating": 5,
      "reviews": 2165,
      "address": "314台灣新竹縣北埔鄉大湖村20號",
      "categories": [
        "中式"
      ],
      "category": "中式",
      "tags": [],
      "_sort": 3,
      "dishes": [],
      "lat": 24.7005477,
      "lng": 121.0736202
    },
    {
      "name": "星饗廚房𝒮𝓉𝒶𝓇ℱ𝑒𝒶𝓈𝓉⚠️僅收現金❌無訂位, 下午沒有休息，最後點餐19:45⚠️",
      "description": "",
      "area": "香山",
      "rating": 5,
      "reviews": 262,
      "address": "",
      "categories": [
        "中式"
      ],
      "category": "中式",
      "tags": [],
      "_sort": 3,
      "dishes": [],
      "lat": 24.7798216,
      "lng": 120.9302603
    },
    {
      "name": "洞心咖啡廳Heartbeat Cafe-新竹深夜咖啡廳/下午茶/手作甜點 手沖/精品/義式咖啡 輕食/蛋糕 咖啡課程體驗 桌遊/親子/包場/約會/網美/打卡 人氣熱門好評推薦 PTT Dcard",
      "description": "提供手作甜點與精品咖啡，適合約會與打卡的熱門地點。",
      "area": "東區",
      "rating": 4.9,
      "reviews": 242,
      "categories": [
        "咖啡廳"
      ],
      "tags": [],
      "category": "咖啡廳",
      "_sort": 3,
      "dishes": [],
      "lat": 24.8138287,
      "lng": 120.9674798
    },
    {
      "name": "JerryBrunch & Night｜Fine Brunch 奢華早午餐",
      "description": "JerryBrunch & Night，奢華早午餐，精緻美食與咖啡的完美搭配，享受悠閒時光。",
      "area": "東區",
      "rating": 4.9,
      "reviews": 919,
      "categories": [
        "咖啡廳"
      ],
      "category": "咖啡廳",
      "tags": [],
      "_sort": 3,
      "dishes": [],
      "lat": 24.81017,
      "lng": 120.9776102
    },
    {
      "name": "Sesame Pasta芝麻義式湯麵專賣店",
      "rating": 4.9,
      "reviews": 1234,
      "categories": [
        "西式"
      ],
      "area": "新豐鄉",
      "description": "",
      "category": "西式",
      "tags": [],
      "_sort": 3,
      "dishes": [],
      "lat": 24.8757096,
      "lng": 120.9962939
    },
    {
      "name": "Veyra微然蔬食(不定時公休 ig公告）plant based restaurant",
      "description": "素食餐廳，提供健康蔬食料理。",
      "area": "湖口鄉",
      "rating": 4.9,
      "reviews": 44,
      "categories": [
        "素食"
      ],
      "tags": [],
      "category": "素食",
      "_sort": 3,
      "dishes": [],
      "lat": 24.8665664,
      "lng": 120.9870316
    },
    {
      "name": "好想你極品鍋物",
      "description": "招牌鍋品新鮮多樣，人氣火鍋店，吸引眾多食客光臨。",
      "area": "北區",
      "rating": 4.9,
      "reviews": 564,
      "categories": [
        "火鍋"
      ],
      "category": "火鍋",
      "tags": [],
      "_sort": 3,
      "dishes": [],
      "lat": 24.7998612,
      "lng": 120.961268
    },
    {
      "name": "真涮吃到飽火鍋（總部）",
      "description": "品項豐富的吃到飽火鍋，成為食客聚集的理想選擇。",
      "area": "竹北市",
      "rating": 4.9,
      "reviews": 6624,
      "categories": [
        "火鍋"
      ],
      "category": "火鍋",
      "tags": [],
      "_sort": 3,
      "dishes": [],
      "lat": 24.8350909,
      "lng": 121.0120872
    },
    {
      "name": "堺坊 ShabuShabu 有機農場-竹北火鍋 餐廳",
      "description": "有機食材新鮮健康，人氣火鍋餐廳，讓人享受美味與健康。",
      "area": "竹北市",
      "rating": 4.9,
      "reviews": 7396,
      "categories": [
        "火鍋"
      ],
      "category": "火鍋",
      "tags": [],
      "_sort": 3,
      "dishes": [],
      "lat": 24.8317421,
      "lng": 121.0075197
    },
    {
      "name": "韋爐新竹巨城店（石頭鍋/麻辣/鴛鴦/酸白菜）",
      "description": "",
      "area": "東區",
      "rating": 4.9,
      "reviews": 1866,
      "categories": [
        "火鍋"
      ],
      "category": "火鍋",
      "tags": [],
      "_sort": 3,
      "dishes": [],
      "lat": 24.808847,
      "lng": 120.9730671
    },
    {
      "name": "爆川辣妹子烤魚 - 新竹信義店-新竹四川美食|四川麻辣鍋|美食推薦|烤魚推薦|特色美食|熱門烤魚|在地推薦餐廳",
      "description": "愜意的四川菜餐廳，在令人放鬆的用餐空間中供應烤魚、餃類和麵食。",
      "area": "東區",
      "rating": 4.9,
      "reviews": 2799,
      "categories": [
        "火鍋"
      ],
      "category": "火鍋",
      "tags": [],
      "_sort": 3,
      "dishes": [],
      "lat": 24.7920609,
      "lng": 120.993378
    },
    {
      "name": "時覓 海鮮丼飯專門店",
      "description": "",
      "area": "北區",
      "rating": 4.9,
      "reviews": 2419,
      "categories": [
        "日式"
      ],
      "category": "日式",
      "tags": [],
      "_sort": 3,
      "dishes": [],
      "lat": 24.8050344,
      "lng": 120.9670733
    },
    {
      "name": "FOXLOVE COFFEE 咖啡廳",
      "description": "專注優質咖啡與舒適氛圍，是咖啡愛好者的理想場所。",
      "area": "北區",
      "rating": 4.9,
      "reviews": 699,
      "categories": [
        "咖啡廳"
      ],
      "category": "咖啡廳",
      "tags": [],
      "_sort": 3,
      "dishes": [],
      "lat": 24.7975516,
      "lng": 120.9621578
    },
    {
      "name": "城隍廟口甜不辣",
      "description": "人氣的夜市小吃，外酥內嫩，讓人一口接一口。",
      "area": "北區",
      "rating": 4.9,
      "reviews": 1363,
      "categories": [
        "中式"
      ],
      "nm_area": "城隍廟夜市",
      "category": "中式",
      "tags": [],
      "_sort": 3,
      "dishes": [],
      "lat": 24.805042,
      "lng": 120.9650961
    },
    {
      "name": "小佐藤手作壽司",
      "description": "手作壽司新鮮美味, 受到食客熱烈追捧的日式料理。",
      "area": "東區",
      "rating": 4.9,
      "reviews": 373,
      "categories": [
        "日式"
      ],
      "category": "日式",
      "tags": [],
      "_sort": 3,
      "dishes": [],
      "lat": 24.8009051,
      "lng": 120.9669739
    },
    {
      "name": "拾燒食事（居酒屋.宴席.丼飯.壽司.串燒）",
      "description": "居酒屋氛圍，串燒和壽司皆受歡迎，適合宴席聚餐。",
      "area": "北區",
      "rating": 4.9,
      "reviews": 357,
      "categories": [
        "日式"
      ],
      "category": "日式",
      "tags": [],
      "_sort": 3,
      "dishes": [],
      "lat": 24.826523,
      "lng": 120.9673889
    },
    {
      "name": "柒伍無煙燒肉",
      "description": "",
      "area": "東區",
      "rating": 4.9,
      "reviews": 15228,
      "categories": [
        "西式"
      ],
      "category": "西式",
      "tags": [],
      "_sort": 3,
      "dishes": [
        "牛小排",
        "豬梅花",
        "雞腿肉",
        "松阪豬",
        "海鮮拼盤"
      ],
      "lat": 24.8031806,
      "lng": 120.9696751
    },
    {
      "name": "森森燒肉 新竹清大店",
      "description": "超人氣燒肉專賣，提供高品質肉品，讓食客盡享肉香。",
      "area": "東區",
      "rating": 4.9,
      "reviews": 10628,
      "categories": [
        "西式"
      ],
      "category": "西式",
      "tags": [],
      "_sort": 3,
      "dishes": [],
      "lat": 24.7980508,
      "lng": 120.9944424
    },
    {
      "name": "燒肉モルディブ馬爾地夫新竹本店",
      "description": "",
      "area": "北區",
      "rating": 4.9,
      "reviews": 1544,
      "categories": [
        "西式"
      ],
      "category": "西式",
      "tags": [],
      "_sort": 3,
      "dishes": [],
      "lat": 24.8056945,
      "lng": 120.9612691
    },
    {
      "name": "泉燒肉IzumiYakiniku",
      "description": "",
      "area": "竹北市",
      "rating": 4.9,
      "reviews": 557,
      "categories": [
        "西式"
      ],
      "category": "西式",
      "tags": [],
      "_sort": 3,
      "dishes": [],
      "lat": 24.8263047,
      "lng": 121.0302736
    },
    {
      "name": "大阪燒肉 燒魂Yakikon新竹店",
      "description": "",
      "area": "東區",
      "rating": 4.9,
      "reviews": 8767,
      "categories": [
        "西式"
      ],
      "category": "西式",
      "tags": [],
      "_sort": 3,
      "dishes": [],
      "lat": 24.802726,
      "lng": 120.9698286
    },
    {
      "name": "森森燒肉 竹北莊敬店",
      "description": "",
      "area": "竹北市",
      "rating": 4.9,
      "reviews": 22767,
      "categories": [
        "西式"
      ],
      "category": "西式",
      "tags": [],
      "_sort": 3,
      "dishes": [
        "美國Choice牛小排",
        "豬梅花",
        "雞腿肉",
        "北海道干貝",
        "霜淇淋"
      ],
      "lat": 24.8192603,
      "lng": 121.02166
    },
    {
      "name": "阿叔燒肉（金城店）",
      "description": "",
      "area": "東區",
      "rating": 4.9,
      "reviews": 776,
      "categories": [
        "西式"
      ],
      "category": "西式",
      "tags": [],
      "_sort": 3,
      "dishes": [],
      "lat": 24.7953695,
      "lng": 121.0028782
    },
    {
      "name": "豪客窯烤雞 新竹店",
      "description": "招牌窯烤雞肉鮮嫩多汁，吸引眾多食客光臨。",
      "area": "東區",
      "rating": 4.9,
      "reviews": 669,
      "categories": [
        "中式"
      ],
      "category": "中式",
      "tags": [],
      "_sort": 3,
      "dishes": [],
      "lat": 24.8134267,
      "lng": 120.9742912
    },
    {
      "name": "金牌果汁城隍店",
      "description": "專注於新鮮果汁，人氣茶飲選擇多樣，口感絕佳。",
      "area": "北區",
      "rating": 4.9,
      "reviews": 790,
      "categories": [
        "咖啡廳"
      ],
      "category": "咖啡廳",
      "tags": [],
      "_sort": 3,
      "dishes": [],
      "lat": 24.804327,
      "lng": 120.965222
    },
    {
      "name": "露營瘋小餐館平日中午改預約制（帝王蟹|泰國蝦|烤魚| 龍蝦| 串燒|熱炒|線上點餐|竹北外帶美食|平價美食|推薦美食|人氣美食|熱門小吃|特色小吃|宵夜推薦|地方小吃)",
      "description": "主打海鮮料理，豐富選擇，人氣美食，適合聚會。",
      "area": "竹北市",
      "rating": 4.9,
      "reviews": 356,
      "categories": [
        "中式"
      ],
      "category": "中式",
      "tags": [],
      "_sort": 3,
      "dishes": []
    },
    {
      "name": "秘醬滷味 湖口仁和店 ｜下酒菜｜宵夜美食｜冷滷味（可線上預訂）",
      "description": "宵夜冷滷味首選，搭配酒品的絕佳下酒菜。",
      "area": "湖口鄉",
      "rating": 4.9,
      "reviews": 490,
      "categories": [
        "中式"
      ],
      "category": "中式",
      "tags": [],
      "_sort": 3,
      "dishes": [],
      "lat": 24.8728013,
      "lng": 121.0150991
    },
    {
      "name": "悅自在蔬食無菜單料理",
      "description": "素食餐廳，提供健康蔬食料理。",
      "area": "新豐鄉",
      "rating": 4.9,
      "reviews": 124,
      "categories": [
        "素食"
      ],
      "tags": [],
      "category": "素食",
      "_sort": 3,
      "dishes": [
        {
          "name": "無菜單蔬食料理",
          "description": "採預約制，透過在地食材烹飪健康獨特的蔬食"
        },
        {
          "name": "自家栽種鮮蔬",
          "description": "全綠色葉菜類皆為自家無農藥精心栽種"
        },
        {
          "name": "60年老宅蔬食",
          "description": "超過60年特色老宅中享用精緻蔬食，身心收穫滿滿"
        }
      ],
      "lat": 24.8978198,
      "lng": 120.9894112
    },
    {
      "name": "竹東慧芯素食",
      "description": "素食餐廳，提供健康蔬食料理。",
      "area": "竹東鎮",
      "rating": 4.9,
      "reviews": 29,
      "categories": [
        "素食"
      ],
      "tags": [],
      "category": "素食",
      "_sort": 3,
      "dishes": [],
      "lat": 24.7372518,
      "lng": 121.0934249
    },
    {
      "name": "金英餐麵館",
      "description": "麵食專賣店，湯頭講究",
      "area": "北埔鄉",
      "rating": 4.9,
      "reviews": 1220,
      "address": "314台灣新竹縣北埔鄉北埔村北埔街52號",
      "categories": [
        "中式"
      ],
      "category": "中式",
      "tags": [],
      "_sort": 3,
      "dishes": [],
      "lat": 24.6998953,
      "lng": 121.0563125
    },
    {
      "name": "杉沐松農場（風味餐廳、休閒體驗）",
      "description": "",
      "area": "尖石鄉",
      "rating": 4.9,
      "reviews": 374,
      "address": "",
      "categories": [
        "中式"
      ],
      "category": "中式",
      "tags": [],
      "_sort": 3,
      "dishes": [],
      "lat": 24.6771365,
      "lng": 121.2460053
    },
    {
      "name": "凌雲閣",
      "description": "",
      "area": "尖石鄉",
      "rating": 4.9,
      "reviews": 336,
      "address": "",
      "categories": [
        "中式"
      ],
      "category": "中式",
      "tags": [],
      "_sort": 3,
      "dishes": [],
      "lat": 24.662059,
      "lng": 121.2810658
    },
    {
      "name": "桐聚 鍋物 TUNG JU．SHABU",
      "description": "",
      "area": "尖石鄉",
      "rating": 4.9,
      "reviews": 476,
      "address": "",
      "categories": [
        "火鍋"
      ],
      "category": "火鍋",
      "tags": [],
      "_sort": 3,
      "dishes": [],
      "lat": 24.7056125,
      "lng": 121.2084801
    },
    {
      "name": "宮秘園 |採電話預約制（古漢醫珍補）",
      "description": "",
      "area": "尖石鄉",
      "rating": 4.9,
      "reviews": 292,
      "address": "",
      "categories": [
        "中式"
      ],
      "category": "中式",
      "tags": [],
      "_sort": 3,
      "dishes": [],
      "lat": 24.7218508,
      "lng": 121.21494
    },
    {
      "name": "品宣時光景觀咖啡",
      "description": "",
      "area": "橫山鄉",
      "rating": 4.9,
      "reviews": 267,
      "address": "",
      "categories": [
        "咖啡廳"
      ],
      "category": "咖啡廳",
      "tags": [],
      "_sort": 3,
      "dishes": [],
      "lat": 24.6990963,
      "lng": 121.1400762
    },
    {
      "name": "青夏｜霜淇淋｜點心｜橫山",
      "description": "",
      "area": "橫山鄉",
      "rating": 4.9,
      "reviews": 287,
      "address": "",
      "categories": [
        "中式"
      ],
      "category": "中式",
      "tags": [],
      "_sort": 3,
      "dishes": [],
      "lat": 24.7067859,
      "lng": 121.1801527
    },
    {
      "name": "NU PASTA 新竹竹東店",
      "description": "",
      "area": "竹東鎮",
      "rating": 4.9,
      "reviews": 1359,
      "address": "",
      "categories": [
        "西式"
      ],
      "category": "西式",
      "tags": [],
      "_sort": 3,
      "dishes": [],
      "lat": 24.7421565,
      "lng": 121.0858759
    },
    {
      "name": "鵝子(竹北縣政店) - 鵝肉 海鮮丼 新竹日式料理 竹北鰻魚飯",
      "description": "新鮮鵝肉與海鮮丼，日式料理愛好者的理想之地。",
      "area": "竹北市",
      "rating": 4.8,
      "reviews": 2235,
      "categories": [
        "中式"
      ],
      "category": "中式",
      "tags": [],
      "_sort": 3,
      "dishes": [],
      "lat": 24.8265799,
      "lng": 121.0160401
    },
    {
      "name": "jam kitchen 新竹北大站",
      "description": "創意台菜餐廳，菜色精緻，深受食客喜愛。",
      "area": "",
      "rating": 4.8,
      "reviews": 6169,
      "categories": [
        "中式"
      ],
      "category": "中式",
      "tags": [],
      "_sort": 3,
      "dishes": [],
      "lat": 24.8086235,
      "lng": 120.9664128
    },
    {
      "name": "翰食堂【竹北日式餐廳】家庭聚餐｜朋友聚會｜日式美食｜日式料理｜生魚片",
      "description": "提供新鮮生魚片的日式料理，適合朋友聚會共享美好時光。",
      "area": "竹北市",
      "rating": 4.8,
      "reviews": 1109,
      "categories": [
        "日式"
      ],
      "category": "日式",
      "tags": [],
      "_sort": 3,
      "dishes": [],
      "lat": 24.8379813,
      "lng": 120.996702
    },
    {
      "name": "無店家料理/深夜烤魚-總店 - 新竹 東區 宵夜餐廳推薦 深夜烤魚首選 新竹美食好評 新竹熱門人氣海鮮料理 高CP值魚料理 海鮮餐廳 必吃烤魚外帶 烤蝦外送 在地美食 小酌聚會",
      "description": "超人氣烤魚與海鮮小酌聚會的最佳選擇, 高CP值讓人回味無窮。",
      "area": "東區",
      "rating": 4.8,
      "reviews": 832,
      "categories": [
        "中式"
      ],
      "category": "中式",
      "tags": [],
      "_sort": 3,
      "dishes": [],
      "lat": 24.8092061,
      "lng": 120.9760383
    },
    {
      "name": "DoDidDone Coffee Cottage",
      "description": "手工咖啡與自家烘焙，讓每一口都充滿驚喜。",
      "area": "北區",
      "rating": 4.8,
      "reviews": 215,
      "categories": [
        "咖啡廳"
      ],
      "category": "咖啡廳",
      "tags": [],
      "_sort": 3,
      "dishes": [
        {
          "name": "巴斯克蛋糕",
          "description": "綿密的巴斯克蛋糕，甜點驚喜滿滿"
        },
        {
          "name": "蘋果派",
          "description": "酥脆蘋果派，大塊蘋果果肉配肉桂香氣"
        },
        {
          "name": "手沖咖啡",
          "description": "老闆細心介紹咖啡豆，實驗精神烘焙"
        }
      ],
      "lat": 24.81583,
      "lng": 120.967442
    },
    {
      "name": "自然產販豆所 coffee & roaster (無訂位／營業時間依IG為主)",
      "description": "",
      "area": "北區",
      "rating": 4.8,
      "reviews": 308,
      "categories": [
        "咖啡廳"
      ],
      "category": "咖啡廳",
      "tags": [],
      "_sort": 3,
      "dishes": [
        {
          "name": "巴斯克蛋糕",
          "description": "濃郁綿密的巴斯克蛋糕，自家烘焙咖啡的最佳搭配"
        },
        {
          "name": "每日手沖單品咖啡",
          "description": "自烘豆專賣，精選阿拉比卡豆，香醇濃郁"
        },
        {
          "name": "純粹布丁",
          "description": "口感滑嫩的手工布丁，甜度適中不膩口"
        }
      ],
      "lat": 24.8065812,
      "lng": 120.9651638
    },
    {
      "name": "Mr.steak史堤克牛排新竹店",
      "description": "享受高品質的牛排料理，人氣持續上升中。",
      "area": "東區",
      "rating": 4.8,
      "reviews": 823,
      "categories": [
        "西式"
      ],
      "category": "西式",
      "tags": [],
      "_sort": 3,
      "dishes": [],
      "lat": 24.8024308,
      "lng": 120.9709871
    },
    {
      "name": "白鬍子牛排 竹北國中店 （平價牛排/平價竹北美食/原肉牛排/下午不休息/外帶外送/在地名店/本地人推薦/排餐/午餐/晚餐/中正西路商圈美食⁠）",
      "description": "平價牛排之選，無論午晚餐都可享受美味牛排。",
      "area": "竹北市",
      "rating": 4.8,
      "reviews": 1109,
      "categories": [
        "西式"
      ],
      "category": "西式",
      "tags": [],
      "_sort": 3,
      "dishes": [],
      "lat": 24.8407728,
      "lng": 121.0005444
    },
    {
      "name": "阿木麵食館、蔬食vegetarian / 素食",
      "description": "素食餐廳，提供健康蔬食料理。",
      "area": "寶山鄉",
      "rating": 4.8,
      "reviews": 272,
      "categories": [
        "素食"
      ],
      "tags": [],
      "category": "素食",
      "_sort": 3,
      "dishes": [
        {
          "name": "素食麵食",
          "description": "寶山鄉素食麵食館，各式蔬食麵點，健康美味"
        },
        {
          "name": "蔬菜水餃",
          "description": "手工包製蔬菜水餃，皮薄餡多，清爽不膩"
        },
        {
          "name": "麻醬麵",
          "description": "素食麻醬麵，香濃芝麻醬搭配Q彈麵條，簡單滿足"
        }
      ],
      "lat": 24.7977741,
      "lng": 120.9746298
    },
    {
      "name": "泰余麵清燉牛肉麵/竹北美食/牛肉麵",
      "description": "提供香醇的清燉牛肉麵，讓人回味無窮。",
      "area": "竹北市",
      "rating": 4.8,
      "reviews": 641,
      "categories": [
        "中式"
      ],
      "category": "中式",
      "tags": [],
      "_sort": 3,
      "dishes": [
        {
          "name": "清燉牛肉麵",
          "description": "招牌清燉牛肉麵，湯頭清甜鮮美，牛肉軟嫩入味"
        },
        {
          "name": "紅燒牛肉麵",
          "description": "紅燒風味牛肉麵，湯頭濃郁香醇，麵條Q彈"
        },
        {
          "name": "牛雜麵",
          "description": "牛雜麵，多種牛內臟搭配清燉湯頭，料多實在"
        }
      ],
      "lat": 24.832033,
      "lng": 121.0082433
    },
    {
      "name": "內灣戲院人文客家餐廳",
      "description": "內灣老街日式木造戲院改建，客家菜結合懷舊氛圍，招牌客家小炒薑絲大腸道地入味",
      "area": "",
      "rating": 4.8,
      "reviews": 3946,
      "categories": [
        "中式"
      ],
      "category": "中式",
      "tags": [],
      "_sort": 3,
      "dishes": [],
      "lat": 24.705588,
      "lng": 121.181198
    },
    {
      "name": "尖石媽媽的店",
      "description": "",
      "area": "尖石鄉",
      "rating": 4.8,
      "reviews": 1999,
      "categories": [
        "中式"
      ],
      "category": "中式",
      "tags": [],
      "_sort": 3,
      "dishes": [],
      "lat": 24.7011521,
      "lng": 121.1966145
    },
    {
      "name": "私嚐の吃飯",
      "description": "人氣麵食餐廳，提供多樣化的麵食選擇",
      "area": "",
      "rating": 4.8,
      "reviews": 12277,
      "categories": [
        "中式"
      ],
      "category": "中式",
      "tags": [],
      "_sort": 3,
      "dishes": [
        "私嚐咖哩唐揚雞飯",
        "螺旋禮服蛋",
        "好多蛤蜊烏龍麵",
        "私嚐咖哩嫩肩牛排",
        "私藏咖哩炸豬排"
      ],
      "lat": 24.8056537,
      "lng": 120.9701229
    },
    {
      "name": "鹿森林",
      "description": "",
      "area": "",
      "rating": 4.8,
      "reviews": 821,
      "categories": [
        "中式"
      ],
      "category": "中式",
      "tags": [],
      "_sort": 3,
      "dishes": [],
      "lat": 24.7996238,
      "lng": 120.9646467
    },
    {
      "name": "宗初食堂 日式無菜單料理 新竹總店",
      "description": "超人氣餐廳，提供多樣化的美味料理選擇",
      "area": "",
      "rating": 4.8,
      "reviews": 12838,
      "categories": [
        "日式"
      ],
      "category": "日式",
      "tags": [],
      "_sort": 3,
      "dishes": [],
      "dishes_searched": true,
      "lat": 24.8056486,
      "lng": 120.9661822
    },
    {
      "name": "明水然・樂 新竹大遠百店",
      "description": "超人氣的中式台菜，菜品新鮮且創意十足，適合家庭聚餐共享。",
      "area": "",
      "rating": 4.8,
      "reviews": 3861,
      "categories": [
        "中式"
      ],
      "category": "中式",
      "tags": [],
      "_sort": 3,
      "dishes": [],
      "lat": 24.8019453,
      "lng": 120.9649054
    },
    {
      "name": "瓦藍義式廚房-新竹義大利麵,平價美食,聚餐餐廳",
      "description": "",
      "area": "",
      "rating": 4.8,
      "reviews": 263,
      "categories": [
        "西式"
      ],
      "category": "西式",
      "tags": [],
      "_sort": 3,
      "dishes": [
        {
          "name": "橘醬雞肉義大利麵",
          "description": "人氣精選橘醬搭配雞肉，濃郁奶香與橘醬的完美結合"
        },
        {
          "name": "青醬海鮮義大利麵",
          "description": "新鮮羅勒青醬搭配海鮮，平價美味的義式風味"
        },
        {
          "name": "燉飯",
          "description": "多種口味燉飯，飯麵加量不加價，高CP值選擇"
        }
      ],
      "lat": 24.8036819,
      "lng": 120.973583
    },
    {
      "name": "阿本家 竹北文和店",
      "description": "超人氣中式台菜，經典菜色與優質服務讓每位食客都能滿意而歸。",
      "area": "竹北市",
      "rating": 4.8,
      "reviews": 6629,
      "categories": [
        "中式"
      ],
      "category": "中式",
      "tags": [],
      "_sort": 3,
      "dishes": [],
      "lat": 24.829969,
      "lng": 121.0145331
    },
    {
      "name": "Next Stop+ 香港手作料理 (竹北店）",
      "description": "超人氣中式台菜，讓你在這裡",
      "area": "竹北市",
      "rating": 4.8,
      "reviews": 3146,
      "categories": [
        "中式"
      ],
      "category": "中式",
      "tags": [],
      "_sort": 3,
      "dishes": [],
      "lat": 24.8325059,
      "lng": 121.01022
    },
    {
      "name": "拾年一刻 TRATTORIA┃竹北義式餐廳",
      "description": "",
      "area": "竹北市",
      "rating": 4.8,
      "reviews": 585,
      "categories": [
        "西式"
      ],
      "category": "西式",
      "tags": [],
      "_sort": 3,
      "dishes": [],
      "lat": 24.8358752,
      "lng": 120.9971818
    },
    {
      "name": "裏月·晴酒しゃぶしゃぶ",
      "description": "精緻的中式火鍋，讓人享受溫暖的聚餐時光。",
      "area": "竹北市",
      "rating": 4.8,
      "reviews": 843,
      "categories": [
        "火鍋"
      ],
      "category": "火鍋",
      "tags": [],
      "_sort": 3,
      "dishes": [],
      "lat": 24.8312168,
      "lng": 121.0077223
    },
    {
      "name": "滾滾風居GUNGUN FONDUE",
      "description": "",
      "area": "竹北市",
      "rating": 4.8,
      "reviews": 1820,
      "categories": [
        "火鍋"
      ],
      "category": "火鍋",
      "tags": [],
      "_sort": 3,
      "dishes": [],
      "lat": 24.82403,
      "lng": 121.0260256
    },
    {
      "name": "天吉屋 竹北遠百店",
      "description": "多樣化的中式料理，滿足各種口味的需求。",
      "area": "竹北市",
      "rating": 4.8,
      "reviews": 2634,
      "categories": [
        "中式"
      ],
      "category": "中式",
      "tags": [],
      "_sort": 3,
      "dishes": [],
      "lat": 24.8227117,
      "lng": 121.0233441
    },
    {
      "name": "ABV加勒比海餐酒館 竹北旗艦店",
      "description": "超人氣加勒比海料理，氛圍悠閒，酒品多樣化，令人陶醉。",
      "area": "竹北市",
      "rating": 4.8,
      "reviews": 3600,
      "categories": [
        "中式"
      ],
      "category": "中式",
      "tags": [],
      "_sort": 3,
      "dishes": [],
      "lat": 24.820705,
      "lng": 121.026713
    },
    {
      "name": "網紅輕食代",
      "description": "",
      "area": "",
      "rating": 4.8,
      "reviews": 1175,
      "categories": [
        "咖啡廳"
      ],
      "category": "咖啡廳",
      "tags": [],
      "_sort": 3,
      "dishes": [],
      "lat": 24.8963758,
      "lng": 121.0463446
    },
    {
      "name": "光英的故事麵食館",
      "description": "特色湯頭與手工麵條，令人驚豔的美味體驗。",
      "area": "北區",
      "rating": 4.8,
      "reviews": 262,
      "categories": [
        "中式"
      ],
      "category": "中式",
      "tags": [],
      "_sort": 3,
      "dishes": [
        {
          "name": "麻辣牛肉麵",
          "description": "牛骨慢火熬湯加上獨特麻辣醬料，懷舊麵食館的招牌"
        },
        {
          "name": "餛飩麵",
          "description": "眷村風味的餛飩麵，皮薄餡多搭配清甜湯頭"
        },
        {
          "name": "綜合滷味",
          "description": "150元有肉有蛋又有菜，份量十足的划算小菜"
        }
      ],
      "lat": 24.8147936,
      "lng": 120.9588889
    },
    {
      "name": "同樂食鍋 新竹巨城三民店",
      "description": "食材新鮮，湯底多樣，口味豐富。",
      "area": "東區",
      "rating": 4.8,
      "reviews": 1666,
      "categories": [
        "中式"
      ],
      "category": "中式",
      "tags": [],
      "_sort": 3,
      "dishes": [],
      "lat": 24.8098981,
      "lng": 120.9792166
    },
    {
      "name": "涮樂和牛鍋物 食べ放題 第一品牌-新竹經國店",
      "description": "超人氣火鍋，吃到飽的極致享受。",
      "area": "東區",
      "rating": 4.8,
      "reviews": 3931,
      "categories": [
        "火鍋"
      ],
      "category": "火鍋",
      "tags": [],
      "_sort": 3,
      "dishes": [],
      "lat": 24.8136088,
      "lng": 120.9684962
    },
    {
      "name": "岩漿漢方麻辣火鍋-新竹經國店",
      "description": "",
      "area": "北區",
      "rating": 4.8,
      "reviews": 5059,
      "categories": [
        "火鍋"
      ],
      "category": "火鍋",
      "tags": [],
      "_sort": 3,
      "dishes": [],
      "lat": 24.8136995,
      "lng": 120.9679102
    },
    {
      "name": "八柴多元鍋物",
      "description": "提供多樣化的鍋品選擇，讓每位食客都能找到心頭好。",
      "area": "東區",
      "rating": 4.8,
      "reviews": 319,
      "categories": [
        "火鍋"
      ],
      "category": "火鍋",
      "tags": [],
      "_sort": 3,
      "dishes": [],
      "lat": 24.7934614,
      "lng": 120.9629729
    },
    {
      "name": "海底撈火鍋 新竹店",
      "description": "超人氣火鍋餐廳，提供多樣化的鍋物選擇",
      "area": "東區",
      "rating": 4.8,
      "reviews": 16395,
      "categories": [
        "火鍋"
      ],
      "category": "火鍋",
      "tags": [],
      "_sort": 3,
      "dishes": [
        "番茄鍋底",
        "麻辣鍋底",
        "撈麵",
        "蝦滑",
        "肥牛"
      ],
      "lat": 24.8018619,
      "lng": 120.964666
    },
    {
      "name": "養鍋 Yang Guo 石頭涮涮鍋 (新竹光復店)",
      "description": "石頭涮涮鍋的創新選擇，超人氣店鋪，讓人一試成主顧。",
      "area": "東區",
      "rating": 4.8,
      "reviews": 4305,
      "categories": [
        "火鍋"
      ],
      "category": "火鍋",
      "tags": [],
      "_sort": 3,
      "dishes": [],
      "lat": 24.7866227,
      "lng": 121.0110437
    },
    {
      "name": "同樂食鍋竹北自強店（最後收客21:30）",
      "description": "超人氣中式食鍋，提供多樣化的鍋底與食材選擇。",
      "area": "竹北市",
      "rating": 4.8,
      "reviews": 6110,
      "categories": [
        "中式"
      ],
      "category": "中式",
      "tags": [],
      "_sort": 3,
      "dishes": [],
      "lat": 24.815894,
      "lng": 121.0253584
    },
    {
      "name": "孔金麻辣鴛鴦鍋吃到飽",
      "description": "",
      "area": "北區",
      "rating": 4.8,
      "reviews": 894,
      "categories": [
        "火鍋"
      ],
      "category": "火鍋",
      "tags": [],
      "_sort": 3,
      "dishes": [
        {
          "name": "美國PRIME熟成霜降牛",
          "description": "嚴選美國PRIME等級熟成霜降牛肉，肉質鮮嫩油花均勻，麻辣鍋必點"
        },
        {
          "name": "西班牙頂級松阪豬",
          "description": "來自西班牙的頂級松阪豬，口感脆彈帶有豬肉甜香，配料用心"
        },
        {
          "name": "天使紅蝦",
          "description": "新鮮天使紅蝦，肉質飽滿鮮甜，搭配麻辣湯頭更添風味"
        }
      ],
      "lat": 24.8079554,
      "lng": 120.9577195
    },
    {
      "name": "月團圓雞湯火鍋（竹北店）野菜自助吧",
      "description": "招牌雞湯火鍋，配有豐富的野菜自助吧，超人氣。",
      "area": "竹北市",
      "rating": 4.8,
      "reviews": 3019,
      "categories": [
        "火鍋"
      ],
      "category": "火鍋",
      "tags": [],
      "_sort": 3,
      "dishes": [],
      "lat": 24.8263019,
      "lng": 121.028334
    },
    {
      "name": "嘉福食堂-南寮美食-熱炒-生魚片-海鮮餐廳",
      "description": "熱炒與生魚片完美結合，超人氣美食選擇。",
      "area": "北區",
      "rating": 4.8,
      "reviews": 1670,
      "categories": [
        "中式"
      ],
      "category": "中式",
      "tags": [],
      "_sort": 3,
      "dishes": [],
      "lat": 24.8484789,
      "lng": 120.9291981
    },
    {
      "name": "那家咖啡館 試營運中",
      "description": "令人放鬆的咖啡廳，在可欣賞街景的明亮用餐環境中供應糕點、咖啡和飲品。",
      "area": "北區",
      "rating": 4.8,
      "reviews": 2909,
      "categories": [
        "咖啡廳"
      ],
      "category": "咖啡廳",
      "tags": [],
      "_sort": 3,
      "dishes": [],
      "lat": 24.803297,
      "lng": 120.966478
    },
    {
      "name": "野海壽司",
      "description": "新鮮壽司搭配創意口味, 超人氣日式料理店，令人驚艷。",
      "area": "東區",
      "rating": 4.8,
      "reviews": 2646,
      "categories": [
        "日式"
      ],
      "tags": [],
      "category": "日式",
      "_sort": 3,
      "dishes": [],
      "lat": 24.807079,
      "lng": 120.975231
    },
    {
      "name": "藤川和食 ふじかわ",
      "description": "",
      "area": "北區",
      "rating": 4.8,
      "reviews": 638,
      "categories": [
        "日式"
      ],
      "category": "日式",
      "tags": [],
      "_sort": 3,
      "dishes": [
        {
          "name": "日本料理定食",
          "description": "精緻日式定食，多道小菜搭配主菜，新鮮美味"
        },
        {
          "name": "生魚片",
          "description": "新鮮生魚片，師傅手工切片，鮮甜可口"
        },
        {
          "name": "握壽司",
          "description": "手握壽司，醋飯搭配新鮮魚料，風味絕佳"
        }
      ],
      "lat": 24.8062403,
      "lng": 120.9664649
    },
    {
      "name": "賞壽司",
      "description": "鮮美壽司搭配多樣選擇, 超人氣日式餐廳，讓人一再回訪。",
      "area": "北區",
      "rating": 4.8,
      "reviews": 2530,
      "categories": [
        "日式"
      ],
      "category": "日式",
      "tags": [],
      "_sort": 3,
      "dishes": [],
      "lat": 24.8483055,
      "lng": 120.9292692
    },
    {
      "name": "秀 創意壽司坊",
      "description": "創新壽司料理豐富多樣，適合喜愛嘗鮮的食客。",
      "area": "東區",
      "rating": 4.8,
      "reviews": 264,
      "categories": [
        "日式"
      ],
      "category": "日式",
      "tags": [],
      "_sort": 3,
      "dishes": [
        {
          "name": "創意九宮格壽司",
          "description": "招牌九宮格壽司，多種口味一次品嚐，視覺味覺雙享受"
        },
        {
          "name": "焦糖起司玉子燒",
          "description": "人氣品項，焦糖甜味與起司的創意搭配，口感滑嫩"
        },
        {
          "name": "炙燒鮭魚握壽司",
          "description": "超大一顆只要40元，炙燒鮭魚配醋飯，高CP值"
        }
      ],
      "lat": 24.8055441,
      "lng": 120.982946
    },
    {
      "name": "麥味登-香山牛埔店/新竹香山人氣早午餐/熱門早午餐/平價早午餐/",
      "description": "",
      "area": "香山",
      "rating": 4.8,
      "reviews": 242,
      "categories": [
        "咖啡廳"
      ],
      "category": "咖啡廳",
      "tags": [],
      "_sort": 3,
      "dishes": [
        {
          "name": "里肌豬漢堡",
          "description": "口感清爽的里肌豬排漢堡，客人好評推薦"
        },
        {
          "name": "奶油培根義大利麵",
          "description": "奶香味十足的奶油培根義麵，人氣早午餐選擇"
        },
        {
          "name": "熱奶茶",
          "description": "人氣飲品，搭配早午餐的經典組合"
        }
      ],
      "lat": 24.7977919,
      "lng": 120.9432337
    },
    {
      "name": "偷撕吐司-新竹民族店(週一到週日只提供外送服務，需提前來電預訂外送）",
      "description": "",
      "area": "東區",
      "rating": 4.8,
      "reviews": 543,
      "categories": [
        "咖啡廳"
      ],
      "category": "咖啡廳",
      "tags": [],
      "_sort": 3,
      "dishes": [],
      "lat": 24.8049084,
      "lng": 120.971953
    },
    {
      "name": "斜角古早味綿綿冰（紅豆湯、燒仙草）",
      "description": "招牌綿綿冰搭配傳統紅豆湯，回味無窮，人氣十足。",
      "area": "東區",
      "rating": 4.8,
      "reviews": 1072,
      "categories": [
        "中式"
      ],
      "tags": [],
      "category": "中式",
      "_sort": 3,
      "dishes": [],
      "lat": 24.7966017,
      "lng": 120.9682451
    },
    {
      "name": "國王企鵝冰品專賣店",
      "description": "",
      "area": "北區",
      "rating": 4.8,
      "reviews": 508,
      "categories": [
        "甜品"
      ],
      "category": "甜品",
      "tags": [],
      "_sort": 3,
      "dishes": [
        {
          "name": "仲夏之戀",
          "description": "芒果季超人氣限定款，選用在地新鮮愛文芒果，果肉鋪滿雪花冰上，十分香甜。"
        },
        {
          "name": "魚鱗天梯雪花冰",
          "description": "店家獨創的招牌特色冰品，口感甜中帶鹹，配料豐富，層次極佳。"
        },
        {
          "name": "擂茶香雪",
          "description": "使用獨特的葫蘆造型盛裝客家擂茶風味雪花冰，創意吸睛且茶香濃郁。"
        }
      ],
      "lat": 24.805634,
      "lng": 120.967275
    },
    {
      "name": "one&one燒肉．iFG遠雄新竹店",
      "description": "提供多樣化燒肉選擇，讓每位食客都能找到心頭好。",
      "area": "北區",
      "rating": 4.8,
      "reviews": 3287,
      "categories": [
        "西式"
      ],
      "category": "西式",
      "tags": [],
      "_sort": 3,
      "dishes": [],
      "lat": 24.8194284,
      "lng": 120.9699191
    },
    {
      "name": "阿彤北和牛燒肉新竹總店",
      "description": "阿彤北和牛燒肉新竹總店，人氣和牛燒肉，讓人欲罷不能的美味體驗。",
      "area": "東區",
      "rating": 4.8,
      "reviews": 3663,
      "categories": [
        "日式"
      ],
      "category": "日式",
      "tags": [],
      "_sort": 3,
      "dishes": [],
      "lat": 24.7874345,
      "lng": 121.010241
    },
    {
      "name": "焼肉スマイル（燒肉Smile）竹北享平方店",
      "description": "焼肉スマイル（燒肉Smile）竹北享平方店，超人氣燒肉天堂，豐富多樣的肉品選擇。",
      "area": "竹北市",
      "rating": 4.8,
      "reviews": 10689,
      "categories": [
        "西式"
      ],
      "category": "西式",
      "tags": [],
      "_sort": 3,
      "dishes": [],
      "lat": 24.8190174,
      "lng": 121.026802
    },
    {
      "name": "食石燒肉 竹北縣政店（原食在燒）",
      "description": "招牌石燒料理，肉質鮮美，深受食客喜愛。",
      "area": "竹北市",
      "rating": 4.8,
      "reviews": 740,
      "categories": [
        "西式"
      ],
      "category": "西式",
      "tags": [],
      "_sort": 3,
      "dishes": [],
      "lat": 24.8276865,
      "lng": 121.01679
    },
    {
      "name": "人性humanityBBQ_新竹串燒宵夜",
      "description": "超人氣串燒宵夜，深夜食堂的最佳選擇。",
      "area": "北區",
      "rating": 4.8,
      "reviews": 844,
      "categories": [
        "西式"
      ],
      "category": "西式",
      "tags": [],
      "_sort": 3,
      "dishes": [],
      "lat": 24.8051369,
      "lng": 120.9635168
    },
    {
      "name": "成功牛排 南大店",
      "description": "",
      "area": "東區",
      "rating": 4.8,
      "reviews": 3388,
      "categories": [
        "西式"
      ],
      "category": "西式",
      "tags": [],
      "_sort": 3,
      "dishes": [],
      "lat": 24.7887169,
      "lng": 120.9665774
    },
    {
      "name": "西堤牛排 新竹中正店",
      "description": "招牌牛排美味絕倫, 超人氣餐廳深受食客推崇。",
      "area": "北區",
      "rating": 4.8,
      "reviews": 16137,
      "categories": [
        "西式"
      ],
      "category": "西式",
      "tags": [],
      "_sort": 3,
      "dishes": [
        "牛排",
        "鴨胸",
        "沙拉",
        "酥皮濃湯",
        "甜點"
      ],
      "lat": 24.8097468,
      "lng": 120.9664089
    },
    {
      "name": "王品牛排 竹北光明店",
      "description": "招牌牛排搭配優雅用餐環境, 超人氣的高端牛排體驗。",
      "area": "竹北市",
      "rating": 4.8,
      "reviews": 8279,
      "categories": [
        "西式"
      ],
      "category": "西式",
      "tags": [],
      "_sort": 3,
      "dishes": [],
      "lat": 24.830407,
      "lng": 121.0142982
    },
    {
      "name": "Aposo 艾波索 法式甜點 新竹關新店",
      "description": "法式甜點專賣，提供精緻的甜品與冰品，人氣不容小覷。",
      "area": "東區",
      "rating": 4.8,
      "reviews": 499,
      "categories": [
        "甜品"
      ],
      "category": "甜品",
      "tags": [],
      "_sort": 3,
      "dishes": [
        {
          "name": "巧克力黑金磚",
          "description": "艾波索的經典招牌，選用比利時與法國巧克力製作，口感濃郁苦甜平衡，層次分明。"
        },
        {
          "name": "無限乳酪",
          "description": "採用紐西蘭與日本北海道乳酪，不加水與麵粉製作，口感極致濃郁扎實，奶香四溢。"
        },
        {
          "name": "巧克力泡芙",
          "description": "曾榮獲伴手禮獎項，酥脆的泡芙外皮包裹著爆漿的特濃巧克力內餡，甜而不膩。"
        }
      ],
      "lat": 24.786716,
      "lng": 121.018325
    },
    {
      "name": "炊煙裊裊炭火串燒",
      "description": "",
      "area": "東區",
      "rating": 4.8,
      "reviews": 618,
      "categories": [
        "日式"
      ],
      "category": "日式",
      "tags": [],
      "_sort": 3,
      "dishes": [
        {
          "name": "炭火串燒",
          "description": "招牌炭火串燒，使用備長炭烤製，香氣十足"
        },
        {
          "name": "鹽烤鯖魚",
          "description": "鹽烤鯖魚，外皮酥脆，魚肉鮮嫩"
        },
        {
          "name": "烤松阪豬",
          "description": "烤松阪豬肉，外酥內Q，搭配椒鹽最對味"
        }
      ],
      "lat": 24.8043176,
      "lng": 120.9696354
    },
    {
      "name": "川琪麻辣燙(原麻辣誘惑)-竹北店-竹北東北麻辣燙|外帶麻辣燙|精緻小吃|人氣麻辣燙|宵夜選擇|人氣麻辣|外帶美食|人氣美食",
      "description": "人氣麻辣燙專賣店，宵夜選擇多樣化，外帶方便。",
      "area": "竹北市",
      "rating": 4.8,
      "reviews": 338,
      "categories": [
        "中式"
      ],
      "category": "中式",
      "tags": [],
      "_sort": 3,
      "dishes": [],
      "lat": 24.7984393,
      "lng": 120.9734343
    },
    {
      "name": "拾月捌號 （所有資訊與營業時間以IG為主）不要情勒不要靠邀謝謝疼愛",
      "description": "",
      "area": "竹東鎮",
      "rating": 4.8,
      "reviews": 293,
      "categories": [
        "中式"
      ],
      "category": "中式",
      "tags": [],
      "_sort": 3,
      "dishes": [
        {
          "name": "招牌鹹派",
          "description": "竹東必吃隱密老屋厚餡鹹派，食尚玩家風田推薦"
        },
        {
          "name": "胡椒柚香烤雞腿",
          "description": "胡椒與柚香風味的烤雞腿，搭配松露奶油厚吐司"
        },
        {
          "name": "蛋沙拉Brunch",
          "description": "2.0版本推薦的蛋沙拉早午餐，復古美髮院場景用餐"
        }
      ],
      "lat": 24.774922,
      "lng": 121.0449768
    },
    {
      "name": "福緣蔬食·咖啡",
      "description": "素食餐廳，提供健康蔬食料理。",
      "area": "芎林鄉",
      "rating": 4.8,
      "reviews": 28,
      "categories": [
        "咖啡廳"
      ],
      "tags": [],
      "category": "咖啡廳",
      "_sort": 3,
      "dishes": [],
      "lat": 24.765792,
      "lng": 121.1080244
    },
    {
      "name": "森活原素 V-Element 蔬食餐廳",
      "description": "素食餐廳，提供健康蔬食料理。",
      "area": "尖石鄉",
      "rating": 4.8,
      "reviews": 494,
      "categories": [
        "素食"
      ],
      "tags": [],
      "category": "素食",
      "_sort": 3,
      "dishes": [
        {
          "name": "越式素牛肉河粉",
          "description": "以多種時蔬熬製出甘甜的清爽湯頭，搭配滑順河粉與多種香草，是人氣極高的越式蔬食。"
        },
        {
          "name": "經典塔塔蕈菇排漢堡",
          "description": "特製厚實的手工蕈菇排，口感多汁，搭配香濃塔塔醬與新鮮生菜，極具飽足感。"
        },
        {
          "name": "金針起司豆包",
          "description": "金針菇與香濃起司包裹在豆包內酥炸，口感外酥內軟，起司牽絲，是受歡迎的特色小點。"
        }
      ],
      "lat": 24.8034522,
      "lng": 120.9714293
    },
    {
      "name": "果庭蔬食廚房",
      "description": "素食餐廳，提供健康蔬食料理。",
      "area": "五峰鄉",
      "rating": 4.8,
      "reviews": 282,
      "categories": [
        "素食"
      ],
      "tags": [],
      "category": "素食",
      "_sort": 3,
      "dishes": [
        {
          "name": "新加坡叻沙鍋",
          "description": "南洋風味叻沙鍋，蔬食版本的異國料理"
        },
        {
          "name": "松子蔬菜炒飯",
          "description": "松子搭配新鮮蔬菜的炒飯，健康養身的蔬食選擇"
        },
        {
          "name": "猴頭菇煲",
          "description": "養身猴頭菇煲湯，溫補健康的蔬食料理"
        }
      ],
      "lat": 24.8063743,
      "lng": 120.9720693
    },
    {
      "name": "蔬禾食堂-奶素便當/素食便當/六道以上菜色不重複",
      "description": "素食餐廳，提供健康蔬食料理。",
      "area": "湖口鄉",
      "rating": 4.8,
      "reviews": 22,
      "categories": [
        "素食"
      ],
      "tags": [],
      "category": "素食",
      "_sort": 3,
      "dishes": [],
      "lat": 24.8735566,
      "lng": 121.0121658
    },
    {
      "name": "掬蔬子蔬食早午餐(人手不足,會不定時調整營業時段)",
      "description": "素食餐廳，提供健康蔬食料理。",
      "area": "湖口鄉",
      "rating": 4.8,
      "reviews": 109,
      "categories": [
        "素食"
      ],
      "tags": [],
      "category": "素食",
      "_sort": 3,
      "dishes": [
        {
          "name": "蔬食早午餐",
          "description": "人氣蔬食早午餐，全素與蛋奶素可選"
        },
        {
          "name": "素食漢堡",
          "description": "手作素食漢堡，清爽健康不油膩"
        },
        {
          "name": "蔬食麵",
          "description": "現煮蔬食麵食，搭配新鮮蔬菜"
        }
      ],
      "lat": 24.8383971,
      "lng": 121.0103337
    },
    {
      "name": "蔬食鍋",
      "description": "素食餐廳，提供健康蔬食料理。",
      "area": "新豐鄉",
      "rating": 4.8,
      "reviews": 252,
      "categories": [
        "素食"
      ],
      "tags": [],
      "category": "素食",
      "_sort": 3,
      "dishes": [],
      "lat": 24.9132859,
      "lng": 120.9991032
    },
    {
      "name": "明人素食餐廳",
      "description": "素食餐廳，提供健康蔬食料理。",
      "area": "竹北市",
      "rating": 4.8,
      "reviews": 15,
      "categories": [
        "素食"
      ],
      "tags": [],
      "category": "素食",
      "_sort": 3,
      "dishes": [],
      "lat": 24.8275297,
      "lng": 121.013351
    },
    {
      "name": "心蔬食堂",
      "description": "素食餐廳，提供健康蔬食料理。",
      "area": "寶山鄉",
      "rating": 4.8,
      "reviews": 53,
      "categories": [
        "素食"
      ],
      "tags": [],
      "category": "素食",
      "_sort": 3,
      "dishes": [
        {
          "name": "全日菜單",
          "description": "純素食料理，提供午餐與晚餐時段的多樣蔬食選擇"
        },
        {
          "name": "蔬食便當",
          "description": "健康蔬食便當，新鮮食材製作"
        },
        {
          "name": "素食麵食",
          "description": "多樣素食麵食選多樣素食麵食選擇，純素料理"
        }
      ],
      "lat": 24.7757522,
      "lng": 121.0247897
    },
    {
      "name": "鑫山複合式餐廳｜進仔薑母鴨",
      "description": "中式餐廳，在地美味",
      "area": "寶山鄉",
      "rating": 4.8,
      "reviews": 564,
      "address": "308台灣新竹縣寶山鄉大崎村雙園路二段32號",
      "categories": [
        "中式"
      ],
      "category": "中式",
      "tags": [],
      "_sort": 3,
      "dishes": [],
      "lat": 24.7682945,
      "lng": 120.9992786
    },
    {
      "name": "SRC北埔印象",
      "description": "咖啡廳，適合放鬆休憩",
      "area": "北埔鄉",
      "rating": 4.8,
      "reviews": 8096,
      "address": "31442台灣新竹縣北埔鄉水磜村4鄰50號",
      "categories": [
        "咖啡廳"
      ],
      "category": "咖啡廳",
      "tags": [],
      "_sort": 3,
      "dishes": [],
      "lat": 24.7122837,
      "lng": 121.0704847
    },
    {
      "name": "尖石鄉風味餐廳_媽媽的店",
      "description": "咖啡廳，適合放鬆休憩",
      "area": "尖石鄉",
      "rating": 4.8,
      "reviews": 1999,
      "address": "313台灣新竹縣尖石鄉義興村沙坪段17.18號風味餐廳媽媽的店北角吊橋旁",
      "categories": [
        "咖啡廳"
      ],
      "category": "咖啡廳",
      "tags": [],
      "_sort": 3,
      "dishes": [],
      "lat": 24.7011521,
      "lng": 121.1966145
    },
    {
      "name": "愛君堡咖啡_貓咪_火鍋_下午茶",
      "description": "咖啡廳，適合放鬆休憩",
      "area": "峨眉鄉",
      "rating": 4.8,
      "reviews": 2051,
      "address": "315台灣新竹縣峨眉鄉富興村忠義街29號",
      "categories": [
        "咖啡廳"
      ],
      "category": "咖啡廳",
      "tags": [],
      "_sort": 3,
      "dishes": [],
      "lat": 24.687345,
      "lng": 120.9876194
    },
    {
      "name": "新竹吳家鴨香飯-關西店",
      "description": "中式餐廳，在地美味",
      "area": "關西鎮",
      "rating": 4.8,
      "reviews": 1017,
      "address": "306台灣新竹縣關西鎮北斗里中山路10號",
      "categories": [
        "中式"
      ],
      "category": "中式",
      "tags": [],
      "_sort": 3,
      "dishes": [],
      "lat": 24.7914747,
      "lng": 121.1779586
    },
    {
      "name": "內灣圓樓人文客家餐廳",
      "description": "中式餐廳，在地美味",
      "area": "橫山鄉",
      "rating": 4.8,
      "reviews": 3946,
      "address": "312003台灣新竹縣橫山鄉內灣村大同路99號",
      "categories": [
        "中式"
      ],
      "category": "中式",
      "tags": [],
      "_sort": 3,
      "dishes": [],
      "lat": 24.705222,
      "lng": 121.1793205
    },
    {
      "name": "佳林鐵板燒",
      "description": "日式料理餐廳",
      "area": "香山",
      "rating": 4.8,
      "reviews": 1567,
      "address": "300台灣新竹市香山區香山里大庄路36號",
      "categories": [
        "西式"
      ],
      "category": "西式",
      "tags": [],
      "_sort": 3,
      "dishes": [],
      "lat": 24.7892219,
      "lng": 120.9278954
    },
    {
      "name": "阿滿水晶餃-老街店",
      "description": "",
      "area": "北埔鄉",
      "rating": 4.8,
      "reviews": 387,
      "address": "",
      "categories": [
        "中式"
      ],
      "category": "中式",
      "tags": [],
      "_sort": 3,
      "dishes": [],
      "lat": 24.700647,
      "lng": 121.0565757
    },
    {
      "name": "徐記燉品屋",
      "description": "",
      "area": "新豐鄉",
      "rating": 4.8,
      "reviews": 287,
      "address": "",
      "categories": [
        "中式"
      ],
      "category": "中式",
      "tags": [],
      "_sort": 3,
      "dishes": [
        {
          "name": "藥膳雞湯",
          "description": "新竹第一家烏骨雞燉品專雞燉品專賣，藥膳風味溫補養身"
        },
        {
          "name": "香菇雞燉湯",
          "description": "整隻雞腿搭配香菇的燉湯，比冷凍切片雞腿好吃"
        },
        {
          "name": "麻油雞湯",
          "description": "濃郁麻油香的雞湯，養身進補的首選"
        }
      ],
      "lat": 24.8688313,
      "lng": 120.9953691
    },
    {
      "name": "山究燒肉-日式燒肉專門店（湖口店）",
      "description": "",
      "area": "湖口鄉",
      "rating": 4.8,
      "reviews": 716,
      "address": "",
      "categories": [
        "日式"
      ],
      "category": "日式",
      "tags": [],
      "_sort": 3,
      "dishes": [],
      "lat": 24.8949489,
      "lng": 121.042975
    },
    {
      "name": "六野麻辣鴛鴦火鍋｜火鍋吃到飽推薦｜商務 慶生 家庭聚餐 包廂｜高級肉品海鮮",
      "description": "高級肉品海鮮的火鍋吃到飽，適合商務慶生聚餐。",
      "area": "東區",
      "rating": 4.7,
      "reviews": 1656,
      "categories": [
        "火鍋"
      ],
      "category": "火鍋",
      "tags": [],
      "_sort": 3,
      "dishes": [],
      "lat": 24.808911,
      "lng": 120.966198
    },
    {
      "name": "Hidden off",
      "description": "隱秘的中式料理餐廳，提供精緻的菜品，讓人意猶未盡。",
      "area": "北區",
      "rating": 4.7,
      "reviews": 318,
      "categories": [
        "中式"
      ],
      "category": "中式",
      "tags": [],
      "_sort": 3,
      "dishes": [],
      "lat": 24.8079581,
      "lng": 120.9668323
    },
    {
      "name": "海海客家菜-柚子花花(享平方店)",
      "description": "創新客家菜與柚子搭配，讓人耳目一新。",
      "area": "竹北市",
      "rating": 4.7,
      "reviews": 1670,
      "categories": [
        "中式"
      ],
      "category": "中式",
      "tags": [],
      "_sort": 3,
      "dishes": [],
      "lat": 24.8190841,
      "lng": 121.0269165
    },
    {
      "name": "樂仔小吃｜碗粿｜肉圓｜炒麵｜豬血湯｜純米蘿蔔糕｜竹北小吃｜下午茶｜點心",
      "description": "提供多樣化的台灣小吃，是下午茶的理想選擇。",
      "area": "竹北市",
      "rating": 4.7,
      "reviews": 211,
      "categories": [
        "中式"
      ],
      "category": "中式",
      "tags": [],
      "_sort": 3,
      "dishes": [],
      "lat": 24.8317801,
      "lng": 121.0122382
    },
    {
      "name": "素栽全植廚藝坊｜Vegan 有機友善食材｜歐式麵包甜點預購｜日常麵包沙拉輕食｜咖啡飲品下午茶｜烘焙料理教室｜週末主廚餐桌（預約制）",
      "description": "素食餐廳，提供健康蔬食料理。",
      "area": "寶山鄉",
      "rating": 4.7,
      "reviews": 26,
      "categories": [
        "烘焙"
      ],
      "tags": [],
      "category": "烘焙",
      "_sort": 3,
      "dishes": [],
      "lat": 22.9792456,
      "lng": 120.2252596
    },
    {
      "name": "范阿嬤野薑花粽",
      "description": "",
      "area": "",
      "rating": 4.7,
      "reviews": 335,
      "categories": [
        "中式"
      ],
      "category": "中式",
      "tags": [],
      "_sort": 3,
      "dishes": [],
      "lat": 24.7039855,
      "lng": 121.1830445
    },
    {
      "name": "八二親食 三民店",
      "description": "時尚的日式餐廳，供應繽紛的飯捲、創意盒餐和茶飲。",
      "area": "",
      "rating": 4.7,
      "reviews": 4229,
      "categories": [
        "咖啡廳"
      ],
      "category": "咖啡廳",
      "tags": [],
      "_sort": 3,
      "dishes": [],
      "lat": 24.8088154,
      "lng": 120.9755606
    },
    {
      "name": "食譜自助百匯餐廳",
      "description": "超人氣自助餐，品項豐富，滿足各式口味需求。",
      "area": "",
      "rating": 4.7,
      "reviews": 11454,
      "categories": [
        "中式"
      ],
      "category": "中式",
      "tags": [],
      "_sort": 3,
      "dishes_searched": true,
      "lat": 24.807079,
      "lng": 120.975231
    },
    {
      "name": "山上走走 日式無菜單燒肉專門店",
      "description": "超人氣的日式燒肉，食客可享受無菜單的驚喜體驗。",
      "area": "",
      "rating": 4.7,
      "reviews": 14221,
      "categories": [
        "日式"
      ],
      "category": "日式",
      "tags": [],
      "_sort": 3,
      "dishes": [
        "at DuckDuckGo",
        "招牌 at DuckDuckGo",
        "推薦 招牌 at DuckDuckGo"
      ],
      "lat": 24.8057518,
      "lng": 120.9703562
    },
    {
      "name": "泰銷魂-新竹三民店",
      "description": "",
      "area": "",
      "rating": 4.7,
      "reviews": 1057,
      "categories": [
        "異國"
      ],
      "category": "異國",
      "tags": [],
      "_sort": 3,
      "dishes": [],
      "lat": 24.8082457,
      "lng": 120.9757316
    },
    {
      "name": "fifteen拾吾純植西餐廳 | 真食物、低廢棄、客製化友善蔬食",
      "description": "",
      "area": "竹北市",
      "rating": 4.7,
      "reviews": 1060,
      "categories": [
        "素食"
      ],
      "category": "素食",
      "tags": [],
      "_sort": 3,
      "dishes": [],
      "lat": 24.8155937,
      "lng": 121.0188942
    },
    {
      "name": "金春喜韓廚-竹北遠百店",
      "description": "",
      "area": "竹北市",
      "rating": 4.7,
      "reviews": 1255,
      "categories": [
        "異國"
      ],
      "category": "異國",
      "tags": [],
      "_sort": 3,
      "dishes": [],
      "lat": 24.8224491,
      "lng": 121.0236418
    },
    {
      "name": "道禾食堂",
      "description": "精緻台菜，提供多樣化的中式料理選擇。",
      "area": "竹東鎮",
      "rating": 4.7,
      "reviews": 530,
      "categories": [
        "中式"
      ],
      "category": "中式",
      "tags": [],
      "_sort": 3,
      "dishes": [],
      "lat": 24.7382613,
      "lng": 121.0860197
    },
    {
      "name": "堝鍋火鍋專門店",
      "description": "色彩繽紛的時尚餐廳，專門供應肉類、海鮮和蔬菜火鍋。",
      "area": "東區",
      "rating": 4.7,
      "reviews": 2216,
      "categories": [
        "火鍋"
      ],
      "category": "火鍋",
      "tags": [],
      "_sort": 3,
      "dishes": [],
      "lat": 24.8091764,
      "lng": 120.9729231
    },
    {
      "name": "嗑肉石鍋-新竹西門店(二代店)",
      "description": "招牌石鍋，肉質鮮美，深受喜愛。",
      "area": "北區",
      "rating": 4.7,
      "reviews": 2635,
      "categories": [
        "中式"
      ],
      "category": "中式",
      "tags": [],
      "_sort": 3,
      "dishes": [],
      "lat": 24.802438,
      "lng": 120.9646465
    },
    {
      "name": "真涮吃到飽新竹北大店",
      "description": "新鮮食材，口味多樣，讓人吃得過癮。",
      "area": "北區",
      "rating": 4.7,
      "reviews": 3995,
      "categories": [
        "中式"
      ],
      "category": "中式",
      "tags": [],
      "_sort": 3,
      "dishes": [],
      "lat": 24.8027694,
      "lng": 120.9603588
    },
    {
      "name": "滿溢沙茶石頭火鍋（請預約）",
      "description": "",
      "area": "北區",
      "rating": 4.7,
      "reviews": 2096,
      "categories": [
        "火鍋"
      ],
      "category": "火鍋",
      "tags": [],
      "_sort": 3,
      "dishes": [],
      "lat": 24.821508,
      "lng": 120.959661
    },
    {
      "name": "漢朝鍋物",
      "description": "精緻火鍋，搭配新鮮食材，讓人回味無窮。",
      "area": "竹北市",
      "rating": 4.7,
      "reviews": 768,
      "categories": [
        "火鍋"
      ],
      "category": "火鍋",
      "tags": [],
      "_sort": 3,
      "dishes": [],
      "lat": 24.8167832,
      "lng": 121.0208577
    },
    {
      "name": "House V 好室鍋物-新竹動物園店",
      "description": "色彩繽紛的時髦餐廳，供應於桌面爐台烹煮的火鍋，搭配肉類、海鮮與蔬菜。",
      "area": "東區",
      "rating": 4.7,
      "reviews": 1648,
      "categories": [
        "火鍋"
      ],
      "category": "火鍋",
      "tags": [],
      "_sort": 3,
      "dishes": [],
      "lat": 24.7988121,
      "lng": 120.9792445
    },
    {
      "name": "熊本鍋物 南大店",
      "description": "特色火鍋，超人氣，讓你盡享美味與新鮮。",
      "area": "東區",
      "rating": 4.7,
      "reviews": 3509,
      "categories": [
        "火鍋"
      ],
      "category": "火鍋",
      "tags": [],
      "_sort": 3,
      "dishes": [],
      "lat": 24.7947927,
      "lng": 120.9649376
    },
    {
      "name": "貳參咖啡-西門店「無訂位服務」",
      "description": "採極簡風裝潢的時尚咖啡店，供應特色咖啡、輕食和手工甜點。",
      "area": "北區",
      "rating": 4.7,
      "reviews": 1304,
      "categories": [
        "咖啡廳"
      ],
      "category": "咖啡廳",
      "tags": [],
      "_sort": 3,
      "dishes": [],
      "lat": 24.8010788,
      "lng": 120.962685
    },
    {
      "name": "The Secret 謐謐 新竹店 x 貓嶼",
      "description": "",
      "area": "東區",
      "rating": 4.7,
      "reviews": 965,
      "categories": [
        "中式"
      ],
      "category": "中式",
      "tags": [],
      "_sort": 3,
      "dishes": [],
      "lat": 24.807685,
      "lng": 120.971057
    },
    {
      "name": "光粼 Shine Bright(營業、公休時間請參考IG限動及貼文)",
      "description": "精緻的中式料理，讓人感受光亮的美味與創意。",
      "area": "東區",
      "rating": 4.7,
      "reviews": 200,
      "categories": [
        "中式"
      ],
      "category": "中式",
      "tags": [],
      "_sort": 3,
      "dishes": [],
      "lat": 24.8077307,
      "lng": 120.9758381
    },
    {
      "name": "阿莉莉台灣小吃-餐廳（端午連假必吃｜新竹旅遊必吃｜在地小吃",
      "description": "",
      "area": "東區",
      "rating": 4.7,
      "reviews": 2689,
      "categories": [
        "中式"
      ],
      "category": "中式",
      "tags": [],
      "_sort": 3,
      "dishes": [],
      "lat": 24.7850615,
      "lng": 121.0094319
    },
    {
      "name": "宗初壽司新竹總店｜壽司套餐｜日式定食",
      "description": "壽司套餐口味多樣, 人氣選擇，讓人一試成主顧。",
      "area": "北區",
      "rating": 4.7,
      "reviews": 1166,
      "categories": [
        "日式"
      ],
      "category": "日式",
      "tags": [],
      "_sort": 3,
      "dishes": [],
      "lat": 24.8059029,
      "lng": 120.9661705
    },
    {
      "name": "金賞壽司",
      "description": "金賞壽司，人氣日式壽司店，提供新鮮多樣的壽司選擇，令人回味無窮。",
      "area": "竹北市",
      "rating": 4.7,
      "reviews": 700,
      "categories": [
        "日式"
      ],
      "category": "日式",
      "tags": [],
      "_sort": 3,
      "dishes": [],
      "lat": 24.8270085,
      "lng": 121.0054212
    },
    {
      "name": "找餐店brunch-新竹店",
      "description": "",
      "area": "北區",
      "rating": 4.7,
      "reviews": 1720,
      "categories": [
        "咖啡廳"
      ],
      "category": "咖啡廳",
      "tags": [],
      "_sort": 3,
      "dishes": [],
      "lat": 24.8105942,
      "lng": 120.9627635
    },
    {
      "name": "ㄅㄨ早午餐",
      "description": "提供精緻的早午餐搭配咖啡，讓你一天的開始充滿活力。",
      "area": "香山",
      "rating": 4.7,
      "reviews": 214,
      "categories": [
        "咖啡廳"
      ],
      "category": "咖啡廳",
      "tags": [],
      "_sort": 3,
      "dishes": [],
      "lat": 24.7910918,
      "lng": 120.92316
    },
    {
      "name": "Mr.Lion萊恩早午餐",
      "description": "提供多樣化的咖啡與早午餐，讓每一口都充滿驚喜。",
      "area": "北區",
      "rating": 4.7,
      "reviews": 352,
      "categories": [
        "咖啡廳"
      ],
      "category": "咖啡廳",
      "tags": [],
      "_sort": 3,
      "dishes": [],
      "lat": 24.8045577,
      "lng": 120.9564035
    },
    {
      "name": "冰斗古早味剉冰（店休日FB粉絲頁另行公告）",
      "description": "",
      "area": "東區",
      "rating": 4.7,
      "reviews": 1101,
      "categories": [
        "中式"
      ],
      "tags": [],
      "category": "中式",
      "_sort": 3,
      "dishes": [],
      "lat": 24.8070721,
      "lng": 120.9775598
    },
    {
      "name": "薏人界 • 甜品",
      "description": "專注於健康甜品，讓你在享受中也能兼顧健康。",
      "area": "北區",
      "rating": 4.7,
      "reviews": 465,
      "categories": [
        "甜品"
      ],
      "category": "甜品",
      "tags": [],
      "_sort": 3,
      "dishes": [],
      "lat": 24.8033668,
      "lng": 120.9646625
    },
    {
      "name": "那顆桔子",
      "description": "",
      "area": "北區",
      "rating": 4.7,
      "reviews": 310,
      "categories": [
        "中式"
      ],
      "category": "中式",
      "tags": [],
      "_sort": 3,
      "dishes": [],
      "lat": 24.8070105,
      "lng": 120.9667019
    },
    {
      "name": "林家冰店",
      "description": "傳承經典甜品，以手工冰品和清新口感聞名。",
      "area": "北區",
      "rating": 4.7,
      "reviews": 239,
      "categories": [
        "甜品"
      ],
      "category": "甜品",
      "tags": [],
      "_sort": 3,
      "dishes": [],
      "lat": 24.8044359,
      "lng": 120.9658298
    },
    {
      "name": "多謝綿綿冰 (6月26號雨天店休）",
      "description": "",
      "area": "東區",
      "rating": 4.7,
      "reviews": 301,
      "categories": [
        "甜品"
      ],
      "category": "甜品",
      "tags": [],
      "_sort": 3,
      "dishes": [],
      "lat": 24.8024114,
      "lng": 120.971047
    },
    {
      "name": "馬祖新村 新竹SOGO巨城店",
      "description": "",
      "area": "東區",
      "rating": 4.7,
      "reviews": 821,
      "categories": [
        "中式"
      ],
      "category": "中式",
      "tags": [],
      "_sort": 3,
      "dishes": [],
      "lat": 24.8096404,
      "lng": 120.9758607
    },
    {
      "name": "京座燒肉 新竹店 - 北海道成吉思汗烤肉",
      "description": "北海道成吉思汗烤肉, 人氣",
      "area": "東區",
      "rating": 4.7,
      "reviews": 246,
      "categories": [
        "西式"
      ],
      "category": "西式",
      "tags": [],
      "_sort": 3,
      "dishes": [],
      "lat": 24.8024634,
      "lng": 120.9810795
    },
    {
      "name": "火山岩燒肉-竹北旗艦店",
      "description": "",
      "area": "竹北市",
      "rating": 4.7,
      "reviews": 7504,
      "categories": [
        "西式"
      ],
      "category": "西式",
      "tags": [],
      "_sort": 3,
      "dishes": [],
      "lat": 24.8240501,
      "lng": 121.0320596
    },
    {
      "name": "夏雪冬炙 牛排/冰品",
      "description": "牛排/冰品，結合牛排與冰品的創意料理，讓味蕾享受雙重驚喜。",
      "area": "東區",
      "rating": 4.7,
      "reviews": 646,
      "categories": [
        "西式"
      ],
      "category": "西式",
      "tags": [],
      "_sort": 3,
      "dishes": [],
      "lat": 24.8030318,
      "lng": 120.9696378
    },
    {
      "name": "雙醬王牛排-竹北莊敬店",
      "description": "",
      "area": "竹北市",
      "rating": 4.7,
      "reviews": 1183,
      "categories": [
        "西式"
      ],
      "category": "西式",
      "tags": [],
      "_sort": 3,
      "dishes": [],
      "lat": 24.8292062,
      "lng": 121.0264448
    },
    {
      "name": "藝軒私房料理",
      "description": "",
      "area": "東區",
      "rating": 4.7,
      "reviews": 1015,
      "categories": [
        "中式"
      ],
      "category": "中式",
      "tags": [],
      "_sort": 3,
      "dishes": [],
      "lat": 24.7768152,
      "lng": 120.967612
    },
    {
      "name": "香聚小廚",
      "description": "菜品用心調製，口感鮮美，深受食客喜愛，人氣餐廳。",
      "area": "北區",
      "rating": 4.7,
      "reviews": 317,
      "categories": [
        "中式"
      ],
      "category": "中式",
      "tags": [],
      "_sort": 3,
      "dishes": [],
      "lat": 24.8034576,
      "lng": 120.9479314
    },
    {
      "name": "Faith in Faith 飛一啡 Café《甜點咖啡店》《店休日/店內相關須知請見IG臉書粉絲專頁》《目前未販售鹹食》",
      "description": "afé，超人氣甜點咖啡店，提供多樣精緻甜品，讓你享受悠閒時光。",
      "area": "湖口鄉",
      "rating": 4.7,
      "reviews": 317,
      "categories": [
        "咖啡廳"
      ],
      "tags": [],
      "category": "咖啡廳",
      "_sort": 3,
      "dishes": [],
      "lat": 24.8814458,
      "lng": 121.0449768
    },
    {
      "name": "康丁快炒",
      "description": "快炒菜品新鮮美味，人氣餐館值得一試。",
      "area": "竹東鎮",
      "rating": 4.7,
      "reviews": 2269,
      "categories": [
        "中式"
      ],
      "category": "中式",
      "tags": [],
      "_sort": 3,
      "dishes": [],
      "lat": 24.7337471,
      "lng": 121.0912772
    },
    {
      "name": "五鮮級鍋物專賣 新竹新豐店",
      "rating": 4.7,
      "reviews": 3993,
      "categories": [
        "火鍋"
      ],
      "area": "新豐鄉",
      "description": "超人氣餐廳，提供多樣化的美味料理選擇",
      "category": "火鍋",
      "tags": [],
      "_sort": 3,
      "dishes": [],
      "lat": 24.8668979,
      "lng": 120.9928159
    },
    {
      "name": "羊霸天下 新豐店",
      "rating": 4.7,
      "reviews": 619,
      "categories": [
        "火鍋"
      ],
      "area": "新豐鄉",
      "description": "羊霸天下 新豐店，羊肉火鍋口味鮮美，搭配多樣配料，讓人回味無窮。",
      "category": "火鍋",
      "tags": [],
      "_sort": 3,
      "dishes": [],
      "lat": 24.8727474,
      "lng": 120.9936466
    },
    {
      "name": "偉園鮮肉湯包 新竹新豐店",
      "rating": 4.7,
      "reviews": 177,
      "categories": [
        "中式"
      ],
      "area": "新豐鄉",
      "description": "超人氣餐廳，提供多樣化的美味料理選擇",
      "category": "中式",
      "tags": [],
      "_sort": 3,
      "dishes": [],
      "lat": 24.9029327,
      "lng": 120.9844296
    },
    {
      "name": "現流魚海鮮餐廳",
      "rating": 4.7,
      "reviews": 577,
      "categories": [
        "中式"
      ],
      "area": "新豐鄉",
      "description": "超人氣餐廳，提供多樣化的美味料理選擇",
      "category": "中式",
      "tags": [],
      "_sort": 3,
      "dishes": [],
      "lat": 24.910606,
      "lng": 120.9703113
    },
    {
      "name": "森日蔬食早堂",
      "description": "素食餐廳，提供健康蔬食料理。",
      "area": "湖口鄉",
      "rating": 4.7,
      "reviews": 134,
      "categories": [
        "素食"
      ],
      "tags": [],
      "category": "素食",
      "_sort": 3,
      "dishes": [],
      "lat": 24.9019347,
      "lng": 121.0485001
    },
    {
      "name": "安齋素食",
      "description": "素食餐廳，提供健康蔬食料理。",
      "area": "湖口鄉",
      "rating": 4.7,
      "reviews": 67,
      "categories": [
        "素食"
      ],
      "tags": [],
      "category": "素食",
      "_sort": 3,
      "dishes": [],
      "lat": 24.9011323,
      "lng": 121.0449346
    },
    {
      "name": "文心素食",
      "description": "素食餐廳，提供健康蔬食料理。",
      "area": "湖口鄉",
      "rating": 4.7,
      "reviews": 23,
      "categories": [
        "素食"
      ],
      "tags": [],
      "category": "素食",
      "_sort": 3,
      "dishes": [],
      "lat": 24.8902169,
      "lng": 121.0406752
    },
    {
      "name": "熱浪島南洋蔬食茶堂 竹北店",
      "description": "素食餐廳，提供健康蔬食料理。",
      "area": "竹北市",
      "rating": 4.7,
      "reviews": 725,
      "categories": [
        "素食"
      ],
      "tags": [],
      "category": "素食",
      "_sort": 3,
      "dishes": [],
      "lat": 24.8313417,
      "lng": 121.0113859
    },
    {
      "name": "綵緹素食",
      "description": "素食餐廳，提供健康蔬食料理。",
      "area": "竹東鎮",
      "rating": 4.7,
      "reviews": 56,
      "categories": [
        "素食"
      ],
      "tags": [],
      "category": "素食",
      "_sort": 3,
      "dishes": [],
      "lat": 24.7413821,
      "lng": 121.0875293
    },
    {
      "name": "茆家蔬食驛站",
      "description": "素食餐廳，提供健康蔬食料理。",
      "area": "竹東鎮",
      "rating": 4.7,
      "reviews": 24,
      "categories": [
        "素食"
      ],
      "tags": [],
      "category": "素食",
      "_sort": 3,
      "dishes": [],
      "lat": 24.7386466,
      "lng": 121.0875265
    },
    {
      "name": "素食林小館",
      "description": "素食餐廳，提供健康蔬食料理。",
      "area": "寶山鄉",
      "rating": 4.7,
      "reviews": 1577,
      "categories": [
        "素食"
      ],
      "tags": [],
      "category": "素食",
      "_sort": 3,
      "dishes": [],
      "lat": 24.802084,
      "lng": 120.9662392
    },
    {
      "name": "新竹最有名川湘新蔬食",
      "description": "素食餐廳，提供健康蔬食料理。",
      "area": "東區",
      "rating": 4.7,
      "reviews": 356,
      "categories": [
        "素食"
      ],
      "tags": [],
      "category": "素食",
      "_sort": 3,
      "dishes": [],
      "lat": 24.8146402,
      "lng": 120.9760907
    },
    {
      "name": "蒔光·蔬食麵舖",
      "description": "素食餐廳，提供健康蔬食料理。",
      "area": "北區",
      "rating": 4.7,
      "reviews": 27,
      "categories": [
        "素食"
      ],
      "tags": [],
      "category": "素食",
      "_sort": 3,
      "dishes": [],
      "lat": 24.8072445,
      "lng": 120.9630955
    },
    {
      "name": "陶陶樂開花蔬坊（蔬食早午餐）",
      "description": "素食餐廳，提供健康蔬食料理。",
      "area": "湖口鄉",
      "rating": 4.7,
      "reviews": 30,
      "categories": [
        "素食"
      ],
      "tags": [],
      "category": "素食",
      "_sort": 3,
      "dishes": [],
      "lat": 24.8705245,
      "lng": 120.993429
    },
    {
      "name": "格香加熱素食滷味",
      "description": "素食餐廳，提供健康蔬食料理。",
      "area": "新豐鄉",
      "rating": 4.7,
      "reviews": 121,
      "categories": [
        "素食"
      ],
      "tags": [],
      "category": "素食",
      "_sort": 3,
      "dishes": [],
      "lat": 24.8670018,
      "lng": 120.9903707
    },
    {
      "name": "素食自助餐",
      "description": "素食餐廳，提供健康蔬食料理。",
      "area": "竹東鎮",
      "rating": 4.7,
      "reviews": 3,
      "categories": [
        "素食"
      ],
      "tags": [],
      "category": "素食",
      "_sort": 3,
      "dishes": [],
      "lat": 24.7474418,
      "lng": 121.0804401
    },
    {
      "name": "青青好農食(營業時間以FB為主)",
      "description": "中式餐廳，在地美味",
      "area": "北埔鄉",
      "rating": 4.7,
      "reviews": 866,
      "address": "314台灣新竹縣北埔鄉北埔村南興街142號",
      "categories": [
        "中式"
      ],
      "category": "中式",
      "tags": [],
      "_sort": 3,
      "dishes": [],
      "lat": 24.7012681,
      "lng": 121.057189
    },
    {
      "name": "以娜的店",
      "description": "中式餐廳，在地美味",
      "area": "尖石鄉",
      "rating": 4.7,
      "reviews": 936,
      "address": "313台灣新竹縣尖石鄉1鄰號32號",
      "categories": [
        "中式"
      ],
      "category": "中式",
      "tags": [],
      "_sort": 3,
      "dishes": [],
      "lat": 24.667831,
      "lng": 121.2823315
    },
    {
      "name": "綠木頭",
      "description": "中式餐廳，在地美味",
      "area": "尖石鄉",
      "rating": 4.7,
      "reviews": 544,
      "address": "313台灣新竹縣尖石鄉玉峰村5-1號",
      "categories": [
        "中式"
      ],
      "category": "中式",
      "tags": [],
      "_sort": 3,
      "dishes": [],
      "lat": 24.6675335,
      "lng": 121.2819549
    },
    {
      "name": "馬告燒鴨",
      "description": "中式餐廳，在地美味",
      "area": "尖石鄉",
      "rating": 4.7,
      "reviews": 654,
      "address": "313台灣新竹縣尖石鄉義興村1之15號",
      "categories": [
        "中式"
      ],
      "category": "中式",
      "tags": [],
      "_sort": 3,
      "dishes": [],
      "lat": 24.7010994,
      "lng": 121.1965789
    },
    {
      "name": "內灣野人山丘咖啡館",
      "description": "",
      "area": "橫山鄉",
      "rating": 4.7,
      "reviews": 386,
      "address": "",
      "categories": [
        "咖啡廳"
      ],
      "category": "咖啡廳",
      "tags": [],
      "_sort": 3,
      "dishes": [],
      "lat": 24.7013111,
      "lng": 121.1819583
    },
    {
      "name": "日禾六一四",
      "description": "",
      "area": "關西鎮",
      "rating": 4.7,
      "reviews": 299,
      "address": "",
      "categories": [
        "中式"
      ],
      "category": "中式",
      "tags": [],
      "_sort": 3,
      "dishes": [],
      "lat": 24.7899683,
      "lng": 121.1763933
    },
    {
      "name": "上上麵食館",
      "description": "",
      "area": "關西鎮",
      "rating": 4.7,
      "reviews": 339,
      "address": "",
      "categories": [
        "中式"
      ],
      "category": "中式",
      "tags": [],
      "_sort": 3,
      "dishes": [],
      "lat": 24.789793,
      "lng": 121.1763316
    },
    {
      "name": "八廚職人弁当-香山中華店 新竹必吃/現點現做/精緻便當/香山美食",
      "description": "",
      "area": "香山",
      "rating": 4.7,
      "reviews": 334,
      "address": "",
      "categories": [
        "中式"
      ],
      "category": "中式",
      "tags": [],
      "_sort": 3,
      "dishes": [],
      "lat": 24.7886585,
      "lng": 120.9291384
    },
    {
      "name": "牛柒丼食堂/日式燒肉/日式丼飯/烏龍麵/咖哩飯/多人燒肉餐/平價美食/湖口美食",
      "description": "超人氣日式燒肉和丼飯，平價好味，讓人一次滿足多種需求。",
      "area": "",
      "rating": 4.6,
      "reviews": 1648,
      "categories": [
        "日式"
      ],
      "category": "日式",
      "tags": [],
      "_sort": 3,
      "dishes": [],
      "lat": 24.8814458,
      "lng": 121.0449768
    },
    {
      "name": "如意麵食館 牛肉麵",
      "description": "牛肉麵口感滑順，深受食客喜愛。",
      "area": "東區",
      "rating": 4.6,
      "reviews": 3221,
      "categories": [
        "中式"
      ],
      "category": "中式",
      "tags": [],
      "_sort": 3,
      "dishes": [],
      "lat": 24.8007396,
      "lng": 120.98862
    },
    {
      "name": "戴太太四腳亭私房菜-湖口在地小吃|湖口老街人氣滷肉飯|在地推薦餐廳|必吃炸雞|人氣熱炒|晚餐首選|必吃湖口客家菜|家族聚餐推薦|合菜餐廳",
      "description": "湖口地道滷肉飯與炸雞，人氣熱炒的最佳選擇。",
      "area": "湖口鄉",
      "rating": 4.6,
      "reviews": 133,
      "categories": [
        "中式"
      ],
      "category": "中式",
      "tags": [],
      "_sort": 3,
      "dishes": [],
      "lat": 24.8768721,
      "lng": 121.0551483
    },
    {
      "name": "東街日本料理（成功店）－無菜單日料・生魚片壽司・桌菜包廂・聚餐首選",
      "description": "精緻餐廳，供應壽司、海鮮與經典日式佳餚。",
      "area": "竹北市",
      "rating": 4.6,
      "reviews": 1493,
      "categories": [
        "日式"
      ],
      "category": "日式",
      "tags": [],
      "_sort": 3,
      "dishes": [],
      "lat": 24.8190022,
      "lng": 121.0255476
    },
    {
      "name": "早點出發 / EATWITHGO /日式喫茶店 /貝果專賣/ 神奇寶貝同好交流",
      "description": "專賣貝果的日式喫茶店，適合神奇寶貝同好交流的好去處。",
      "area": "北區",
      "rating": 4.6,
      "reviews": 299,
      "categories": [
        "咖啡廳"
      ],
      "category": "咖啡廳",
      "tags": [],
      "_sort": 3,
      "dishes": [],
      "lat": 24.805497,
      "lng": 120.9679624
    },
    {
      "name": "Texas Roadhouse 德州鮮切牛排 竹北店",
      "description": "",
      "area": "竹北市",
      "rating": 4.6,
      "reviews": 1709,
      "categories": [
        "西式"
      ],
      "category": "西式",
      "tags": [],
      "_sort": 3,
      "dishes": [],
      "lat": 24.8194313,
      "lng": 121.021715
    },
    {
      "name": "PEACEVEGAN 痞食維根漢堡便利店(週三公休)",
      "description": "素食餐廳，提供健康蔬食料理。",
      "area": "竹北市",
      "rating": 4.6,
      "reviews": 636,
      "categories": [
        "素食"
      ],
      "tags": [],
      "category": "素食",
      "_sort": 3,
      "dishes": [],
      "lat": 24.8238826,
      "lng": 121.0356121
    },
    {
      "name": "小牛比較懶牛肉麵",
      "description": "超人氣牛肉麵，麵條彈牙，搭配絕佳湯頭。",
      "area": "東區",
      "rating": 4.6,
      "reviews": 372,
      "categories": [
        "中式"
      ],
      "category": "中式",
      "tags": [],
      "_sort": 3,
      "dishes": [],
      "lat": 24.779198,
      "lng": 120.9861197
    },
    {
      "name": "歐浮找餐-竹科店(新莊街美食\\竹科人必吃早午餐\\關新路美食\\關新路早午餐\\水耕菜早午餐專賣）",
      "description": "水耕菜早午餐專賣，深受竹科人喜愛的超人氣早午餐。",
      "area": "東區",
      "rating": 4.6,
      "reviews": 2482,
      "categories": [
        "咖啡廳"
      ],
      "category": "咖啡廳",
      "tags": [],
      "_sort": 3,
      "dishes": [],
      "lat": 24.7850131,
      "lng": 121.015883
    },
    {
      "name": "吃肉肉CHIH ROU ROU燒肉専門店-竹北店",
      "description": "人氣燒肉專賣店，肉品新鮮美味，吸引食客光臨。",
      "area": "竹北市",
      "rating": 4.6,
      "reviews": 3105,
      "categories": [
        "西式"
      ],
      "category": "西式",
      "tags": [],
      "_sort": 3,
      "dishes": [],
      "lat": 24.8291006,
      "lng": 121.0174085
    },
    {
      "name": "種籽蔬食（原十八尖山養生早午餐）",
      "description": "素食餐廳，提供健康蔬食料理。",
      "area": "東區",
      "rating": 4.6,
      "reviews": 177,
      "categories": [
        "素食"
      ],
      "tags": [],
      "category": "素食",
      "_sort": 3,
      "dishes": [],
      "lat": 24.7975916,
      "lng": 120.9756008
    },
    {
      "name": "尖石不怕餐館",
      "description": "",
      "area": "尖石鄉",
      "rating": 4.6,
      "reviews": 774,
      "categories": [
        "中式"
      ],
      "category": "中式",
      "tags": [],
      "_sort": 3,
      "dishes": [],
      "lat": 24.7004474,
      "lng": 121.1962987
    },
    {
      "name": "常嚐料理廚房",
      "description": "",
      "area": "",
      "rating": 4.6,
      "reviews": 943,
      "categories": [
        "中式"
      ],
      "category": "中式",
      "tags": [],
      "_sort": 3,
      "dishes": [],
      "lat": 24.8181728,
      "lng": 120.9720543
    },
    {
      "name": "核桃蝸牛La maison de Mason",
      "description": "",
      "area": "竹北市",
      "rating": 4.6,
      "reviews": 605,
      "categories": [
        "中式"
      ],
      "category": "中式",
      "tags": [],
      "_sort": 3,
      "dishes": [],
      "lat": 24.8294798,
      "lng": 121.0190369
    },
    {
      "name": "鄉親小館",
      "description": "親切氛圍與地道台菜，帶給您如同回到家中般的溫暖用餐體驗。",
      "area": "",
      "rating": 4.6,
      "reviews": 235,
      "categories": [
        "中式"
      ],
      "category": "中式",
      "tags": [],
      "_sort": 3,
      "dishes": [],
      "lat": 24.877027,
      "lng": 121.0548789
    },
    {
      "name": "卡拉義大利麵-湖口老街店",
      "description": "",
      "area": "",
      "rating": 4.6,
      "reviews": 745,
      "categories": [
        "西式"
      ],
      "category": "西式",
      "tags": [],
      "_sort": 3,
      "dishes": [],
      "lat": 24.8771751,
      "lng": 121.0574599
    },
    {
      "name": "柒境鍋物/泰式料理",
      "description": "",
      "area": "",
      "rating": 4.6,
      "reviews": 1025,
      "categories": [
        "火鍋"
      ],
      "category": "火鍋",
      "tags": [],
      "_sort": 3,
      "dishes": [],
      "lat": 24.893343,
      "lng": 121.0423635
    },
    {
      "name": "禾園小吃",
      "description": "",
      "area": "竹東鎮",
      "rating": 4.6,
      "reviews": 362,
      "categories": [
        "中式"
      ],
      "category": "中式",
      "tags": [],
      "_sort": 3,
      "dishes": [],
      "lat": 24.6662967,
      "lng": 121.1162351
    },
    {
      "name": "卡菲努努親子寵物餐廳",
      "description": "親子與寵物友好的用餐環境，適合全家共聚。",
      "area": "竹東鎮",
      "rating": 4.6,
      "reviews": 8213,
      "categories": [
        "中式"
      ],
      "category": "中式",
      "tags": [],
      "_sort": 3,
      "dishes": [],
      "lat": 24.7752076,
      "lng": 121.0548773
    },
    {
      "name": "小馬客",
      "description": "",
      "area": "東區",
      "rating": 4.6,
      "reviews": 607,
      "categories": [
        "中式"
      ],
      "category": "中式",
      "tags": [],
      "_sort": 3,
      "dishes": [],
      "lat": 24.7972559,
      "lng": 120.9629113
    },
    {
      "name": "星島海南雞(竹北勝利店)新竹海南雞 竹北美食 竹北餐廳",
      "description": "招牌海南雞肉鮮嫩多汁，人氣餐廳。",
      "area": "竹北市",
      "rating": 4.6,
      "reviews": 1237,
      "categories": [
        "中式"
      ],
      "category": "中式",
      "tags": [],
      "_sort": 3,
      "dishes": [],
      "lat": 24.8259107,
      "lng": 121.0304908
    },
    {
      "name": "樂客Rock’s Cooking｜",
      "description": "",
      "area": "東區",
      "rating": 4.6,
      "reviews": 604,
      "categories": [
        "中式"
      ],
      "category": "中式",
      "tags": [],
      "_sort": 3,
      "dishes": [],
      "lat": 24.8119911,
      "lng": 120.9839104
    },