{
  "routes": [
    {
      "name": "太魯閣峽谷經典一日遊",
      "stops": [
        "花蓮市區",
        "七星潭",
        "清水斷崖",
        "太魯閣國家公園",
        "長春祠",
        "燕子口",
        "九曲洞",
        "山月吊橋"
      ],
      "description": "花蓮最經典路線，壯麗的大理石峽谷、立霧溪切割出的峭壁地形，是初訪花蓮必走行程。太魯閣因0403地震部分步道重建中，出發前請查官網開放狀況。",
      "tags": [
        "一般路線"
      ],
      "lat": 24.1939246,
      "lng": 121.4906668
    },
    {
      "name": "花東縱谷田園一日遊",
      "stops": [
        "花蓮市區",
        "鯉魚潭",
        "立川漁場",
        "光復糖廠",
        "馬太鞍濕地",
        "瑞穗牧場",
        "北回歸線標誌公園"
      ],
      "description": "縱谷線經典路線，山湖湖泊、牧場、糖廠冰淇淋，適合親子與喜愛田園風光的旅客。兩人即可成行的深度縱谷自然景觀路線。",
      "tags": [
        "一般路線"
      ],
      "lat": 23.9334262,
      "lng": 121.5395076
    },
    {
      "name": "花蓮海線秘境一日遊",
      "stops": [
        "花蓮市區",
        "牛山呼庭",
        "March洞",
        "大石鼻山",
        "石梯坪",
        "親不知子海岸",
        "新社梯田"
      ],
      "description": "沿台11線海岸線南下，探訪海蝕洞地形、世界級地質教室石梯坪、天空步道親不知子，碧海藍天的海岸秘境一路相連。",
      "tags": [
        "一般路線"
      ],
      "lat": 23.9871589,
      "lng": 121.6015714
    },
    {
      "name": "花蓮市區文化散策一日遊",
      "stops": [
        "松園別館",
        "花蓮文化創意產業園區",
        "貨櫃星巴克",
        "吉安慶修院",
        "東大門夜市"
      ],
      "description": "市區輕鬆行，日式建築、文創園區、IG打卡貨櫃星巴克，晚上到東大門夜市吃遍400家攤位，適合不開車的旅客。",
      "tags": [
        "一般路線"
      ],
      "lat": 23.9910732,
      "lng": 121.6111949
    },
    {
      "name": "金針花海季節限定一日遊（8-9月）",
      "stops": [
        "花蓮市區",
        "瑞穗牧場",
        "赤柯山金針花海",
        "六十石山金針花海",
        "鶴岡文旦"
      ],
      "description": "8-9月限定路線，有小瑞士之稱的六十石山與赤柯山金針花海滿開，搭配瑞穗牧場鮮奶與鶴岡文旦，是花蓮最夢幻的季節限定美景。",
      "tags": [
        "一般路線"
      ],
      "lat": 23.2209221,
      "lng": 121.31118
    },
    {
      "name": "花蓮親子樂園農場一日遊",
      "stops": [
        "花蓮市區",
        "遠雄海洋公園",
        "雲山水夢幻湖",
        "理想大地渡假飯店",
        "立川漁場"
      ],
      "description": "全台唯一國際級海洋主題樂園，海豚秀、海獅秀加上摸蜆體驗，適合親子家庭。雲山水夢幻湖清澈湖面倒映中央山脈，12月落羽松轉紅最美。",
      "tags": [
        "一般路線"
      ],
      "lat": 23.9871589,
      "lng": 121.6015714
    },
    {
      "name": "花蓮雨天文創園區與石雕博物館",
      "description": "雨天就逛花蓮室內文創空間，從花蓮文化創意產業園區看展覽，到松園別館看日式建築，再到石雕博物館欣賞石雕藝術，最後到貨櫃星巴克喝咖啡",
      "stops": [
        "花蓮文化創意產業園區",
        "松園別館",
        "花蓮縣石雕博物館",
        "Dashi星巴克貨櫃門市"
      ],
      "tags": [
        "雨天路線"
      ],
      "lat": 23.9895069,
      "lng": 121.6283727
    },
    {
      "name": "花蓮樂齡鯉魚潭與東大門夜市",
      "description": "長輩花蓮輕鬆遊，從鯉魚潭環湖散步，到立川漁場摸蜆仔，再到東大門夜市吃美食，全程平地無爬坡",
      "stops": [
        "鯉魚潭",
        "立川漁場",
        "花蓮市區",
        "東大門夜市",
        "液香扁食店"
      ],
      "tags": [
        "樂齡路線"
      ],
      "lat": 23.9687889,
      "lng": 121.5968039
    },
    {
      "name": "花蓮東大門夜市與炸蛋蔥油餅攻略",
      "description": "花蓮美食從炸彈蔥油餅起手，到液香扁食、鵝肉先生，再到東大門夜市吃透透，最後來碗佳興冰果室冰品收尾",
      "stops": [
        "炸彈蔥油餅",
        "液香扁食店",
        "鵝肉先生",
        "東大門夜市美食",
        "佳興冰果室",
        "源寶屋咖哩麵包"
      ],
      "tags": [
        "景點加美食"
      ],
      "lat": 23.9719833,
      "lng": 121.6105482
    },
    {
      "name": "食尚玩家・花蓮將軍府日式景點一日遊",
      "description": "花蓮最新日式景點將軍府1936，推薦9大美食與必買伴手禮，感受花蓮最強景點魅力",
      "stops": [
        "花蓮將軍府1936",
        "東大門國際觀光夜市",
        "將軍府美食街",
        "花蓮文創園區"
      ],
      "tags": [
        "食尚玩家"
      ],
      "lat": 23.9805478,
      "lng": 121.6128353
    },
    {
      "name": "食尚玩家・花蓮壽豐理想大地一日遊",
      "description": "壽豐吃漢堡餐車HANG OUT、小和好點肉桂捲，摸蛤仔兼洗褲立川漁場，逛星巴克理想門市歐風童話小木屋",
      "stops": [
        "HANG OUT漢堡店",
        "小和好點肉桂捲",
        "立川漁場",
        "花蓮縣考古博物館",
        "星巴克理想門市",
        "花蓮理想大地渡假飯店"
      ],
      "tags": [
        "食尚玩家"
      ],
      "lat": 23.8656354,
      "lng": 121.5271308
    },
    {
      "name": "食尚玩家・花蓮吉安鄉日式寺院自行車道行",
      "description": "吉安騎七腳川溪自行車道賞鄉村風光，吃西村の家食堂日式老宅台式美食，逛百年吉安慶修院",
      "stops": [
        "七腳川溪自行車道",
        "西村の家食堂",
        "吉安慶修院",
        "山海正甜吉製冰所",
        "統茂渡假莊園"
      ],
      "tags": [
        "食尚玩家"
      ],
      "lat": 23.9736006,
      "lng": 121.582825
    }
  ],
  "spots": [
    {
      "county": "花蓮",
      "name": "花蓮市區",
      "area": "太魯閣峽谷經典",
      "rating": null,
      "reviews": null,
      "description": "花蓮市區，逛街美食與文創",
      "lat": 23.9871434,
      "lng": 121.6014001
    },
    {
      "county": "花蓮",
      "name": "七星潭",
      "area": "太魯閣峽谷經典",
      "rating": null,
      "reviews": null,
      "description": "花蓮最美海灘，鵝卵石與星空",
      "lat": 24.0430498,
      "lng": 121.6224926
    },
    {
      "county": "花蓮",
      "name": "清水斷崖",
      "area": "太魯閣峽谷經典",
      "rating": null,
      "reviews": null,
      "description": "太魯閣清水斷崖，太平洋峭壁",
      "lat": 24.2188889,
      "lng": 121.6930556
    },
    {
      "county": "花蓮",
      "name": "太魯閣國家公園",
      "area": "太魯閣峽谷經典",
      "rating": null,
      "reviews": null,
      "description": "世界級大理石峽谷，台灣必訪地標",
      "lat": 24.1939246,
      "lng": 121.4906668
    },
    {
      "county": "花蓮",
      "name": "長春祠",
      "area": "太魯閣峽谷經典",
      "description": "太魯閣長春祠，瀑布與寺廟",
      "lat": 24.1604798,
      "lng": 121.6036866
    },
    {
      "county": "花蓮",
      "name": "燕子口",
      "area": "太魯閣峽谷經典",
      "rating": null,
      "reviews": null,
      "description": "太魯閣燕子口步道，大理石峽谷",
      "lat": 24.172959,
      "lng": 121.564444
    },
    {
      "county": "花蓮",
      "name": "九曲洞",
      "area": "太魯閣峽谷經典",
      "rating": null,
      "reviews": null,
      "description": "太魯閣九曲洞步道，峽谷奇景",
      "lat": 24.1939246,
      "lng": 121.4906668
    },
    {
      "county": "花蓮",
      "name": "山月吊橋",
      "area": "太魯閣峽谷經典",
      "rating": null,
      "reviews": null,
      "description": "太魯閣山月吊橋，峽谷高空吊橋",
      "lat": 24.1730194,
      "lng": 121.5699615
    },
    {
      "county": "花蓮",
      "name": "鯉魚潭",
      "area": "花東縱谷田園",
      "rating": null,
      "reviews": null,
      "description": "花蓮鯉魚潭，環湖單車與賞螢",
      "lat": 23.9278268,
      "lng": 121.5098787
    },
    {
      "county": "花蓮",
      "name": "立川漁場",
      "area": "花東縱谷田園",
      "rating": null,
      "reviews": null,
      "description": "壽豐立川漁場，蜆仔養殖與摸蜆",
      "lat": 23.864656,
      "lng": 121.5222562
    },
    {
      "county": "花蓮",
      "name": "光復糖廠",
      "area": "花東縱谷田園",
      "rating": null,
      "reviews": null,
      "description": "光復糖廠，花蓮糖廠冰品與五分車",
      "lat": 23.9334262,
      "lng": 121.5395076
    },
    {
      "county": "花蓮",
      "name": "馬太鞍濕地",
      "area": "花東縱谷田園",
      "rating": null,
      "reviews": null,
      "description": "光復馬太鞍濕地，阿美族生態捕魚",
      "lat": 23.6577522,
      "lng": 121.4096652
    },
    {
      "county": "花蓮",
      "name": "瑞穗牧場",
      "area": "花東縱谷田園",
      "rating": null,
      "reviews": null,
      "description": "瑞穗鮮乳牧場，餵牛與鮮乳",
      "lat": 23.4792093,
      "lng": 121.3459565
    },
    {
      "county": "花蓮",
      "name": "北回歸線標誌公園",
      "area": "花東縱谷田園",
      "rating": null,
      "reviews": null,
      "description": "瑞穗北回歸線標誌，熱帶副熱帶分界",
      "lat": 23.465731,
      "lng": 121.3574028
    },
    {
      "county": "花蓮",
      "name": "牛山呼庭",
      "area": "花蓮海線秘境",
      "rating": null,
      "reviews": null,
      "description": "豐濱牛山草原，原民風景區",
      "lat": 23.7634832,
      "lng": 121.5691587
    },
    {
      "county": "花蓮",
      "name": "March洞",
      "area": "花蓮海線秘境",
      "rating": null,
      "reviews": null,
      "description": "壽豐March洞，海蝕洞秘境",
      "lat": 23.5240439,
      "lng": 121.5042389
    },
    {
      "county": "花蓮",
      "name": "大石鼻山",
      "area": "花蓮海線秘境",
      "rating": null,
      "reviews": null,
      "description": "壽豐大石鼻山步道，海景俯瞰",
      "lat": 23.6968601,
      "lng": 121.5509031
    },
    {
      "county": "花蓮",
      "name": "石梯坪",
      "area": "花蓮海線秘境",
      "rating": null,
      "reviews": null,
      "description": "花蓮海蝕地形，露營與潮間帶",
      "lat": 23.9910732,
      "lng": 121.6111949
    },
    {
      "county": "花蓮",
      "name": "親不知子海岸",
      "area": "花蓮海線秘境",
      "rating": null,
      "reviews": null,
      "description": "豐濱天空步道，斷崖海上走廊",
      "lat": 23.675376,
      "lng": 121.545538
    },
    {
      "county": "花蓮",
      "name": "新社梯田",
      "area": "花蓮海線秘境",
      "rating": null,
      "reviews": null,
      "description": "豐濱新社梯田，海稻田秘境",
      "lat": 23.65437,
      "lng": 121.539429
    },
    {
      "county": "花蓮",
      "name": "松園別館",
      "area": "花蓮市區文化散策",
      "rating": null,
      "reviews": null,
      "description": "花蓮日式別館，太平洋海景",
      "lat": 23.9828738,
      "lng": 121.6155061
    },
    {
      "county": "花蓮",
      "name": "花蓮文化創意產業園區",
      "area": "花蓮市區文化散策",
      "rating": null,
      "reviews": null,
      "description": "花蓮舊酒廠文創園區，藝文展覽",
      "lat": 23.976244,
      "lng": 121.6048577
    },
    {
      "county": "花蓮",
      "name": "貨櫃星巴克",
      "area": "花蓮市區文化散策",
      "rating": null,
      "reviews": null,
      "description": "花蓮貨櫃星巴克，全台唯一貨櫃店面",
      "lat": 23.9871434,
      "lng": 121.6014001
    },
    {
      "county": "花蓮",
      "name": "吉安慶修院",
      "area": "花蓮市區文化散策",
      "rating": null,
      "reviews": null,
      "description": "花蓮日式佛寺，三級古蹟",
      "lat": 23.9736882,
      "lng": 121.5647145
    },
    {
      "county": "花蓮",
      "name": "東大門夜市",
      "area": "花蓮市區文化散策",
      "rating": null,
      "reviews": null,
      "description": "花蓮最大夜市，福町與自強夜市合併",
      "lat": 23.9728958,
      "lng": 121.6098425
    },
    {
      "county": "花蓮",
      "name": "赤柯山金針花海",
      "area": "金針花海季節限定",
      "rating": null,
      "reviews": null,
      "description": "玉里赤柯山金針花，八月限定",
      "lat": 23.389575,
      "lng": 121.395448
    },
    {
      "county": "花蓮",
      "name": "六十石山金針花海",
      "area": "金針花海季節限定",
      "rating": null,
      "reviews": null,
      "description": "富里金針花海，小瑞士景觀",
      "lat": 23.2209221,
      "lng": 121.31118
    },
    {
      "county": "花蓮",
      "name": "遠雄海洋公園",
      "area": "花蓮親子樂園農場",
      "rating": null,
      "reviews": null,
      "description": "花蓮遠雄海洋公園，主題樂園",
      "lat": 23.9012596,
      "lng": 121.6035363
    },
    {
      "county": "花蓮",
      "name": "雲山水夢幻湖",
      "area": "花蓮親子樂園農場",
      "rating": null,
      "reviews": null,
      "description": "陽明山高山湖泊，生態保護區",
      "lat": 23.8285824,
      "lng": 121.5155814
    },
    {
      "county": "花蓮",
      "name": "理想大地渡假飯店",
      "area": "花蓮親子樂園農場",
      "rating": null,
      "reviews": null,
      "description": "花蓮理想大地，五星級河岸度假",
      "lat": 23.8656354,
      "lng": 121.5271308
    },
    {
      "name": "花蓮觀光糖廠",
      "description": "位於花蓮光復的花蓮糖廠，又稱光復糖廠，以各式口味冰淇淋聞名，保留日式木造宿舍群與製糖設備，是花東縱谷的熱門休憩點。",
      "area": "其他",
      "rating": null,
      "reviews": null,
      "tags": [],
      "lat": 23.6586905,
      "lng": 121.4206067
    },
    {
      "name": "張家樹園",
      "description": "位於花蓮的私人樹園，園主收藏各式珍奇樹種與盆栽，環境清幽，提供遊客欣賞奇木雅石的休閒空間。",
      "area": "其他",
      "rating": null,
      "reviews": null,
      "tags": [],
      "lat": 23.978631,
      "lng": 121.5729202
    },
    {
      "name": "七星潭海岸風景特定區",
      "description": "花蓮最具代表性的海岸景點，擁有月牙形的礫石海灣，可遠眺清水斷崖與太平洋，是欣賞日出與海景的絕佳去處。",
      "area": "其他",
      "rating": null,
      "reviews": null,
      "tags": [],
      "lat": 24.0314268,
      "lng": 121.6271764
    },
    {
      "name": "太平洋公園",
      "description": "位於花蓮市區旁的濱海公園，整合南濱與北濱公園，提供自行車道、沙灘與觀海平台，是市民晨跑散步與欣賞太平洋海景的休閒場所。",
      "area": "其他",
      "rating": null,
      "reviews": null,
      "tags": [],
      "lat": 23.9663889,
      "lng": 121.6091667
    },
    {
      "name": "武陵農場",
      "description": "位於台中市和平區的高山農場，海拔約1750公尺，以春季櫻花、秋季楓紅與高冷蔬菜聞名，是賞花避暑與親近自然的勝地。",
      "area": "其他",
      "rating": null,
      "reviews": null,
      "tags": [],
      "lat": 24.3450052,
      "lng": 121.3082054
    }
  ],
  "souvenirs": [
    {
      "name": "花蓮薯",
      "area": "花蓮市",
      "description": "花蓮特產薯餅，曾記最出名",
      "lat": 23.9757899,
      "lng": 121.6057515
    },
    {
      "name": "曾記麻糬",
      "area": "花蓮市",
      "description": "花蓮名產手工麻糬伴手禮",
      "lat": 23.9777429,
      "lng": 121.608338
    },
    {
      "name": "豐興餅舖",
      "area": "花蓮市",
      "description": "花蓮老牌糕餅店，小月餅出名",
      "lat": 23.9910732,
      "lng": 121.6111949
    },
    {
      "name": "郭榮市手工麻糬",
      "area": "花蓮市",
      "description": "花蓮手工麻糬名店",
      "lat": 23.9693667,
      "lng": 121.6040454
    },
    {
      "name": "德利豆乾",
      "area": "花蓮市",
      "description": "花蓮特產白豆乾伴手",
      "lat": 23.9920603,
      "lng": 121.6032496
    },
    {
      "name": "花蓮剝皮辣椒",
      "area": "花蓮市",
      "description": "花蓮特產剝皮辣椒罐頭",
      "lat": 23.9729523,
      "lng": 121.5956849
    },
    {
      "name": "惠比壽餅舖",
      "area": "花蓮市",
      "description": "花蓮日式糕餅老店，花蓮薯出名",
      "lat": 23.9910732,
      "lng": 121.6111949
    },
    {
      "name": "曾記麻糬 故事館門市",
      "description": "",
      "area": "其他",
      "rating": 4.8,
      "reviews": 13202,
      "tags": [],
      "lat": 23.9917221,
      "lng": 121.6030889
    }
  ],
  "food": [
    {
      "name": "河南砂鍋手工扯麵",
      "description": "手工扯麵彈牙，砂鍋湯頭醇厚，人氣十足。",
      "area": "",
      "rating": null,
      "reviews": null,
      "categories": [
        "中式"
      ],
      "tags": [
        "sp"
      ],
      "category": "中式",
      "_sort": 2,
      "dishes": [],
      "lat": 23.978791,
      "lng": 121.6053834
    },
    {
      "name": "佳興冰果室",
      "description": "新城老街旁的知名冰果室，招牌檸檬汁酸甜清爽，搭配七星潭太魯閣一日遊",
      "area": "",
      "rating": null,
      "reviews": null,
      "categories": [
        "甜品"
      ],
      "category": "甜品",
      "tags": [
        "sp"
      ],
      "_sort": 2,
      "dishes": [
        "黃金蜆",
        "什錦麵",
        "什錦炒麵",
        "酸甜檸檬汁和佳興檸檬棒棒冰",
        "平價美味什錦湯麵"
      ],
      "lat": 24.1264499,
      "lng": 121.6518013
    },
    {
      "name": "無名早餐店",
      "description": "人氣早餐，咖啡搭配豐富的台式早點，讓你一天元氣滿滿。",
      "area": "",
      "rating": null,
      "reviews": null,
      "categories": [
        "咖啡廳"
      ],
      "tags": [
        "sp"
      ],
      "category": "咖啡廳",
      "_sort": 2,
      "dishes": [],
      "lat": 23.9739479,
      "lng": 121.5956198
    },
    {
      "name": "鐵道麵館(牛肉麵.羊排麵.肉燥拌麵)",
      "description": "鐵道麵館, 招牌牛肉麵、羊排麵，人氣的麵食店，深受食客喜愛。",
      "area": "",
      "rating": null,
      "reviews": null,
      "categories": [
        "中式"
      ],
      "category": "中式",
      "tags": [],
      "_sort": 3,
      "dishes": [],
      "lat": 23.9775722,
      "lng": 121.6058963
    },
    {
      "name": "宇軒素食 Vegetarian restaurant",
      "description": "素食餐廳，提供健康蔬食料理。",
      "area": "花蓮市",
      "rating": null,
      "reviews": null,
      "categories": [
        "素食"
      ],
      "tags": [],
      "category": "素食",
      "_sort": 3,
      "dishes": [],
      "lat": 23.9772703,
      "lng": 121.6096203
    },
    {
      "name": "義麵物語坊",
      "description": "",
      "area": "",
      "rating": null,
      "reviews": null,
      "categories": [
        "西式"
      ],
      "category": "西式",
      "tags": [],
      "_sort": 3,
      "dishes": [],
      "lat": 23.9702423,
      "lng": 121.5843994
    },
    {
      "name": "女兒心優質農產創意工坊",
      "description": "注重優質農產，提供創意台菜料理。",
      "area": "",
      "rating": null,
      "reviews": null,
      "categories": [
        "中式"
      ],
      "category": "中式",
      "tags": [],
      "_sort": 3,
      "dishes": [],
      "lat": 23.3238686,
      "lng": 121.3230679
    },
    {
      "name": "御三家 鍋の物",
      "description": "精緻中式料理，火鍋新鮮食材，讓每一餐都成為饗宴。",
      "area": "",
      "rating": null,
      "reviews": null,
      "categories": [
        "火鍋"
      ],
      "category": "火鍋",
      "tags": [],
      "_sort": 3,
      "dishes": [],
      "lat": 23.9843761,
      "lng": 121.6198915
    },
    {
      "name": "食鍋癮SUGOI火鍋",
      "description": "食鍋癮SUGOI火鍋，人氣火鍋，極致美味，營造出無與倫比的用餐體驗。",
      "area": "",
      "rating": null,
      "reviews": null,
      "categories": [
        "火鍋"
      ],
      "category": "火鍋",
      "tags": [],
      "_sort": 3,
      "dishes": [],
      "lat": 23.9798376,
      "lng": 121.602834
    },
    {
      "name": "火鍋世家 吉安店",
      "description": "超人氣火鍋專賣，招牌湯底濃郁，搭配新鮮食材，口感絕佳。",
      "area": "吉安鄉",
      "rating": null,
      "reviews": null,
      "categories": [
        "火鍋"
      ],
      "category": "火鍋",
      "tags": [],
      "_sort": 3,
      "dishes": [],
      "lat": 23.9690088,
      "lng": 121.5821587
    },
    {
      "name": "單行道咖啡",
      "description": "專注於咖啡與茶飲的搭配，人氣之選。",
      "area": "",
      "rating": null,
      "reviews": null,
      "categories": [
        "咖啡廳"
      ],
      "category": "咖啡廳",
      "tags": [],
      "_sort": 3,
      "dishes": [],
      "lat": 23.9954527,
      "lng": 121.6044965
    },
    {
      "name": "花樣冰城 花蓮店（芒果冰開賣 花蓮加油！！",
      "description": "人氣芒果冰，讓你在炎熱夏季中感受清涼甜蜜。",
      "area": "",
      "rating": null,
      "reviews": null,
      "categories": [
        "中式"
      ],
      "category": "中式",
      "tags": [],
      "_sort": 3,
      "dishes": [],
      "lat": 23.9893863,
      "lng": 121.6057375
    },
    {
      "name": "花蓮冰棧《6/4起，我們回來了！》",
      "description": "人氣甜品店，讓你在回來後再次感受冰品的魅力。",
      "area": "",
      "rating": null,
      "reviews": null,
      "categories": [
        "甜品"
      ],
      "category": "甜品",
      "tags": [],
      "_sort": 3,
      "dishes": [],
      "lat": 23.9925255,
      "lng": 121.5765283
    },
    {
      "name": "阿礑蔬食咖啡",
      "description": "素食餐廳，提供健康蔬食料理。",
      "area": "新城鄉",
      "rating": null,
      "reviews": null,
      "categories": [
        "咖啡廳"
      ],
      "tags": [],
      "category": "咖啡廳",
      "_sort": 3,
      "dishes": [],
      "lat": 24.1269204,
      "lng": 121.641604
    },
    {
      "name": "素食早餐店（菜包/碗粿/素粽）只供外帶",
      "description": "素食餐廳，提供健康蔬食料理。",
      "area": "瑞穗鄉",
      "rating": null,
      "reviews": null,
      "categories": [
        "素食"
      ],
      "tags": [],
      "category": "素食",
      "_sort": 3,
      "dishes": [],
      "lat": 23.495085,
      "lng": 121.3802434
    },
    {
      "name": "幸福佳味素食早餐(不定時出沒)",
      "description": "素食餐廳，提供健康蔬食料理。",
      "area": "光復鄉",
      "rating": null,
      "reviews": null,
      "categories": [
        "素食"
      ],
      "tags": [],
      "category": "素食",
      "_sort": 3,
      "dishes": [],
      "lat": 23.6350647,
      "lng": 121.422761
    },
    {
      "name": "花花草草 Flowers & Grass",
      "description": "咖啡廳，適合放鬆休憩",
      "area": "豐濱鄉",
      "rating": null,
      "reviews": null,
      "address": "977台灣花蓮縣豐濱鄉靜浦村靜浦橋No. 176-1號",
      "categories": [
        "咖啡廳"
      ],
      "category": "咖啡廳",
      "tags": [],
      "_sort": 3,
      "dishes": [],
      "lat": 23.4589291,
      "lng": 121.498244
    },
    {
      "name": "Cabret Cafe",
      "description": "",
      "area": "新城鄉",
      "rating": null,
      "reviews": null,
      "address": "",
      "categories": [
        "咖啡廳"
      ],
      "category": "咖啡廳",
      "tags": [],
      "_sort": 3,
      "dishes": [],
      "lat": 24.056989,
      "lng": 121.605899
    },
    {
      "name": "有感覺手沖",
      "description": "",
      "area": "秀林鄉",
      "rating": null,
      "reviews": null,
      "address": "",
      "categories": [
        "中式"
      ],
      "category": "中式",
      "tags": [],
      "_sort": 3,
      "dishes": [],
      "lat": 24.1219036,
      "lng": 121.6345564
    },
    {
      "name": "（預約制）Kiku's Kitchen - 蘭御坊",
      "description": "",
      "area": "萬榮鄉",
      "rating": null,
      "reviews": null,
      "address": "",
      "categories": [
        "中式"
      ],
      "category": "中式",
      "tags": [],
      "_sort": 3,
      "dishes": [],
      "lat": 23.7187942,
      "lng": 121.4068658
    },
    {
      "name": "饗吃牛肉麵｜羊肉麵",
      "description": "",
      "area": "",
      "rating": null,
      "reviews": null,
      "categories": [
        "中式"
      ],
      "category": "中式",
      "tags": [],
      "_sort": 3,
      "dishes": [],
      "lat": 23.972682,
      "lng": 121.6085893
    },
    {
      "name": "香茅廚房 Lemongrass Kitchen /花蓮美食/花蓮餐廳/花蓮必吃/花蓮聚餐/寵物親子友善餐廳",
      "description": "花蓮必吃的台菜餐廳，寵物友善，適合全家聚餐共享美味。",
      "area": "花蓮市",
      "rating": null,
      "reviews": null,
      "categories": [
        "中式"
      ],
      "category": "中式",
      "tags": [],
      "_sort": 3,
      "dishes": [],
      "lat": 23.9864947,
      "lng": 121.5991357
    },
    {
      "name": "jam kitchen 花蓮中山棧",
      "description": "超人氣餐廳，擁有創意十足的中式菜品，讓人驚喜連連。",
      "area": "花蓮市",
      "rating": null,
      "reviews": null,
      "categories": [
        "中式"
      ],
      "category": "中式",
      "tags": [],
      "_sort": 3,
      "dishes": [],
      "lat": 23.9810445,
      "lng": 121.6060898
    },
    {
      "name": "臣佳立業餐酒館 CHEN & JIA BISTRO",
      "description": "結合美味台菜與酒品，適合聚餐的好去處。",
      "area": "",
      "rating": null,
      "reviews": null,
      "categories": [
        "中式"
      ],
      "category": "中式",
      "tags": [],
      "_sort": 3,
      "dishes": [],
      "lat": 23.3268617,
      "lng": 121.3142592
    },
    {
      "name": "來客早午餐 Like Brunch",
      "description": "供應創意早午餐與咖啡, 讓每一餐都充滿驚喜。",
      "area": "",
      "rating": null,
      "reviews": null,
      "categories": [
        "咖啡廳"
      ],
      "category": "咖啡廳",
      "tags": [],
      "_sort": 3,
      "dishes": [],
      "lat": 23.9906175,
      "lng": 121.5955975
    },
    {
      "name": "預约制：織娘之家,素食主義(Vegan, Vegetarian/Yuli’s home)",
      "description": "素食餐廳，提供健康蔬食料理。",
      "area": "新城鄉",
      "rating": null,
      "reviews": null,
      "categories": [
        "素食"
      ],
      "tags": [],
      "category": "素食",
      "_sort": 3,
      "dishes": [],
      "lat": 24.1298305,
      "lng": 121.6464888
    },
    {
      "name": "心蔬食🌱 （vegetarian）",
      "description": "素食餐廳，提供健康蔬食料理。",
      "area": "富里鄉",
      "rating": null,
      "reviews": null,
      "categories": [
        "素食"
      ],
      "tags": [],
      "category": "素食",
      "_sort": 3,
      "dishes": [],
      "lat": 23.154416,
      "lng": 121.2855249
    },
    {
      "name": "榷谷 CHEKU ｜ 蔬食料理 （預約制 Reservation Only）",
      "description": "素食餐廳，提供健康蔬食料理。",
      "area": "富里鄉",
      "rating": null,
      "reviews": null,
      "categories": [
        "素食"
      ],
      "tags": [],
      "category": "素食",
      "_sort": 3,
      "dishes": [],
      "lat": 23.1242674,
      "lng": 121.2141928
    },
    {
      "name": "胖嘟嘟臭豆腐",
      "description": "",
      "area": "",
      "rating": null,
      "reviews": null,
      "categories": [
        "中式"
      ],
      "category": "中式",
      "tags": [],
      "_sort": 3,
      "dishes": [],
      "lat": 23.9830993,
      "lng": 121.6046804
    },
    {
      "name": "花蓮市立丼物園",
      "description": "日式丼飯特色，口味多樣化，定能滿足各種美食需求。",
      "area": "花蓮市",
      "rating": null,
      "reviews": null,
      "categories": [
        "日式"
      ],
      "category": "日式",
      "tags": [],
      "_sort": 3,
      "dishes": [],
      "lat": 23.9862155,
      "lng": 121.5993154
    },
    {
      "name": "十六食堂",
      "description": "專注於中式台菜，提供道地的家常美味，讓人回味無窮。",
      "area": "花蓮市",
      "rating": null,
      "reviews": null,
      "categories": [
        "中式"
      ],
      "category": "中式",
      "tags": [],
      "_sort": 3,
      "dishes": [],
      "lat": 23.989208,
      "lng": 121.606574
    },
    {
      "name": "福坊炭烤酌酒/花蓮美食/花蓮餐廳/花蓮餐酒館/花蓮晚餐/花蓮調酒/附近美食",
      "description": "宵夜小吃的最佳選擇，搭配各式精釀調酒，讓聚會更加熱鬧。",
      "area": "花蓮市",
      "rating": null,
      "reviews": null,
      "categories": [
        "中式"
      ],
      "category": "中式",
      "tags": [],
      "_sort": 3,
      "dishes": [],
      "lat": 23.9740139,
      "lng": 121.595066
    },
    {
      "name": "花蓮最美秘境景觀玻璃屋",
      "description": "超人氣餐廳，享受美食與絕美景色。",
      "area": "壽豐鄉",
      "rating": null,
      "reviews": null,
      "categories": [
        "中式"
      ],
      "category": "中式",
      "tags": [],
      "_sort": 3,
      "dishes": [],
      "lat": 23.8938639,
      "lng": 121.5905051
    },
    {
      "name": "馬紹餐廳",
      "description": "以優質的台灣家常菜聞名，讓您感受家的味道。",
      "area": "壽豐鄉",
      "rating": null,
      "reviews": null,
      "categories": [
        "中式"
      ],
      "category": "中式",
      "tags": [],
      "_sort": 3,
      "dishes": [],
      "lat": 23.8513206,
      "lng": 121.4900461
    },
    {
      "name": "極禾鍋物職人 花蓮建國旗艦店-吉安個人鍋物|人氣鍋物|熱門鍋物|特色鍋物|小火鍋推薦|必吃火鍋|在地推薦火鍋|聚餐餐廳",
      "description": "極禾鍋物職人，人氣鍋物，推薦個人火鍋，聚餐首選，讓人流連忘返的美味。",
      "area": "吉安鄉",
      "rating": null,
      "reviews": null,
      "categories": [
        "火鍋"
      ],
      "category": "火鍋",
      "tags": [],
      "_sort": 3,
      "dishes": [],
      "lat": 23.98557,
      "lng": 121.5921124
    },
    {
      "name": "火鍋世家 花蓮國聯店",
      "description": "超人氣餐廳，提供多樣化的美味料理選擇",
      "area": "",
      "rating": null,
      "reviews": null,
      "categories": [
        "火鍋"
      ],
      "category": "火鍋",
      "tags": [],
      "_sort": 3,
      "dishes": [],
      "lat": 23.9910498,
      "lng": 121.6044952
    },
    {
      "name": "寒聚蘊湯鍋物（花蓮旗艦店）",
      "description": "",
      "area": "",
      "rating": null,
      "reviews": null,
      "categories": [
        "火鍋"
      ],
      "category": "火鍋",
      "tags": [],
      "_sort": 3,
      "dishes": [],
      "lat": 23.9777484,
      "lng": 121.6006915
    },
    {
      "name": "鼎味馨鍋物",
      "description": "人氣火鍋店，提供多樣新鮮食材，讓每一口都充滿滋味。",
      "area": "",
      "rating": null,
      "reviews": null,
      "categories": [
        "火鍋"
      ],
      "category": "火鍋",
      "tags": [],
      "_sort": 3,
      "dishes": [],
      "lat": 23.9727908,
      "lng": 121.6041938
    },
    {
      "name": "巴大爺鍋物（麻辣火鍋）",
      "description": "",
      "area": "",
      "rating": null,
      "reviews": null,
      "categories": [
        "火鍋"
      ],
      "category": "火鍋",
      "tags": [],
      "_sort": 3,
      "dishes": [],
      "lat": 23.9810338,
      "lng": 121.6061006
    },
    {
      "name": "霧川鍋物",
      "description": "人氣火鍋，豐富湯底選擇，讓您享受無限可能的美味。",
      "area": "",
      "rating": null,
      "reviews": null,
      "categories": [
        "火鍋"
      ],
      "category": "火鍋",
      "tags": [],
      "_sort": 3,
      "dishes": [],
      "lat": 23.9801424,
      "lng": 121.6017253
    },
    {
      "name": "五吉鍋物hot pot 特色鍋物｜花蓮在地食材湯底｜必吃鍋物｜蔬菜吧吃到飽｜爆炒蛤蠣石頭鍋系列",
      "description": "",
      "area": "",
      "rating": null,
      "reviews": null,
      "categories": [
        "火鍋"
      ],
      "category": "火鍋",
      "tags": [],
      "_sort": 3,
      "dishes": [],
      "lat": 23.9871434,
      "lng": 121.6014001
    },
    {
      "name": "八方悅鍋物 花蓮明心店(原中正店)",
      "description": "超人氣火鍋，品種繁多，讓顧客享受無盡選擇。",
      "area": "",
      "rating": null,
      "reviews": null,
      "categories": [
        "火鍋"
      ],
      "category": "火鍋",
      "tags": [],
      "_sort": 3,
      "dishes_searched": true,
      "lat": 23.9847961,
      "lng": 121.6060162
    },
    {
      "name": "泰鍋古藝（花蓮店）假日全天營業",
      "description": "",
      "area": "",
      "rating": null,
      "reviews": null,
      "categories": [
        "異國"
      ],
      "category": "異國",
      "tags": [],
      "_sort": 3,
      "dishes": [],
      "lat": 23.9791992,
      "lng": 121.6075301
    },
    {
      "name": "錢都日式涮涮鍋-花蓮國聯店 CHIEN TU HOT POT",
      "description": "",
      "area": "",
      "rating": null,
      "reviews": null,
      "categories": [
        "火鍋"
      ],
      "category": "火鍋",
      "tags": [],
      "_sort": 3,
      "dishes": [],
      "lat": 23.9908474,
      "lng": 121.6053707
    },
    {
      "name": "照豫坊港式麻辣鴛鴦火鍋",
      "description": "",
      "area": "",
      "rating": null,
      "reviews": null,
      "categories": [
        "火鍋"
      ],
      "category": "火鍋",
      "tags": [],
      "_sort": 3,
      "dishes": [],
      "lat": 23.9685808,
      "lng": 121.6028364
    },
    {
      "name": "高大俠海鮮燒烤Bar",
      "description": "超人氣海鮮燒烤選擇，鮮美口感讓人一試成主顧。",
      "area": "",
      "rating": null,
      "reviews": null,
      "categories": [
        "中式"
      ],
      "category": "中式",
      "tags": [],
      "_sort": 3,
      "dishes": [],
      "lat": 23.9723745,
      "lng": 121.6126848
    },
    {
      "name": "同齊咖吡",
      "description": "",
      "area": "",
      "rating": null,
      "reviews": null,
      "categories": [
        "咖啡廳"
      ],
      "category": "咖啡廳",
      "tags": [],
      "_sort": 3,
      "dishes": [],
      "lat": 23.9828467,
      "lng": 121.6061982
    },
    {
      "name": "厚。點甜",
      "description": "融合多樣中式台菜，口感豐富，值得一試。",
      "area": "",
      "rating": null,
      "reviews": null,
      "categories": [
        "中式"
      ],
      "category": "中式",
      "tags": [],
      "_sort": 3,
      "dishes": [],
      "lat": 23.974199,
      "lng": 121.6082843
    },
    {
      "name": "5+商行（營業時間以臉書公佈為主）",
      "description": "",
      "area": "",
      "rating": null,
      "reviews": null,
      "categories": [
        "咖啡廳"
      ],
      "category": "咖啡廳",
      "tags": [],
      "_sort": 3,
      "dishes": [],
      "lat": 23.9827551,
      "lng": 121.6027911
    },
    {
      "name": "咖啡木CoffeeMoon",
      "description": "｜手作咖啡，氛圍悠閒，適合細品與放鬆。",
      "area": "",
      "rating": null,
      "reviews": null,
      "categories": [
        "咖啡廳"
      ],
      "category": "咖啡廳",
      "tags": [],
      "_sort": 3,
      "dishes": [],
      "lat": 23.97643,
      "lng": 121.6164484
    },
    {
      "name": "小村·日 壽司（花蓮店）｜日式餐廳｜花蓮美食｜聚餐餐廳｜客製化餐盒｜生魚片蛋糕｜",
      "description": "客製化壽司和生魚片蛋糕，超人氣聚餐選擇。",
      "area": "",
      "rating": null,
      "reviews": null,
      "categories": [
        "日式"
      ],
      "category": "日式",
      "tags": [],
      "_sort": 3,
      "dishes": [],
      "lat": 23.9763122,
      "lng": 121.6071195
    },
    {
      "name": "花町日式料理/居酒屋/壽司/燒鳥",
      "description": "提供多樣化的日式料理和燒鳥，人氣居酒屋。",
      "area": "",
      "rating": null,
      "reviews": null,
      "categories": [
        "日式"
      ],
      "category": "日式",
      "tags": [],
      "_sort": 3,
      "dishes": [],
      "lat": 23.9833541,
      "lng": 121.603637
    },
    {
      "name": "676中西式早午餐 ｜越南脆皮麵包/手工蛋餅/花蓮早餐/花蓮美食",
      "description": "",
      "area": "",
      "rating": null,
      "reviews": null,
      "categories": [
        "中式"
      ],
      "category": "中式",
      "tags": [],
      "_sort": 3,
      "dishes": [],
      "lat": 23.9947225,
      "lng": 121.5698544
    },
    {
      "name": "慕然五十冰淇淋",
      "description": "",
      "area": "",
      "rating": null,
      "reviews": null,
      "categories": [
        "甜品"
      ],
      "category": "甜品",
      "tags": [],
      "_sort": 3,
      "dishes": [],
      "lat": 23.978354,
      "lng": 121.6067678
    },
    {
      "name": "凍涼小舖",
      "description": "",
      "area": "",
      "rating": null,
      "reviews": null,
      "categories": [
        "甜品"
      ],
      "category": "甜品",
      "tags": [],
      "_sort": 3,
      "dishes": [],
      "lat": 23.9717404,
      "lng": 121.606523
    },
    {
      "name": "京之苑燒肉",
      "description": "超人氣燒肉店，以其高品質的食材和精緻的料理著稱。",
      "area": "",
      "rating": null,
      "reviews": null,
      "categories": [
        "西式"
      ],
      "category": "西式",
      "tags": [],
      "_sort": 3,
      "dishes": [],
      "lat": 23.9810061,
      "lng": 121.6064467
    },
    {
      "name": "梅蘢鎮",
      "description": "人氣餐廳，以其精緻的台菜和烤肉菜品吸引眾多食客。",
      "area": "",
      "rating": null,
      "reviews": null,
      "categories": [
        "中式"
      ],
      "category": "中式",
      "tags": [],
      "_sort": 3,
      "dishes": [],
      "lat": 23.9829937,
      "lng": 121.6201482
    },
    {
      "name": "暗潮燒烤",
      "description": "",
      "area": "新城鄉",
      "rating": null,
      "reviews": null,
      "categories": [
        "中式"
      ],
      "category": "中式",
      "tags": [],
      "_sort": 3,
      "dishes": [],
      "lat": 24.0268623,
      "lng": 121.6304038
    },
    {
      "name": "漁米串燒-親子友善串燒店",
      "description": "家庭友善的環境，串燒美味令人難忘。",
      "area": "",
      "rating": null,
      "reviews": null,
      "categories": [
        "日式"
      ],
      "category": "日式",
      "tags": [],
      "_sort": 3,
      "dishes": [],
      "lat": 23.981323,
      "lng": 121.6018094
    },
    {
      "name": "鹿禾餐廳",
      "description": "擁有極高評價的台灣菜，菜品新鮮且口感絕佳。",
      "area": "",
      "rating": null,
      "reviews": null,
      "categories": [
        "中式"
      ],
      "category": "中式",
      "tags": [],
      "_sort": 3,
      "dishes": [],
      "lat": 23.994273,
      "lng": 121.5950162
    },
    {
      "name": "巧味 食在地",
      "description": "專注於當地食材的創意料理，口味絕佳，超人氣。",
      "area": "",
      "rating": null,
      "reviews": null,
      "categories": [
        "中式"
      ],
      "category": "中式",
      "tags": [],
      "_sort": 3,
      "dishes": [],
      "lat": 23.9956267,
      "lng": 121.5668763
    },
    {
      "name": "客來吃樂玉里店",
      "description": "人氣高漲的美味店，提供多樣化的美食選擇。",
      "area": "玉里鎮",
      "rating": null,
      "reviews": null,
      "categories": [
        "中式"
      ],
      "category": "中式",
      "tags": [],
      "_sort": 3,
      "dishes": [
        {
          "name": "綜合麵線",
          "description": "招牌麵線系列，蚵仔與大腸大腸綜合，濃郁鮮香湯頭搭配滑順口感"
        },
        {
          "name": "蚵仔麵線",
          "description": "東部知名台式小吃，鮮甜蚵仔搭配道地麵線"
        },
        {
          "name": "大腸麵線",
          "description": "滷製大腸入味，搭配濃郁湯頭呈現道地台式風味"
        }
      ],
      "lat": 23.334801,
      "lng": 121.3145109
    },
    {
      "name": "「金喜檸檬」玉里必喝海鹽檸檬飲、（無販售烤肉、香腸了）有在地特色伴手禮(營業時間請電洽）",
      "description": "",
      "area": "玉里鎮",
      "rating": null,
      "reviews": null,
      "categories": [
        "中式"
      ],
      "category": "中式",
      "tags": [],
      "_sort": 3,
      "dishes": [],
      "lat": 23.3319351,
      "lng": 121.3154916
    },
    {
      "name": "嗨咖驛站(農漁料理)",
      "description": "",
      "area": "豐濱鄉",
      "rating": null,
      "reviews": null,
      "categories": [
        "中式"
      ],
      "category": "中式",
      "tags": [],
      "_sort": 3,
      "dishes": [],
      "lat": 23.610301,
      "lng": 121.5287667
    },
    {
      "name": "月崖灣親子農場",
      "description": "超人氣農場美食，適合親子同樂的用餐地點。",
      "area": "",
      "rating": null,
      "reviews": null,
      "categories": [
        "中式"
      ],
      "category": "中式",
      "tags": [],
      "_sort": 3,
      "dishes": [],
      "lat": 23.8751132,
      "lng": 121.5992132
    },
    {
      "name": "香之莊園-無景觀無內用",
      "description": "",
      "area": "壽豐鄉",
      "rating": null,
      "reviews": null,
      "categories": [
        "中式"
      ],
      "category": "中式",
      "tags": [],
      "_sort": 3,
      "dishes": [],
      "lat": 23.9189479,
      "lng": 121.5516664
    },
    {
      "name": "海碉堡 x 穎！咖啡 ┆ 咖啡廳正常營業",
      "description": "融合咖啡與輕食的完美組合，人氣咖啡廳。",
      "area": "壽豐鄉",
      "rating": null,
      "reviews": null,
      "categories": [
        "咖啡廳"
      ],
      "category": "咖啡廳",
      "tags": [],
      "_sort": 3,
      "dishes": [],
      "lat": 23.9358578,
      "lng": 121.6090063
    },
    {
      "name": "玉里素食飯糰",
      "description": "素食餐廳，提供健康蔬食料理。",
      "area": "玉里鎮",
      "rating": null,
      "reviews": null,
      "categories": [
        "素食"
      ],
      "tags": [],
      "category": "素食",
      "_sort": 3,
      "dishes": [
        {
          "name": "紫米飯糰",
          "description": "以紫米製作的素食飯糰，口感Q彈營養價值高"
        },
        {
          "name": "傳統飯糰",
          "description": "白米飯糰搭配素食配料，傳統古早味"
        },
        {
          "name": "糯米捲",
          "description": "素食糯米捲，軟糯口感搭配素食內餡"
        }
      ],
      "lat": 23.3343178,
      "lng": 121.3144875
    },
    {
      "name": "素食健康早午餐",
      "description": "素食餐廳，提供健康蔬食料理。",
      "area": "玉里鎮",
      "rating": null,
      "reviews": null,
      "categories": [
        "素食"
      ],
      "tags": [],
      "category": "素食",
      "_sort": 3,
      "dishes": [],
      "lat": 23.3282696,
      "lng": 121.3131735
    },
    {
      "name": "原素早午餐 - 素食料理 / 蔬食早午餐新選擇",
      "description": "素食餐廳，提供健康蔬食料理。",
      "area": "吉安鄉",
      "rating": null,
      "reviews": null,
      "categories": [
        "素食"
      ],
      "tags": [],
      "category": "素食",
      "_sort": 3,
      "dishes": [],
      "lat": 23.9784883,
      "lng": 121.5663254
    },
    {
      "name": "Mr.&Mrs. 袁的食光-花蓮美食｜花蓮海鮮｜花蓮必吃｜花蓮餐廳｜豐濱美食｜豐濱海鮮｜豐濱餐廳｜豐濱必吃｜石梯漁港美食｜石梯漁港海鮮",
      "description": "中式餐廳，在地美味",
      "area": "豐濱鄉",
      "rating": null,
      "reviews": null,
      "address": "977台灣花蓮縣豐濱鄉港口灣106號",
      "categories": [
        "中式"
      ],
      "category": "中式",
      "tags": [],
      "_sort": 3,
      "dishes": [],
      "lat": 23.4588524,
      "lng": 121.4982256
    },
    {
      "name": "里艾廚房&人魚海",
      "description": "中式餐廳，在地美味",
      "area": "豐濱鄉",
      "rating": null,
      "reviews": null,
      "address": "977台灣花蓮縣豐濱鄉靜浦村338-1號",
      "categories": [
        "中式"
      ],
      "category": "中式",
      "tags": [],
      "_sort": 3,
      "dishes": [],
      "lat": 23.450182,
      "lng": 121.4965929
    },
    {
      "name": "太魯閣中村志明咖啡甜點風味餐",
      "description": "咖啡廳，適合放鬆休憩",
      "area": "秀林鄉",
      "rating": null,
      "reviews": null,
      "address": "972台灣花蓮縣秀林鄉崇德村91-3號",
      "categories": [
        "咖啡廳"
      ],
      "category": "咖啡廳",
      "tags": [],
      "_sort": 3,
      "dishes": [],
      "lat": 24.1585409,
      "lng": 121.6506541
    },
    {
      "name": "豆奏會",
      "description": "",
      "area": "富里鄉",
      "rating": null,
      "reviews": null,
      "address": "",
      "categories": [
        "中式"
      ],
      "category": "中式",
      "tags": [],
      "_sort": 3,
      "dishes": [],
      "lat": 23.2021025,
      "lng": 121.2748559
    },
    {
      "name": "冉記食堂",
      "description": "",
      "area": "秀林鄉",
      "rating": null,
      "reviews": null,
      "address": "",
      "categories": [
        "中式"
      ],
      "category": "中式",
      "tags": [],
      "_sort": 3,
      "dishes": [],
      "lat": 24.2703006,
      "lng": 121.740771
    },
    {
      "name": "Mr.&Mrs. 袁的食光-花蓮美食｜花蓮海鮮｜花蓮必吃｜花蓮餐廳｜豐濱美食｜豐濱海鮮｜豐濱餐廳｜豐",
      "description": "",
      "area": "豐濱鄉",
      "rating": null,
      "reviews": null,
      "address": "",
      "categories": [
        "中式"
      ],
      "category": "中式",
      "tags": [],
      "_sort": 3,
      "dishes": [],
      "lat": 23.4588524,
      "lng": 121.4982256
    },
    {
      "name": "吉米家食堂石頭小火鍋",
      "description": "",
      "area": "",
      "rating": null,
      "reviews": null,
      "categories": [
        "火鍋"
      ],
      "category": "火鍋",
      "tags": [],
      "_sort": 3,
      "dishes": [
        {
          "name": "愛肉鍋",
          "description": "10盎司大份量肉盤的個人石頭火鍋，現炒鍋底香氣十足"
        },
        {
          "name": "石頭火鍋湯底",
          "description": "現場手炒的石頭火鍋湯底，精心熬製的傳統滋味"
        },
        {
          "name": "古早味小火鍋",
          "description": "個人式古早味火鍋，乾淨且懷舊風格的用餐環境"
        }
      ],
      "lat": 23.9721048,
      "lng": 121.5940182
    },
    {
      "name": "東戀溫泉民宿Eastern love B&B - 花蓮 瑞穗 優質溫泉民宿推薦 家庭住宿首選 網友高評價黃金湯旅宿好評 高CP值 人氣泡湯休息 熱門溫泉花泡湯 個人湯池 價格 評價 親子平價 網紅必住 網美 團體多人旅遊 公司 訂房優惠 輕旅行 打卡",
      "description": "高檔的民宿提供配備私人露天浴池的溫馨客房，並附設停車場。",
      "area": "瑞穗鄉",
      "rating": null,
      "reviews": null,
      "categories": [
        "中式"
      ],
      "category": "中式",
      "tags": [],
      "_sort": 3,
      "dishes": [],
      "lat": 23.5205619,
      "lng": 121.4113308
    },
    {
      "name": "巷往 Hualien",
      "description": "",
      "area": "",
      "rating": null,
      "reviews": null,
      "categories": [
        "中式"
      ],
      "category": "中式",
      "tags": [],
      "_sort": 3,
      "dishes": [
        {
          "name": "怪味雞",
          "description": "招牌特色小菜，在地人也推薦"
        },
        {
          "name": "筍仔飯",
          "description": "古早味酸菜筍乾炒肉絲，懷舊風味"
        },
        {
          "name": "巷往牛肉湯",
          "description": "結合原民食材的獨特湯頭，順口濃郁"
        }
      ],
      "lat": 23.9713735,
      "lng": 121.6052831
    },
    {
      "name": "鍋隱個人碳鍋GOIN HOTPOT",
      "description": "精緻中式碳鍋，適合喜愛個性化火鍋的食客。",
      "area": "",
      "rating": null,
      "reviews": null,
      "categories": [
        "火鍋"
      ],
      "category": "火鍋",
      "tags": [],
      "_sort": 3,
      "dishes": [],
      "lat": 23.9792813,
      "lng": 121.6066443
    },
    {
      "name": "UNCONDITIONAL COFFEE ROASTERY【無攝限咖啡】",
      "description": "ROASTERY，專注於高品質咖啡，讓每一口都充滿驚喜。",
      "area": "",
      "rating": null,
      "reviews": null,
      "categories": [
        "咖啡廳"
      ],
      "category": "咖啡廳",
      "tags": [],
      "_sort": 3,
      "dishes": [],
      "lat": 23.9786928,
      "lng": 121.5963437
    },
    {
      "name": "take a bread 光復店",
      "description": "",
      "area": "",
      "rating": null,
      "reviews": null,
      "categories": [
        "中式"
      ],
      "category": "中式",
      "tags": [],
      "_sort": 3,
      "dishes": [],
      "lat": 23.9793198,
      "lng": 121.6055021
    },
    {
      "name": "花蓮牛山【看見美See the beauty】咖啡",
      "description": "提供愜意的咖啡環境，適合休閒時光。",
      "area": "壽豐鄉",
      "rating": null,
      "reviews": null,
      "categories": [
        "咖啡廳"
      ],
      "category": "咖啡廳",
      "tags": [],
      "_sort": 3,
      "dishes": [
        {
          "name": "綜合野菜天婦羅",
          "description": "採用店家自家栽種的野菜，現摘現炸，外皮金黃酥脆，味道清新甘甜。"
        },
        {
          "name": "香烤鹹豬肉套餐",
          "description": "以原住民風味鹹豬肉為主食，外皮烤得微焦，肉質Q彈有嚼勁，配有竹筒飯、沙拉及飲料。"
        },
        {
          "name": "竹筒飯",
          "description": "帶有淡淡竹香的古早風味主食，口感軟綿且Q彈，有原味與加入蝦米等不同風味選擇。"
        }
      ],
      "lat": 23.7670016,
      "lng": 121.5630548
    },
    {
      "name": "凱十七牛骨牛肉麵",
      "description": "",
      "area": "",
      "rating": null,
      "reviews": null,
      "categories": [
        "中式"
      ],
      "category": "中式",
      "tags": [],
      "_sort": 3,
      "dishes": [
        {
          "name": "招牌牛骨牛肉麵",
          "description": "湯頭以牛大骨慢火骨慢火燉煮，帶有濃郁牛肉香氣，牛肉質地軟嫩入味，為店內招牌麵食。"
        },
        {
          "name": "鴨血臭豆腐麵",
          "description": "飽含湯汁的滑嫩鴨血與香濃臭豆腐，搭配吸汁麵條，是宵夜熱門的重口味選擇。"
        },
        {
          "name": "螃蟹滷味佐獨門泡菜",
          "description": "使用整隻螃蟹等豪華海鮮食材進行滷製，搭配自製的酸甜泡菜，風味獨特且層次豐富。"
        }
      ],
      "lat": 23.9741,
      "lng": 121.594925
    },
    {
      "name": "肚 咖哩 牛肉麵 專賣所",
      "description": "融合咖哩與牛肉麵，口味創新令人驚喜。",
      "area": "",
      "rating": null,
      "reviews": null,
      "categories": [
        "中式"
      ],
      "category": "中式",
      "tags": [],
      "_sort": 3,
      "dishes": [
        {
          "name": "牛肉麵",
          "description": "日式風格牛肉麵專賣，牛肉入味軟嫩，湯頭溫馨"
        },
        {
          "name": "咖哩飯",
          "description": "自家調配的咖哩，搭配白飯與醃蘿蔔，日式風味"
        },
        {
          "name": "咖哩牛肉飯",
          "description": "咖哩與牛肉的結合，濃郁香氣，店內人氣主餐"
        }
      ],
      "lat": 23.9813852,
      "lng": 121.606989
    },
    {
      "name": "游家來來烤肉 Lai Lai GrillShop",
      "description": "",
      "area": "",
      "rating": null,
      "reviews": null,
      "categories": [
        "西式"
      ],
      "category": "西式",
      "tags": [],
      "_sort": 3,
      "dishes": [],
      "lat": 23.9818121,
      "lng": 121.601968
    },
    {
      "name": "第一家烤肉串 國聯店",
      "description": "",
      "area": "",
      "rating": null,
      "reviews": null,
      "categories": [
        "西式"
      ],
      "category": "西式",
      "tags": [],
      "_sort": 3,
      "dishes": [],
      "lat": 23.9881233,
      "lng": 121.601225
    },
    {
      "name": "娜滋滋烤魚",
      "description": "原住民無菜單料理，整條烤魚配山蘇野菜，魯肉飯吃到飽",
      "area": "",
      "rating": null,
      "reviews": null,
      "categories": [
        "中式"
      ],
      "category": "中式",
      "tags": [],
      "_sort": 3,
      "dishes": [],
      "lat": 23.968739,
      "lng": 121.6078438
    },
    {
      "name": "老時光燒肉酒肴",
      "description": "",
      "area": "花蓮市",
      "rating": null,
      "reviews": null,
      "categories": [
        "西式"
      ],
      "category": "西式",
      "tags": [],
      "_sort": 3,
      "dishes": [
        "剝皮辣椒牛肉捲",
        "烤松阪豬",
        "豬五花番茄起司捲",
        "鮭魚烤飯糰",
        "糖烤葡萄柚"
      ],
      "lat": 23.9810769,
      "lng": 121.6091741
    },
    {
      "name": "兩斤農莊食堂（前干城）",
      "description": "令人驚喜的中式台菜，讓每位食客都能感受到農村的純樸。",
      "area": "",
      "rating": null,
      "reviews": null,
      "categories": [
        "中式"
      ],
      "category": "中式",
      "tags": [],
      "_sort": 3,
      "dishes": [],
      "lat": 23.9877208,
      "lng": 121.5869403
    },
    {
      "name": "迷途鯨魚-花蓮推薦美食｜熱門餐廳｜打卡餐廳｜在地美食｜CP美食｜人氣",
      "description": "人氣打卡餐廳，提供美味CP值高的在地料理。",
      "area": "壽豐鄉",
      "rating": null,
      "reviews": null,
      "categories": [
        "中式"
      ],
      "category": "中式",
      "tags": [],
      "_sort": 3,
      "dishes": [],
      "lat": 23.9085897,
      "lng": 121.5306502
    },
    {
      "name": "花田小路（營業時間請依FB粉絲專頁為主）",
      "description": "",
      "area": "壽豐鄉",
      "rating": null,
      "reviews": null,
      "categories": [
        "中式"
      ],
      "category": "中式",
      "tags": [],
      "_sort": 3,
      "dishes": [],
      "lat": 23.8274452,
      "lng": 121.5109499
    },
    {
      "name": "甜嘴喵",
      "description": "",
      "area": "壽豐鄉",
      "rating": null,
      "reviews": null,
      "categories": [
        "甜品"
      ],
      "category": "甜品",
      "tags": [],
      "_sort": 3,
      "dishes": [],
      "lat": 23.9056716,
      "lng": 121.5377653
    },
    {
      "name": "蘇記嘀兜雞花蓮復興店-豬肚雞火鍋",
      "description": "招牌豬肚雞火鍋，口感鮮嫩，適合聚會享用的美味。",
      "area": "",
      "rating": null,
      "reviews": null,
      "categories": [
        "火鍋"
      ],
      "category": "火鍋",
      "tags": [],
      "_sort": 3,
      "dishes": [],
      "lat": 23.98089,
      "lng": 121.6073807
    },
    {
      "name": "養鍋 Yang Guo 石頭涮涮鍋 (花蓮中山店)",
      "description": "超人氣石頭鍋，搭配新鮮食材，讓每餐都充滿驚喜。",
      "area": "",
      "rating": null,
      "reviews": null,
      "categories": [
        "火鍋"
      ],
      "category": "火鍋",
      "tags": [],
      "_sort": 3,
      "dishes": [],
      "lat": 23.9868824,
      "lng": 121.6010326
    },
    {
      "name": "肉出微笑涮涮鍋-花蓮店",
      "description": "人氣涮涮鍋，肉質鮮嫩，讓你每一口都充滿滿足感。",
      "area": "",
      "rating": null,
      "reviews": null,
      "categories": [
        "火鍋"
      ],
      "category": "火鍋",
      "tags": [],
      "_sort": 3,
      "dishes": [],
      "lat": 23.9785784,
      "lng": 121.6017561
    },
    {
      "name": "翻火鍋",
      "description": "",
      "area": "",
      "rating": null,
      "reviews": null,
      "categories": [
        "火鍋"
      ],
      "category": "火鍋",
      "tags": [],
      "_sort": 3,
      "dishes": [],
      "lat": 23.9827594,
      "lng": 121.6076811
    },
    {
      "name": "吉煲(店休請看粉專)",
      "description": "吉煲，人氣中式與台菜餐廳，招牌煲仔菜品美味可口，適合家庭聚餐享用。",
      "area": "",
      "rating": null,
      "reviews": null,
      "categories": [
        "中式"
      ],
      "category": "中式",
      "tags": [],
      "_sort": 3,
      "dishes": [],
      "lat": 23.9812898,
      "lng": 121.6026926
    },
    {
      "name": "石二鍋_花蓮中山店",
      "description": "中式與台菜餐廳，提供多樣化的菜品，適合家庭共享美好時光。",
      "area": "",
      "rating": null,
      "reviews": null,
      "categories": [
        "中式"
      ],
      "category": "中式",
      "tags": [],
      "_sort": 3,
      "dishes": [],
      "lat": 23.9778631,
      "lng": 121.6088572
    },
    {
      "name": "一雞鍋 港式雞煲火鍋 花蓮店",
      "description": "",
      "area": "",
      "rating": null,
      "reviews": null,
      "categories": [
        "火鍋"
      ],
      "category": "火鍋",
      "tags": [],
      "_sort": 3,
      "dishes": [
        {
          "name": "港式雞煲火鍋",
          "description": "香辣乾鍋起手，一鍋二吃超滿足"
        },
        {
          "name": "香菜皮蛋火鍋",
          "description": "特色鍋底，港式風味融合台灣小火鍋"
        },
        {
          "name": "沙嗲鍋",
          "description": "港式沙嗲湯底，香港進口醬料"
        }
      ],
      "lat": 23.9880434,
      "lng": 121.6010306
    },
    {
      "name": "燒肉神保町花蓮館",
      "description": "",
      "area": "",
      "rating": null,
      "reviews": null,
      "categories": [
        "西式"
      ],
      "category": "西式",
      "tags": [],
      "_sort": 3,
      "dishes": [],
      "lat": 23.9939471,
      "lng": 121.6063856
    },
    {
      "name": "洄瀾灣景觀餐廳｜洄瀾灣親子農場｜洄瀾灣親子動物區",
      "description": "超人氣親子農場餐廳，搭配美麗的自然景觀，適合家庭聚餐。",
      "area": "秀林鄉",
      "rating": null,
      "reviews": null,
      "categories": [
        "中式"
      ],
      "category": "中式",
      "tags": [],
      "_sort": 3,
      "dishes": [],
      "lat": 24.0671801,
      "lng": 121.6074619
    },
    {
      "name": "Oops驚奇咖啡",
      "description": "",
      "area": "",
      "rating": null,
      "reviews": null,
      "categories": [
        "咖啡廳"
      ],
      "category": "咖啡廳",
      "tags": [],
      "_sort": 3,
      "dishes": [],
      "lat": 23.9750781,
      "lng": 121.6115933
    },
    {
      "name": "日勻甜點工作室｜咖啡廳｜閱讀空間｜花蓮美食｜coffee |dessert|",
      "description": "結合閱讀空間的甜品咖啡廳，享受悠閒時光。",
      "area": "",
      "rating": null,
      "reviews": null,
      "categories": [
        "咖啡廳"
      ],
      "category": "咖啡廳",
      "tags": [],
      "_sort": 3,
      "dishes": [
        {
          "name": "手作布丁",
          "description": "招牌必點布丁，口感滑順濃郁，每日限量供應"
        },
        {
          "name": "焙茶巴斯克蛋糕",
          "description": "焙茶風味巴斯克起司蛋糕，濃郁茶香與綿密口感"
        },
        {
          "name": "熱拿鐵",
          "description": "精品咖啡豆沖煮，搭配手作甜點的完美組合"
        }
      ],
      "lat": 23.9699817,
      "lng": 121.59614
    },
    {
      "name": "實季。Seedson café 花蓮店",
      "description": "提供新鮮的中式台菜，讓人感受當季美味。",
      "area": "",
      "rating": null,
      "reviews": null,
      "categories": [
        "咖啡廳"
      ],
      "category": "咖啡廳",
      "tags": [],
      "_sort": 3,
      "dishes": [],
      "lat": 23.9728987,
      "lng": 121.6051326
    },
    {
      "name": "雨林Scone&Coffee 司康專賣店",
      "description": "｜專賣香脆司康，搭配高品質咖啡，讓人回味無窮。",
      "area": "",
      "rating": null,
      "reviews": null,
      "categories": [
        "咖啡廳"
      ],
      "category": "咖啡廳",
      "tags": [],
      "_sort": 3,
      "dishes": [],
      "lat": 23.9740555,
      "lng": 121.6074784
    },
    {
      "name": "Giocare義式.手沖咖啡",
      "description": "",
      "area": "",
      "rating": null,
      "reviews": null,
      "categories": [
        "咖啡廳"
      ],
      "category": "咖啡廳",
      "tags": [],
      "_sort": 3,
      "dishes": [],
      "lat": 23.9761879,
      "lng": 121.6134423
    },
    {
      "name": "宸誼咖啡館",
      "description": "｜優雅的氛圍，適合聚會與聊天的理想場所。",
      "area": "吉安鄉",
      "rating": null,
      "reviews": null,
      "categories": [
        "咖啡廳"
      ],
      "category": "咖啡廳",
      "tags": [],
      "_sort": 3,
      "dishes": [],
      "lat": 23.9876188,
      "lng": 121.5927087
    },
    {
      "name": "珈琲宅",
      "description": "提供精緻的中式餐點，適合享受悠閒的咖啡時光。",
      "area": "",
      "rating": null,
      "reviews": null,
      "categories": [
        "咖啡廳"
      ],
      "category": "咖啡廳",
      "tags": [],
      "_sort": 3,
      "dishes": [],
      "lat": 23.9745231,
      "lng": 121.6078348
    },
    {
      "name": "くら寿司 藏壽司 花蓮自由店",
      "description": "",
      "area": "",
      "rating": null,
      "reviews": null,
      "categories": [
        "日式"
      ],
      "category": "日式",
      "tags": [],
      "_sort": 3,
      "dishes": [],
      "lat": 23.9736223,
      "lng": 121.6082194
    },
    {
      "name": "鮨煦 料理案內所",
      "description": "",
      "area": "",
      "rating": null,
      "reviews": null,
      "categories": [
        "中式"
      ],
      "category": "中式",
      "tags": [],
      "_sort": 3,
      "dishes": [
        {
          "name": "無菜單割烹料理",
          "description": "純預約無菜單日式料理，880/1680/2680三種價位，職人手作"
        },
        {
          "name": "板前握壽司",
          "description": "江戶前壽司，時令魚貨，北海道海膽與黑鮪魚大腹"
        },
        {
          "name": "午間壽司Omakase",
          "description": "午餐限定1200元，含先付、握壽司6貫、茶碗蒸、燒物等"
        }
      ],
      "lat": 23.9731187,
      "lng": 121.6136259
    },
    {
      "name": "旭屋和風洋食",
      "description": "",
      "area": "",
      "rating": null,
      "reviews": null,
      "categories": [
        "中式"
      ],
      "category": "中式",
      "tags": [],
      "_sort": 3,
      "dishes": [],
      "lat": 23.9955457,
      "lng": 121.5737075
    },
    {
      "name": "爭鮮PLUS-花蓮店",
      "description": "明亮的當代風迴轉壽司店，供應日式佳餚。",
      "area": "",
      "rating": null,
      "reviews": null,
      "categories": [
        "日式"
      ],
      "category": "日式",
      "tags": [],
      "_sort": 3,
      "dishes": [],
      "lat": 23.9785455,
      "lng": 121.6008174
    },
    {
      "name": "沐日青拾|最後點餐時間19:00",
      "description": "招牌中式台菜，氛圍悠閒，讓您享受美味時光。",
      "area": "",
      "rating": null,
      "reviews": null,
      "categories": [
        "中式"
      ],
      "category": "中式",
      "tags": [],
      "_sort": 3,
      "dishes": [],
      "lat": 23.9855881,
      "lng": 121.6133715
    },
    {
      "name": "Li'ay 里愛（營業時間麻煩參考粉絲專頁）",
      "description": "",
      "area": "",
      "rating": null,
      "reviews": null,
      "categories": [
        "中式"
      ],
      "category": "中式",
      "tags": [],
      "_sort": 3,
      "dishes": [
        {
          "name": "經典歐姆蛋早餐盤",
          "description": "歐姆蛋、自製肉排、培根搭配沙拉，豐盛的早午餐盤"
        },
        {
          "name": "秘製鮪魚三明治",
          "description": "招牌秘製鮪魚起司蛋三明治，濃香會讓人想念的味道"
        },
        {
          "name": "雙起司漢堡",
          "description": "大份量雙起司蛋堡，手作漢堡超美味"
        }
      ],
      "lat": 23.9973321,
      "lng": 121.6213911
    },
    {
      "name": "睿縈手工粉漿蛋餅專門店/訂餐請提前一天下午1~7點來電",
      "description": "以手工製作的蛋餅聞名, 為早餐帶來新鮮口感。",
      "area": "",
      "rating": null,
      "reviews": null,
      "categories": [
        "中式"
      ],
      "category": "中式",
      "tags": [],
      "_sort": 3,
      "dishes": [],
      "lat": 23.9897851,
      "lng": 121.602849
    },
    {
      "name": "億大雪花冰",
      "description": "創新小吃搭配雪花冰，帶給你全新的味覺享受。",
      "area": "",
      "rating": null,
      "reviews": null,
      "categories": [
        "中式"
      ],
      "category": "中式",
      "tags": [],
      "_sort": 3,
      "dishes": [],
      "lat": 23.9711858,
      "lng": 121.6110043
    },
    {
      "name": "栄次郎個人燒肉plus+ 花蓮中山店",
      "description": "",
      "area": "",
      "rating": null,
      "reviews": null,
      "categories": [
        "西式"
      ],
      "category": "西式",
      "tags": [],
      "_sort": 3,
      "dishes": [],
      "lat": 23.9866471,
      "lng": 121.6004757
    },
    {
      "name": "安東韓式燒烤 Korean BBQ",
      "description": "",
      "area": "吉安鄉",
      "rating": null,
      "reviews": null,
      "categories": [
        "西式"
      ],
      "category": "西式",
      "tags": [],
      "_sort": 3,
      "dishes": [],
      "lat": 23.9894598,
      "lng": 121.583427
    },
    {
      "name": "王室炭火燒烤 韓式料理🇰🇷",
      "description": "",
      "area": "",
      "rating": null,
      "reviews": null,
      "categories": [
        "異國"
      ],
      "category": "異國",
      "tags": [],
      "_sort": 3,
      "dishes": [],
      "lat": 23.9765179,
      "lng": 121.601912
    },
    {
      "name": "花蓮燒干貝5.0",
      "description": "",
      "area": "",
      "rating": null,
      "reviews": null,
      "categories": [
        "中式"
      ],
      "category": "中式",
      "tags": [],
      "_sort": 3,
      "dishes": [
        {
          "name": "燒干貝",
          "description": "招牌燒干燒干貝，鮮甜多汁，炭烤香氣十足"
        },
        {
          "name": "海鮮燒烤",
          "description": "各式海鮮燒烤，新鮮直送，原味呈現"
        },
        {
          "name": "生魚片",
          "description": "新鮮生魚片，花蓮港直送，鮮甜可口"
        }
      ],
      "lat": 23.9718464,
      "lng": 121.6104443
    },
    {
      "name": "西堤牛排 花蓮中山店",
      "description": "享受超人氣的牛排美食，口碑極佳，深受食客青睞。",
      "area": "",
      "rating": null,
      "reviews": null,
      "categories": [
        "西式"
      ],
      "category": "西式",
      "tags": [],
      "_sort": 3,
      "dishes": [
        "SHOP - TASTy西堤牛排",
        "TASTy西堤牛排",
        "at DuckDuckGo",
        "推薦 招牌 at DuckDuckGo",
        "手搖推薦 甜點推薦 買一送一 優惠訊息"
      ],
      "lat": 23.9780631,
      "lng": 121.6083198
    },
    {
      "name": "花蓮鵝小妹-美崙 （不固定休請查看營業時間）",
      "description": "",
      "area": "",
      "rating": null,
      "reviews": null,
      "categories": [
        "中式"
      ],
      "category": "中式",
      "tags": [],
      "_sort": 3,
      "dishes": [
        {
          "name": "無骨鵝肉飯",
          "description": "招牌無骨鵝肉飯套餐，肉質鮮嫩無骨好入口"
        },
        {
          "name": "鵝肉熱炒",
          "description": "平價熱炒搭配鵝肉，美崙在地新開幕人氣餐館"
        },
        {
          "name": "鵝肉麵食",
          "description": "鵝肉搭配麵食，清爽鮮美的日常美味"
        }
      ],
      "lat": 23.9913002,
      "lng": 121.6256054
    },
    {
      "name": "加家食堂 -花蓮無菜單私廚外燴會議餐盒（全預約客制",
      "description": "",
      "area": "",
      "rating": null,
      "reviews": null,
      "categories": [
        "中式"
      ],
      "category": "中式",
      "tags": [],
      "_sort": 3,
      "dishes": [],
      "lat": 23.9669236,
      "lng": 121.5984352
    },
    {
      "name": "玉里豬血湯早午餐",
      "description": "滋味豐富的早午餐選擇, 讓人一試成主顧",
      "area": "玉里鎮",
      "rating": null,
      "reviews": null,
      "categories": [
        "中式"
      ],
      "category": "中式",
      "tags": [],
      "_sort": 3,
      "dishes": [],
      "lat": 23.3339659,
      "lng": 121.3196196
    },
    {
      "name": "沐舍-蜜滋賀溫泉飯店",
      "description": "結合溫泉與美食，人氣小吃必訪。",
      "area": "瑞穗鄉",
      "rating": null,
      "reviews": null,
      "categories": [
        "中式"
      ],
      "category": "中式",
      "tags": [],
      "_sort": 3,
      "dishes": [],
      "lat": 23.4913104,
      "lng": 121.3707996
    },
    {
      "name": "安德森幸福莊園",
      "description": "新奇的家庭式飯店提供溫暖且色彩繽紛的客房和免費早餐，附設餐廳和停車位。",
      "area": "瑞穗鄉",
      "rating": null,
      "reviews": null,
      "categories": [
        "中式"
      ],
      "category": "中式",
      "tags": [],
      "_sort": 3,
      "dishes": [],
      "lat": 23.508146,
      "lng": 121.37639
    },
    {
      "name": "元湯溫泉居｜花蓮瑞穗住宿推薦（近瑞穗火車站）",
      "description": "時尚溫泉飯店提供備有泡澡浴缸的別緻客房，並附設早餐和溫泉池。",
      "area": "瑞穗鄉",
      "rating": null,
      "reviews": null,
      "categories": [
        "中式"
      ],
      "category": "中式",
      "tags": [],
      "_sort": 3,
      "dishes": [
        {
          "name": "瑞穗鮮奶饅頭",
          "description": "使用瑞穗在地鮮奶製成，口感紮實且帶有淡淡奶香，是早餐的亮點主食。"
        },
        {
          "name": "香煎鯖魚",
          "description": "煎至外皮金黃香脆的鯖魚，魚肉細緻且油脂豐富，是早餐套餐的經典主菜之一。"
        },
        {
          "name": "在地小農時蔬沙拉",
          "description": "搭配花蓮在地有機小農蔬菜所製作的沙拉，口感清爽，展現清晨健康養生的精緻風味。"
        }
      ],
      "lat": 23.5094392,
      "lng": 121.3726104
    },
    {
      "name": "杋扎徠 原住民小吃",
      "description": "",
      "area": "壽豐鄉",
      "rating": null,
      "reviews": null,
      "categories": [
        "中式"
      ],
      "category": "中式",
      "tags": [],
      "_sort": 3,
      "dishes": [
        {
          "name": "原住民石板烤肉",
          "description": "傳統石板烤肉，原住民風味，肉質鮮嫩"
        },
        {
          "name": "竹筒飯",
          "description": "原住民竹筒飯，糯米香Q，竹香四溢"
        },
        {
          "name": "山野菜",
          "description": "在地山野菜料理，新鮮健康，風味獨特"
        }
      ],
      "lat": 23.9192747,
      "lng": 121.6061507
    },
    {
      "name": "禪堂素食店",
      "description": "素食餐廳，提供健康蔬食料理。",
      "area": "花蓮市",
      "rating": null,
      "reviews": null,
      "categories": [
        "素食"
      ],
      "tags": [],
      "category": "素食",
      "_sort": 3,
      "dishes": [],
      "lat": 23.9879022,
      "lng": 121.5967767
    },
    {
      "name": "緣緣蔬食家",
      "description": "素食餐廳，提供健康蔬食料理。",
      "area": "玉里鎮",
      "rating": null,
      "reviews": null,
      "categories": [
        "素食"
      ],
      "tags": [],
      "category": "素食",
      "_sort": 3,
      "dishes": [
        {
          "name": "招牌炒飯",
          "description": "客家風味蔬食炒飯，以天然食材展現豐富滋味"
        },
        {
          "name": "特色湯麵",
          "description": "融合客家與蔬食創意的湯麵，講究食材搭配與口感層次"
        },
        {
          "name": "風味套餐",
          "description": "多元蔬食風味套餐，翻轉對素食的既定印象"
        }
      ],
      "lat": 23.3278126,
      "lng": 121.3199199
    },
    {
      "name": "天香素食園",
      "description": "素食餐廳，提供健康蔬食料理。",
      "area": "玉里鎮",
      "rating": null,
      "reviews": null,
      "categories": [
        "素食"
      ],
      "tags": [],
      "category": "素食",
      "_sort": 3,
      "dishes": [
        {
          "name": "炒河粉",
          "description": "招牌菜，越式風味炒河粉"
        },
        {
          "name": "水餃",
          "description": "人氣菜品，皮Q餡香"
        },
        {
          "name": "咖哩麵",
          "description": "濃郁咖哩風味，值得一試"
        }
      ],
      "lat": 23.3313965,
      "lng": 121.3141844
    },
    {
      "name": "181素食",
      "description": "素食餐廳，提供健康蔬食料理。",
      "area": "吉安鄉",
      "rating": null,
      "reviews": null,
      "categories": [
        "素食"
      ],
      "tags": [],
      "category": "素食",
      "_sort": 3,
      "dishes": [
        {
          "name": "紅燒牛若湯麵",
          "description": "招牌紅燒湯麵，素食版牛若湯頭濃郁"
        },
        {
          "name": "水餃",
          "description": "手作素食水餃，皮嫩餡鮮"
        },
        {
          "name": "綜合滷味",
          "description": "各式涼拌小菜，涼拌茄子、涼拌木耳等"
        }
      ],
      "lat": 23.976565,
      "lng": 121.5727874
    },
    {
      "name": "春天輕食養生健康館(素食)",
      "description": "素食餐廳，提供健康蔬食料理。",
      "area": "秀林鄉",
      "rating": null,
      "reviews": null,
      "categories": [
        "素食"
      ],
      "tags": [],
      "category": "素食",
      "_sort": 3,
      "dishes": [],
      "lat": 23.9937848,
      "lng": 121.5726304
    },
    {
      "name": "安口食堂 星潭店",
      "description": "中式餐廳，在地美味",
      "area": "新城鄉",
      "rating": null,
      "reviews": null,
      "address": "97143台灣花蓮縣新城鄉大漢村七星街150巷1號",
      "categories": [
        "中式"
      ],
      "category": "中式",
      "tags": [],
      "_sort": 3,
      "dishes": [
        {
          "name": "新鮮魚（七星潭現撈鬼頭刀）",
          "description": "推薦必點菜色"
        },
        {
          "name": "好吃雞（麻油放山雞）",
          "description": "推薦必點菜色"
        },
        {
          "name": "飄香牛（紅白蘿蔔燉牛肋條）",
          "description": "推薦必點菜色"
        }
      ],
      "lat": 24.0270872,
      "lng": 121.629334
    },
    {
      "name": "物語食堂＆精油工坊",
      "description": "中式餐廳，在地美味",
      "area": "鳳林鎮",
      "rating": null,
      "reviews": null,
      "address": "975台灣花蓮縣鳳林鎮南平里自強路190號",
      "categories": [
        "中式"
      ],
      "category": "中式",
      "tags": [],
      "_sort": 3,
      "dishes": [],
      "lat": 23.7749571,
      "lng": 121.4578731
    },
    {
      "name": "達央風味餐無國界料理(預約制)",
      "description": "",
      "area": "秀林鄉",
      "rating": null,
      "reviews": null,
      "address": "",
      "categories": [
        "中式"
      ],
      "category": "中式",
      "tags": [],
      "_sort": 3,
      "dishes": [
        {
          "name": "無菜單風味料理",
          "description": "原住民風味無菜單料理，使用在地食材烹調，需預約"
        },
        {
          "name": "山豬肉料理",
          "description": "原住民傳統山豬肉菜餚，充滿部落風味"
        },
        {
          "name": "野菜湯",
          "description": "以當季野菜熬煮的鮮甜湯品，健康養生"
        }
      ],
      "lat": 24.1649484,
      "lng": 121.6561021
    },
    {
      "name": "K Show食宿",
      "description": "",
      "area": "花蓮市",
      "rating": null,
      "reviews": null,
      "address": "",
      "categories": [
        "中式"
      ],
      "category": "中式",
      "tags": [],
      "_sort": 3,
      "dishes": [
        {
          "name": "巨無霸握壽司",
          "description": "超大份量握壽司，雙倍肉量太陽蛋超豐盛"
        },
        {
          "name": "牛網燒飯",
          "description": "創意牛網燒飯，Q彈入味令人回味無窮"
        },
        {
          "name": "沖繩風塔可飯",
          "description": "道地沖繩風味塔可飯，搭配迷你蜜糖吐司"
        }
      ],
      "lat": 23.9926969,
      "lng": 121.6281703
    },
    {
      "name": "超好吃滷肉飯",
      "description": "玉里光復路新開幕阿嬤的味道滷肉飯玉溪米松阪五花肉愛心待用餐",
      "area": "",
      "rating": null,
      "reviews": null,
      "categories": [
        "中式"
      ],
      "category": "中式",
      "tags": [],
      "_sort": 3,
      "dishes": [],
      "lat": 23.33159,
      "lng": 121.3128937
    },
    {
      "name": "日式鰕丼 天婦羅 揚物 烤物 天ぷら どんぶり 揚げ物 Tempura Donburi（最後出餐23：00）",
      "description": "天婦羅與揚物的完美結合，讓你享受豐富的日式美食。",
      "area": "",
      "rating": null,
      "reviews": null,
      "categories": [
        "中式"
      ],
      "category": "中式",
      "tags": [],
      "_sort": 3,
      "dishes": [],
      "lat": 23.9752471,
      "lng": 121.6069883
    },
    {
      "name": "職牛-炭火乾式熟成牛排館 Vintage steakhouse ｜40人包場空間｜熟成牛排｜約會｜慶生｜聚餐",
      "description": "精緻的牛排館，主打各種高級牛排，另提供葡萄酒和歡樂時段特餐。",
      "area": "",
      "rating": null,
      "reviews": null,
      "categories": [
        "西式"
      ],
      "category": "西式",
      "tags": [],
      "_sort": 3,
      "dishes": [],
      "lat": 23.9764454,
      "lng": 121.6064869
    },
    {
      "name": "歸園田居 Countryside B&B",
      "description": "",
      "area": "瑞穗鄉",
      "rating": null,
      "reviews": null,
      "categories": [
        "中式"
      ],
      "category": "中式",
      "tags": [],
      "_sort": 3,
      "dishes": [],
      "lat": 23.489767,
      "lng": 121.369563
    },
    {
      "name": "達路鞍原住民風味餐廳 花蓮在地美食餐廳 阿美族 -吉安原住民餐廳|風味餐廳|特色餐廳|聚餐美食|熱門餐廳|必吃美食|人氣餐廳|原住民美食｜車聚｜烤肉｜",
      "description": "提供阿美族特色美食, 超人氣聚餐選擇，感受原住民文化。",
      "area": "",
      "rating": null,
      "reviews": null,
      "categories": [
        "西式"
      ],
      "category": "西式",
      "tags": [],
      "_sort": 3,
      "dishes": [],
      "lat": 23.9606281,
      "lng": 121.5845145
    },
    {
      "name": "壽豐小吃慶豐店",
      "description": "壽豐吉安在地最強小吃店食尚玩家採訪Google 4.8星熱炒功夫菜超有CP值",
      "area": "",
      "rating": null,
      "reviews": null,
      "categories": [
        "中式"
      ],
      "category": "中式",
      "tags": [],
      "_sort": 3,
      "dishes": [],
      "lat": 23.9782338,
      "lng": 121.57034
    },
    {
      "name": "壽豐理想大地周邊餐廳",
      "description": "養生料理在地蔬菜新鮮魚料理",
      "area": "",
      "rating": null,
      "reviews": null,
      "categories": [
        "中式"
      ],
      "category": "中式",
      "tags": [],
      "_sort": 3,
      "dishes": [],
      "lat": 23.8664287,
      "lng": 121.5260269
    },
    {
      "name": "光復牛肉麵",
      "description": "光復在地牛肉麵店紅燒湯頭濃郁牛肉軟嫩配酸菜小菜",
      "area": "",
      "rating": null,
      "reviews": null,
      "categories": [
        "中式"
      ],
      "category": "中式",
      "tags": [],
      "_sort": 3,
      "dishes": [],
      "lat": 23.9910732,
      "lng": 121.6111949
    },
    {
      "name": "鳳林煙樓文化咖啡",
      "description": "鳳林菸樓文化聚落改建咖啡館手沖咖啡配在地甜點文青風",
      "area": "",
      "rating": null,
      "reviews": null,
      "categories": [
        "咖啡廳"
      ],
      "category": "咖啡廳",
      "tags": [],
      "_sort": 3,
      "dishes": [],
      "lat": 23.7443841,
      "lng": 121.4570447
    },
    {
      "name": "萬寶家食堂-花蓮美食 花蓮餐廳 花蓮推薦美食 花蓮聚餐 花蓮早午餐 花蓮午餐",
      "description": "",
      "area": "花蓮市",
      "rating": null,
      "reviews": null,
      "categories": [
        "咖啡廳"
      ],
      "category": "咖啡廳",
      "tags": [],
      "_sort": 3,
      "dishes": [],
      "lat": 23.9759398,
      "lng": 121.6138504
    },
    {
      "name": "獵人廚房",
      "description": "",
      "area": "花蓮市",
      "rating": null,
      "reviews": null,
      "categories": [
        "中式"
      ],
      "category": "中式",
      "tags": [],
      "_sort": 3,
      "dishes": [],
      "lat": 23.9989574,
      "lng": 121.6302625
    },
    {
      "name": "花蓮‧季之雲",
      "description": "特色台菜餐廳，提供新鮮食材，讓人感受純正的台灣味道。",
      "area": "花蓮市",
      "rating": null,
      "reviews": null,
      "categories": [
        "中式"
      ],
      "category": "中式",
      "tags": [],
      "_sort": 3,
      "dishes": [],
      "lat": 23.9881673,
      "lng": 121.5899321
    },
    {
      "name": "110豐年小館",
      "description": "經典中式料理，選擇多樣，讓每位來賓都能找到最愛的美食。",
      "area": "花蓮市",
      "rating": null,
      "reviews": null,
      "categories": [
        "中式"
      ],
      "category": "中式",
      "tags": [],
      "_sort": 3,
      "dishes": [],
      "lat": 23.990288,
      "lng": 121.6061938
    },
    {
      "name": "泰宜味食館",
      "description": "",
      "area": "",
      "rating": null,
      "reviews": null,
      "categories": [
        "異國"
      ],
      "category": "異國",
      "tags": [],
      "_sort": 3,
      "dishes": [],
      "lat": 23.9681333,
      "lng": 121.5872278
    },
    {
      "name": "雲廚味道",
      "description": "以新鮮食材打造的台菜, 讓人每口都驚喜。",
      "area": "",
      "rating": null,
      "reviews": null,
      "categories": [
        "中式"
      ],
      "category": "中式",
      "tags": [],
      "_sort": 3,
      "dishes": [],
      "lat": 23.9778191,
      "lng": 121.5704763
    },
    {
      "name": "鰻牛 現烤鰻魚定食",
      "description": "",
      "area": "",
      "rating": null,
      "reviews": null,
      "categories": [
        "日式"
      ],
      "category": "日式",
      "tags": [],
      "_sort": 3,
      "dishes": [],
      "lat": 23.981964,
      "lng": 121.5930819
    },
    {
      "name": "上福餐廳",
      "description": "提供多樣化的台菜選擇，讓人回味無窮。",
      "area": "",
      "rating": null,
      "reviews": null,
      "categories": [
        "中式"
      ],
      "category": "中式",
      "tags": [],
      "_sort": 3,
      "dishes": [],
      "lat": 23.3324736,
      "lng": 121.3183361
    },
    {
      "name": "星馬茶餐廳｜南洋咖哩專賣店｜肉骨茶玉里麵｜仁當咖哩玉里麵",
      "description": "",
      "area": "",
      "rating": null,
      "reviews": null,
      "categories": [
        "異國"
      ],
      "category": "異國",
      "tags": [],
      "_sort": 3,
      "dishes": [],
      "lat": 23.3324827,
      "lng": 121.3177615
    },
    {
      "name": "豐裡村麵店",
      "description": "手工麵食美味，讓人念念不忘的口感。",
      "area": "壽豐鄉",
      "rating": null,
      "reviews": null,
      "categories": [
        "中式"
      ],
      "category": "中式",
      "tags": [],
      "_sort": 3,
      "dishes": [],
      "lat": 23.845427,
      "lng": 121.5012215
    },
    {
      "name": "艾斯可菲秘境私廚",
      "description": "隱藏的美食寶地，精緻的台菜讓每一口都驚喜。",
      "area": "壽豐鄉",
      "rating": null,
      "reviews": null,
      "categories": [
        "中式"
      ],
      "category": "中式",
      "tags": [],
      "_sort": 3,
      "dishes": [],
      "lat": 23.9249284,
      "lng": 121.5446462
    },
    {
      "name": "10分之1海鮮燒烤(午餐需前一天訂位)",
      "description": "午餐需提前預訂，精選海鮮與燒烤，味道絕佳。",
      "area": "壽豐鄉",
      "rating": null,
      "reviews": null,
      "categories": [
        "中式"
      ],
      "category": "中式",
      "tags": [],
      "_sort": 3,
      "dishes": [],
      "lat": 23.8690866,
      "lng": 121.5973715
    },
    {
      "name": "陳家食堂",
      "description": "人氣傳統台菜，溫暖的家常味道，讓人倍感親切。",
      "area": "",
      "rating": null,
      "reviews": null,
      "categories": [
        "中式"
      ],
      "category": "中式",
      "tags": [],
      "_sort": 3,
      "dishes": [],
      "lat": 23.9753339,
      "lng": 121.6043161
    },
    {
      "name": "六里屯麵食專家 美崙旗艦店",
      "description": "超人氣麵食專賣，推出多款美味，深受食客喜愛。",
      "area": "",
      "rating": null,
      "reviews": null,
      "categories": [
        "中式"
      ],
      "category": "中式",
      "tags": [],
      "_sort": 3,
      "dishes": [],
      "lat": 23.9989576,
      "lng": 121.6320916
    },
    {
      "name": "从出一瓢味",
      "description": "",
      "area": "",
      "rating": null,
      "reviews": null,
      "categories": [
        "中式"
      ],
      "category": "中式",
      "tags": [],
      "_sort": 3,
      "dishes": [],
      "lat": 23.9782651,
      "lng": 121.6023053
    },
    {
      "name": "食驛",
      "description": "中式與台菜餐廳，菜色豐富且入味，適合各種口味的顧客。",
      "area": "",
      "rating": null,
      "reviews": null,
      "categories": [
        "中式"
      ],
      "category": "中式",
      "tags": [],
      "_sort": 3,
      "dishes": [],
      "lat": 23.9774014,
      "lng": 121.6026367
    },
    {
      "name": "春滿石頭火鍋",
      "description": "人氣火鍋店，以新鮮食材和特色石頭鍋聞名，讓人倍感溫暖。",
      "area": "",
      "rating": null,
      "reviews": null,
      "categories": [
        "火鍋"
      ],
      "category": "火鍋",
      "tags": [],
      "_sort": 3,
      "dishes": [],
      "lat": 23.9740392,
      "lng": 121.6032145
    },
    {
      "name": "宮澤火鍋",
      "description": "",
      "area": "",
      "rating": null,
      "reviews": null,
      "categories": [
        "火鍋"
      ],
      "category": "火鍋",
      "tags": [],
      "_sort": 3,
      "dishes": [],
      "lat": 23.9808138,
      "lng": 121.6075063
    },
    {
      "name": "石屋燒肉",
      "description": "超人氣火鍋餐廳，提供多樣化的鍋物選擇",
      "area": "",
      "rating": null,
      "reviews": null,
      "categories": [
        "西式"
      ],
      "category": "西式",
      "tags": [],
      "_sort": 3,
      "dishes": [],
      "lat": 23.9814785,
      "lng": 121.6133721
    },
    {
      "name": "明今活海鮮",
      "description": "創新海鮮料理，保留食材本味，值得一試。",
      "area": "",
      "rating": null,
      "reviews": null,
      "categories": [
        "中式"
      ],
      "category": "中式",
      "tags": [],
      "_sort": 3,
      "dishes": [],
      "lat": 23.9959233,
      "lng": 121.5964573
    },
    {
      "name": "浮室咖啡 soave plan",
      "description": "精緻咖啡與舒適環境，讓您享受悠閒的午後時光。",
      "area": "",
      "rating": null,
      "reviews": null,
      "categories": [
        "咖啡廳"
      ],
      "category": "咖啡廳",
      "tags": [],
      "_sort": 3,
      "dishes": [],
      "lat": 23.974248,
      "lng": 121.607336
    },
    {
      "name": "Caffe Fiore珈琲花",
      "description": "中式台菜的創意呈現，每道菜都值得細細品味。",
      "area": "",
      "rating": null,
      "reviews": null,
      "categories": [
        "中式"
      ],
      "tags": [],
      "category": "中式",
      "_sort": 3,
      "dishes": [],
      "lat": 23.9749762,
      "lng": 121.6055676
    },
    {
      "name": "Ngchus 晤子咖啡cafécake",
      "description": "精緻糕點與咖啡的完美搭配，令人心動。",
      "area": "",
      "rating": null,
      "reviews": null,
      "categories": [
        "咖啡廳"
      ],
      "category": "咖啡廳",
      "tags": [],
      "_sort": 3,
      "dishes": [],
      "lat": 23.9845986,
      "lng": 121.5999627
    },
    {
      "name": "惦惦 lab:tiamtiam",
      "description": "｜道地台菜，結合創意元素，深受食客喜愛。",
      "area": "吉安鄉",
      "rating": null,
      "reviews": null,
      "categories": [
        "中式"
      ],
      "category": "中式",
      "tags": [],
      "_sort": 3,
      "dishes": [],
      "lat": 23.9739896,
      "lng": 121.5646738
    },
    {
      "name": "舊抽屜咖啡",
      "description": "",
      "area": "",
      "rating": null,
      "reviews": null,
      "categories": [
        "咖啡廳"
      ],
      "category": "咖啡廳",
      "tags": [],
      "_sort": 3,
      "dishes": [],
      "lat": 23.9845676,
      "lng": 121.6070717
    },
    {
      "name": "半寓咖啡",
      "description": "｜隱藏版咖啡館，提供精緻飲品，讓人流連忘返。",
      "area": "",
      "rating": null,
      "reviews": null,
      "categories": [
        "咖啡廳"
      ],
      "category": "咖啡廳",
      "tags": [],
      "_sort": 3,
      "dishes": [],
      "lat": 23.9746547,
      "lng": 121.6081402
    },
    {
      "name": "練黍叔燒番麥「烤玉米🌽」",
      "description": "",
      "area": "",
      "rating": null,
      "reviews": null,
      "categories": [
        "中式"
      ],
      "category": "中式",
      "tags": [],
      "_sort": 3,
      "dishes": [],
      "lat": 23.9723203,
      "lng": 121.6103405
    },
    {
      "name": "櫻花壽司日本料理",
      "description": "專賣壽司的樸實日本餐廳，也供應共享料理和湯品。",
      "area": "",
      "rating": null,
      "reviews": null,
      "categories": [
        "日式"
      ],
      "category": "日式",
      "tags": [],
      "_sort": 3,
      "dishes": [],
      "lat": 23.9865085,
      "lng": 121.6219111
    },
    {
      "name": "福子 fuzi（不定休.僅於營業時間接聽電話）",
      "description": "專注於中式台菜，經典美味，吸引眾多食客。",
      "area": "",
      "rating": null,
      "reviews": null,
      "categories": [
        "中式"
      ],
      "category": "中式",
      "tags": [],
      "_sort": 3,
      "dishes": [],
      "lat": 23.9767673,
      "lng": 121.5997346
    },
    {
      "name": "齊食",
      "description": "",
      "area": "",
      "rating": null,
      "reviews": null,
      "categories": [
        "中式"
      ],
      "category": "中式",
      "tags": [],
      "_sort": 3,
      "dishes": [],
      "lat": 23.9842129,
      "lng": 121.6201223
    },
    {
      "name": "川壽司 花蓮 新城 家樂福附近 日式 生魚片 居酒屋 燒烤 炸物 烏龍麵",
      "description": "生魚片與居酒屋特色，帶你體驗正宗的日式燒烤與小吃。",
      "area": "新城鄉",
      "rating": null,
      "reviews": null,
      "categories": [
        "日式"
      ],
      "category": "日式",
      "tags": [],
      "_sort": 3,
      "dishes": [],
      "lat": 24.015828,
      "lng": 121.6074705
    },
    {
      "name": "再吃一口早午餐(最後收客時間15:00)｜花蓮美食．花蓮早午餐",
      "description": "花蓮早午餐的好選擇，搭配香濃咖啡，讓您一整天充滿活力。",
      "area": "",
      "rating": null,
      "reviews": null,
      "categories": [
        "咖啡廳"
      ],
      "category": "咖啡廳",
      "tags": [],
      "_sort": 3,
      "dishes": [],
      "lat": 23.9799986,
      "lng": 121.6052423
    },
    {
      "name": "Queen'食（最後點餐時間14:00。若當日完售將提前打烊，請見諒！）",
      "description": "精緻中式台菜，嚴選食材，讓每一口都充滿驚喜。",
      "area": "",
      "rating": null,
      "reviews": null,
      "categories": [
        "中式"
      ],
      "category": "中式",
      "tags": [],
      "_sort": 3,
      "dishes": [],
      "lat": 23.9938959,
      "lng": 121.6075157
    },
    {
      "name": "晨研早午餐",
      "description": "提供精緻早午餐與香濃咖啡, 人氣高漲的喫茶場所。",
      "area": "",
      "rating": null,
      "reviews": null,
      "categories": [
        "咖啡廳"
      ],
      "category": "咖啡廳",
      "tags": [],
      "_sort": 3,
      "dishes": [],
      "lat": 23.9958312,
      "lng": 121.5991436
    },
    {
      "name": "杜倫先生丨花蓮名產丨伴手禮｜麻糬｜甜點｜蛋糕",
      "description": "超人氣麻糬伴手禮，甜點和蛋糕口感令人驚艷。",
      "area": "",
      "rating": null,
      "reviews": null,
      "categories": [
        "甜品"
      ],
      "category": "甜品",
      "tags": [],
      "_sort": 3,
      "dishes": [],
      "lat": 23.9762012,
      "lng": 121.6093455
    },
    {
      "name": "八百里燒肉",
      "description": "",
      "area": "",
      "rating": null,
      "reviews": null,
      "categories": [
        "西式"
      ],
      "category": "西式",
      "tags": [],
      "_sort": 3,
      "dishes": [],
      "lat": 23.9828216,
      "lng": 121.6090836
    },
    {
      "name": "將門燒肉",
      "description": "",
      "area": "",
      "rating": null,
      "reviews": null,
      "categories": [
        "西式"
      ],
      "category": "西式",
      "tags": [],
      "_sort": 3,
      "dishes": [],
      "lat": 23.9760817,
      "lng": 121.6068235
    },
    {
      "name": "小巷子串燒週二不定時休假週三公休",
      "description": "",
      "area": "",
      "rating": null,
      "reviews": null,
      "categories": [
        "日式"
      ],
      "category": "日式",
      "tags": [],
      "_sort": 3,
      "dishes": [],
      "lat": 23.9757554,
      "lng": 121.6083103
    },
    {
      "name": "歐鄉牛排館花蓮店",
      "description": "招牌牛排口感絕佳, 超人氣美食選擇。",
      "area": "",
      "rating": null,
      "reviews": null,
      "categories": [
        "西式"
      ],
      "category": "西式",
      "tags": [],
      "_sort": 3,
      "dishes": [],
      "lat": 23.9812901,
      "lng": 121.6132321
    },
    {
      "name": "來來牛排花蓮店",
      "description": "招牌牛排多樣化, 人氣餐廳名單之一。",
      "area": "吉安鄉",
      "rating": null,
      "reviews": null,
      "categories": [
        "西式"
      ],
      "category": "西式",
      "tags": [],
      "_sort": 3,
      "dishes": [],
      "lat": 23.973779,
      "lng": 121.585838
    },
    {
      "name": "好好",
      "description": "精選牛排搭配多樣配菜, 讓人流連忘返。",
      "area": "",
      "rating": null,
      "reviews": null,
      "categories": [
        "西式"
      ],
      "category": "西式",
      "tags": [],
      "_sort": 3,
      "dishes": [],
      "lat": 23.9800745,
      "lng": 121.6062392
    },
    {
      "name": "老K牛排-自助沙拉吧",
      "description": "自助沙拉與牛排的完美結合, 人氣餐廳之一。",
      "area": "",
      "rating": null,
      "reviews": null,
      "categories": [
        "西式"
      ],
      "category": "西式",
      "tags": [],
      "_sort": 3,
      "dishes": [],
      "lat": 23.9944897,
      "lng": 121.570483
    },
    {
      "name": "武藏牛排-太昌店",
      "description": "",
      "area": "",
      "rating": null,
      "reviews": null,
      "categories": [
        "西式"
      ],
      "category": "西式",
      "tags": [],
      "_sort": 3,
      "dishes": [],
      "lat": 23.993369,
      "lng": 121.5740357
    },
    {
      "name": "新時代牛排",
      "description": "創新的牛排料理搭配新鮮食材，深受食客喜愛。",
      "area": "",
      "rating": null,
      "reviews": null,
      "categories": [
        "西式"
      ],
      "category": "西式",
      "tags": [],
      "_sort": 3,
      "dishes": [],
      "lat": 23.9910732,
      "lng": 121.6111949
    },
    {
      "name": "牛篷牛排",
      "description": "",
      "area": "",
      "rating": null,
      "reviews": null,
      "categories": [
        "西式"
      ],
      "category": "西式",
      "tags": [],
      "_sort": 3,
      "dishes": [],
      "lat": 23.9910732,
      "lng": 121.6111949
    },
    {
      "name": "北昌池上便當-花蓮自強店(便當)",
      "description": "精緻的便當選擇，口味豐富，值得一試。",
      "area": "吉安鄉",
      "rating": null,
      "reviews": null,
      "categories": [
        "中式"
      ],
      "category": "中式",
      "tags": [],
      "_sort": 3,
      "dishes": [],
      "lat": 23.9850889,
      "lng": 121.5908861
    },
    {
      "name": "北方早點丨燒餅加料、鹹豆漿",
      "description": "燒餅加料與鹹豆漿, 早餐的完美搭配",
      "area": "玉里鎮",
      "rating": null,
      "reviews": null,
      "categories": [
        "中式"
      ],
      "category": "中式",
      "tags": [],
      "_sort": 3,
      "dishes": [],
      "lat": 23.334697,
      "lng": 121.312629
    },
    {
      "name": "米達碳烤雞排",
      "description": "招牌碳烤雞排香氣四溢，成為夜市的美味代表。",
      "area": "玉里鎮",
      "rating": null,
      "reviews": null,
      "categories": [
        "中式"
      ],
      "category": "中式",
      "tags": [],
      "_sort": 3,
      "dishes": [],
      "lat": 23.3291352,
      "lng": 121.3172045
    },
    {
      "name": "香約廚房 (需要先預約）",
      "description": "",
      "area": "瑞穗鄉",
      "rating": null,
      "reviews": null,
      "categories": [
        "中式"
      ],
      "category": "中式",
      "tags": [],
      "_sort": 3,
      "dishes": [],
      "lat": 23.4975213,
      "lng": 121.3771764
    },
    {
      "name": "江家鮮奶豆花冰店",
      "description": "以豆花冰為特色，清新口感讓人驚喜連連。",
      "area": "瑞穗鄉",
      "rating": null,
      "reviews": null,
      "categories": [
        "中式"
      ],
      "category": "中式",
      "tags": [],
      "_sort": 3,
      "dishes": [],
      "lat": 23.4958965,
      "lng": 121.3666494
    },
    {
      "name": "我家螺獅粉",
      "description": "",
      "area": "壽豐鄉",
      "rating": null,
      "reviews": null,
      "categories": [
        "中式"
      ],
      "category": "中式",
      "tags": [],
      "_sort": 3,
      "dishes": [],
      "lat": 23.9046513,
      "lng": 121.5348371
    },
    {
      "name": "浪慢咖啡",
      "description": "提供舒適的咖啡氛圍，適合悠閒享受午後時光。",
      "area": "壽豐鄉",
      "rating": null,
      "reviews": null,
      "categories": [
        "咖啡廳"
      ],
      "category": "咖啡廳",
      "tags": [],
      "_sort": 3,
      "dishes": [],
      "lat": 23.9198625,
      "lng": 121.6061803
    },
    {
      "name": "在地植人｜蔬食餛飩專賣",
      "description": "素食餐廳，提供健康蔬食料理。",
      "area": "花蓮市",
      "rating": null,
      "reviews": null,
      "categories": [
        "素食"
      ],
      "tags": [],
      "category": "素食",
      "_sort": 3,
      "dishes": [],
      "lat": 23.9951502,
      "lng": 121.5975063
    },
    {
      "name": "霞飛谷時尚蔬食料理",
      "description": "素食餐廳，提供健康蔬食料理。",
      "area": "花蓮市",
      "rating": null,
      "reviews": null,
      "categories": [
        "素食"
      ],
      "tags": [],
      "category": "素食",
      "_sort": 3,
      "dishes": [],
      "lat": 23.9842996,
      "lng": 121.6195346
    },
    {
      "name": "米里蔬食廚房",
      "description": "素食餐廳，提供健康蔬食料理。",
      "area": "花蓮市",
      "rating": null,
      "reviews": null,
      "categories": [
        "素食"
      ],
      "tags": [],
      "category": "素食",
      "_sort": 3,
      "dishes": [],
      "lat": 23.9733681,
      "lng": 121.6037357
    },
    {
      "name": "《花漾蔬食綜合煎餃》",
      "description": "素食餐廳，提供健康蔬食料理。",
      "area": "鳳林鎮",
      "rating": null,
      "reviews": null,
      "categories": [
        "素食"
      ],
      "tags": [],
      "category": "素食",
      "_sort": 3,
      "dishes": [],
      "lat": 23.7434228,
      "lng": 121.4516964
    },
    {
      "name": "草緣齋蔬食（總店）",
      "description": "素食餐廳，提供健康蔬食料理。",
      "area": "玉里鎮",
      "rating": null,
      "reviews": null,
      "categories": [
        "素食"
      ],
      "tags": [],
      "category": "素食",
      "_sort": 3,
      "dishes": [],
      "lat": 23.334291,
      "lng": 121.3129747
    },
    {
      "name": "天慈寶軒蔬食",
      "description": "素食餐廳，提供健康蔬食料理。",
      "area": "玉里鎮",
      "rating": null,
      "reviews": null,
      "categories": [
        "素食"
      ],
      "tags": [],
      "category": "素食",
      "_sort": 3,
      "dishes": [],
      "lat": 23.3363398,
      "lng": 121.3195756
    },
    {
      "name": "淑英抓餅古早味手作糕餅素食店",
      "description": "素食餐廳，提供健康蔬食料理。",
      "area": "玉里鎮",
      "rating": null,
      "reviews": null,
      "categories": [
        "素食"
      ],
      "tags": [],
      "category": "素食",
      "_sort": 3,
      "dishes": [],
      "lat": 23.3346943,
      "lng": 121.317145
    },
    {
      "name": "北埔素食",
      "description": "素食餐廳，提供健康蔬食料理。",
      "area": "新城鄉",
      "rating": null,
      "reviews": null,
      "categories": [
        "素食"
      ],
      "tags": [],
      "category": "素食",
      "_sort": 3,
      "dishes": [],
      "lat": 24.0326676,
      "lng": 121.6028391
    },
    {
      "name": "素食餐廳",
      "description": "素食餐廳，提供健康蔬食料理。",
      "area": "光復鄉",
      "rating": null,
      "reviews": null,
      "categories": [
        "素食"
      ],
      "tags": [],
      "category": "素食",
      "_sort": 3,
      "dishes": [],
      "lat": 23.6677338,
      "lng": 121.4261562
    },
    {
      "name": "素食義賣",
      "description": "素食餐廳，提供健康蔬食料理。",
      "area": "秀林鄉",
      "rating": null,
      "reviews": null,
      "categories": [
        "素食"
      ],
      "tags": [],
      "category": "素食",
      "_sort": 3,
      "dishes": [],
      "lat": 24.1807759,
      "lng": 121.4964013
    },
    {
      "name": "沐軒素食餐廳",
      "description": "素食餐廳，提供健康蔬食料理。",
      "area": "花蓮市",
      "rating": null,
      "reviews": null,
      "categories": [
        "素食"
      ],
      "tags": [],
      "category": "素食",
      "_sort": 3,
      "dishes": [],
      "lat": 23.9800792,
      "lng": 121.604139
    },
    {
      "name": "富里深山咖啡館Remote Mountain ｜特色午膳套餐｜",
      "description": "咖啡廳，適合放鬆休憩",
      "area": "富里鄉",
      "rating": null,
      "reviews": null,
      "address": "983台灣花蓮縣富里鄉竹田55-3號",
      "categories": [
        "咖啡廳"
      ],
      "category": "咖啡廳",
      "tags": [],
      "_sort": 3,
      "dishes": [],
      "lat": 23.2217958,
      "lng": 121.2819235
    },
    {
      "name": "山腳下 居酒屋 ( 固定星期二、三公休。)",
      "description": "",
      "area": "秀林鄉",
      "rating": null,
      "reviews": null,
      "address": "",
      "categories": [
        "日式"
      ],
      "category": "日式",
      "tags": [],
      "_sort": 3,
      "dishes": [],
      "lat": 24.0488822,
      "lng": 121.5956118
    },
    {
      "name": "鳳義161異國料理",
      "description": "",
      "area": "鳳林鎮",
      "rating": null,
      "reviews": null,
      "address": "",
      "categories": [
        "異國"
      ],
      "category": "異國",
      "tags": [],
      "_sort": 3,
      "dishes": [],
      "lat": 23.7406771,
      "lng": 121.4321426
    },
    {
      "name": "青輕慢食",
      "description": "",
      "area": "鳳林鎮",
      "rating": null,
      "reviews": null,
      "address": "",
      "categories": [
        "中式"
      ],
      "category": "中式",
      "tags": [],
      "_sort": 3,
      "dishes": [],
      "lat": 23.7476484,
      "lng": 121.4534814
    },
    {
      "name": "花蓮小毛牛肉爐/麵（公休日見FB公告）",
      "description": "牛肉爐精緻可口，湯頭鮮美，讓人一試成主顧。",
      "area": "",
      "rating": null,
      "reviews": null,
      "categories": [
        "中式"
      ],
      "category": "中式",
      "tags": [],
      "_sort": 3,
      "dishes": [],
      "lat": 23.9836516,
      "lng": 121.6046813
    },
    {
      "name": "參火木牛排館（花蓮牛排教父｜慶生餐廳｜花蓮美食｜steaks house | restaurants",
      "description": "知名牛排教父主理, 令人期待的慶生餐廳。",
      "area": "",
      "rating": null,
      "reviews": null,
      "categories": [
        "西式"
      ],
      "category": "西式",
      "tags": [],
      "_sort": 3,
      "dishes": [],
      "lat": 23.9774783,
      "lng": 121.6029303
    },
    {
      "name": "再回首 「精緻牛/羊肉麵」",
      "description": "精緻牛羊肉麵搭配豐富配料，滿足食客的味蕾。",
      "area": "",
      "rating": null,
      "reviews": null,
      "categories": [
        "中式"
      ],
      "category": "中式",
      "tags": [],
      "_sort": 3,
      "dishes": [],
      "lat": 23.9822314,
      "lng": 121.6182139
    },
    {
      "name": "128清燉牛羊肉拉麵店",
      "description": "日式清燉拉麵，肉質鮮嫩，湯頭清澈。",
      "area": "",
      "rating": null,
      "reviews": null,
      "categories": [
        "日式"
      ],
      "category": "日式",
      "tags": [],
      "_sort": 3,
      "dishes": [],
      "lat": 23.993675,
      "lng": 121.630981
    },
    {
      "name": "北來順 牛肉麵羊肉麵",
      "description": "牛羊肉麵各具特色，受人喜愛。",
      "area": "吉安鄉",
      "rating": null,
      "reviews": null,
      "categories": [
        "中式"
      ],
      "category": "中式",
      "tags": [],
      "_sort": 3,
      "dishes": [],
      "lat": 23.9691782,
      "lng": 121.5807295
    },
    {
      "name": "班尼先生早午餐Mr.Benny brunch|店休日請見粉絲專頁",
      "description": "招牌班尼蛋搭配香濃咖啡, 早午餐愛好者的理想選擇。",
      "area": "",
      "rating": null,
      "reviews": null,
      "categories": [
        "咖啡廳"
      ],
      "category": "咖啡廳",
      "tags": [],
      "_sort": 3,
      "dishes": [],
      "lat": 23.9943979,
      "lng": 121.6048108
    },
    {
      "name": "壽豐麵店 牛肉麵/陽春麵",
      "description": "供應牛肉麵與陽春麵，讓人感受家的味道。",
      "area": "壽豐鄉",
      "rating": null,
      "reviews": null,
      "categories": [
        "中式"
      ],
      "category": "中式",
      "tags": [],
      "_sort": 3,
      "dishes": [],
      "lat": 23.8716431,
      "lng": 121.5109287
    },
    {
      "name": "源寶屋咖哩麵包",
      "description": "500碗推薦，全台首創日式咖哩麵包，天然發酵現炸金黃酥脆",
      "area": "",
      "rating": null,
      "reviews": null,
      "categories": [
        "咖啡廳"
      ],
      "category": "咖啡廳",
      "tags": [],
      "_sort": 3,
      "dishes": [],
      "lat": 23.9772413,
      "lng": 121.6028043
    },
    {
      "name": "玉里金針山周邊山產",
      "description": "玉里赤科山金針花季周邊山產餐廳放山雞炒金針花料理",
      "area": "",
      "rating": null,
      "reviews": null,
      "categories": [
        "中式"
      ],
      "category": "中式",
      "tags": [],
      "_sort": 3,
      "dishes": [],
      "lat": 23.3898217,
      "lng": 121.3770336
    },
    {
      "name": "小巷茉莉",
      "description": "人氣的台菜餐廳，提供道地的家常味，吸引眾多食客光臨。",
      "area": "花蓮市",
      "rating": null,
      "reviews": null,
      "categories": [
        "中式"
      ],
      "category": "中式",
      "tags": [],
      "_sort": 3,
      "dishes": [],
      "lat": 23.9802625,
      "lng": 121.608968
    },
    {
      "name": "兩津農莊食堂（干城）",
      "description": "休閒飯店提供裝潢簡約的客房，部分房間配有陽台，並附設泳池和共用廚房。",
      "area": "",
      "rating": null,
      "reviews": null,
      "categories": [
        "中式"
      ],
      "category": "中式",
      "tags": [],
      "_sort": 3,
      "dishes": [],
      "lat": 23.9533683,
      "lng": 121.5474701
    },
    {
      "name": "慶豐夜餐館",
      "description": "提供經典台式夜宵, 讓你在夜晚中感受美味。",
      "area": "",
      "rating": null,
      "reviews": null,
      "categories": [
        "中式"
      ],
      "category": "中式",
      "tags": [],
      "_sort": 3,
      "dishes": [],
      "lat": 23.9783827,
      "lng": 121.5699738
    },
    {
      "name": "山下陳涼",
      "description": "",
      "area": "壽豐鄉",
      "rating": null,
      "reviews": null,
      "categories": [
        "中式"
      ],
      "category": "中式",
      "tags": [],
      "_sort": 3,
      "dishes": [],
      "lat": 23.8593411,
      "lng": 121.5598345
    },
    {
      "name": "六里屯麵食專家",
      "description": "超人氣麵食，招牌麵條細膩，口感滑順，廣受食客喜愛。",
      "area": "吉安鄉",
      "rating": null,
      "reviews": null,
      "categories": [
        "中式"
      ],
      "category": "中式",
      "tags": [],
      "_sort": 3,
      "dishes": [],
      "lat": 23.9885454,
      "lng": 121.5853775
    },
    {
      "name": "久藏味",
      "description": "",
      "area": "",
      "rating": null,
      "reviews": null,
      "categories": [
        "中式"
      ],
      "category": "中式",
      "tags": [],
      "_sort": 3,
      "dishes": [],
      "lat": 23.9775914,
      "lng": 121.608781
    },
    {
      "name": "上老石鍋花蓮旗艦店",
      "description": "氣氛溫馨的餐廳，供應傳統火鍋、蛋餃和芋丸，並設有吧台座位。",
      "area": "",
      "rating": null,
      "reviews": null,
      "categories": [
        "火鍋"
      ],
      "category": "火鍋",
      "tags": [],
      "_sort": 3,
      "dishes": [],
      "lat": 23.9806095,
      "lng": 121.6080175
    },
    {
      "name": "將門火鍋堂",
      "description": "人氣火鍋店，特色湯底和豐富配料，讓人一試成主顧。",
      "area": "",
      "rating": null,
      "reviews": null,
      "categories": [
        "火鍋"
      ],
      "category": "火鍋",
      "tags": [],
      "_sort": 3,
      "dishes": [],
      "lat": 23.9762009,
      "lng": 121.6077589
    },
    {
      "name": "喫鍋小火鍋",
      "description": "人氣火鍋小吃，提供方便快捷的火鍋選擇，滿足你的小食慾。",
      "area": "",
      "rating": null,
      "reviews": null,
      "categories": [
        "火鍋"
      ],
      "category": "火鍋",
      "tags": [],
      "_sort": 3,
      "dishes": [],
      "lat": 23.9906996,
      "lng": 121.5954221
    },
    {
      "name": "億品鍋-花蓮吉安店｜花蓮推薦美食｜花蓮排隊美食|花蓮吃到飽｜",
      "description": "超人氣吃到飽火鍋，品嚐多樣美味，滿足大口吃肉的需求。",
      "area": "吉安鄉",
      "rating": null,
      "reviews": null,
      "categories": [
        "火鍋"
      ],
      "category": "火鍋",
      "tags": [],
      "_sort": 3,
      "dishes": [],
      "lat": 23.9734247,
      "lng": 121.5781682
    },
    {
      "name": "尚選火鍋",
      "description": "提供多樣的火鍋選擇，讓每一位食客都能找到自己喜愛的口味。",
      "area": "",
      "rating": null,
      "reviews": null,
      "categories": [
        "火鍋"
      ],
      "category": "火鍋",
      "tags": [],
      "_sort": 3,
      "dishes": [],
      "lat": 23.990604,
      "lng": 121.606575
    },
    {
      "name": "187海鮮熱炒",
      "description": "新鮮海鮮熱炒，色香味俱全，適合各種聚會。",
      "area": "",
      "rating": null,
      "reviews": null,
      "categories": [
        "中式"
      ],
      "category": "中式",
      "tags": [],
      "_sort": 3,
      "dishes": [],
      "lat": 23.875119,
      "lng": 121.5993683
    },
    {
      "name": "安娜咖啡",
      "description": "｜溫馨舒適的環境，提供多樣化的咖啡選擇，令人愉悅。",
      "area": "",
      "rating": null,
      "reviews": null,
      "categories": [
        "咖啡廳"
      ],
      "category": "咖啡廳",
      "tags": [],
      "_sort": 3,
      "dishes": [],
      "lat": 23.9930331,
      "lng": 121.6048034
    },
    {
      "name": "Légendezo傳說咖啡甜點屋",
      "description": "｜精緻甜品搭配香醇咖啡，滿足味蕾的雙重享受。",
      "area": "",
      "rating": null,
      "reviews": null,
      "categories": [
        "咖啡廳"
      ],
      "category": "咖啡廳",
      "tags": [],
      "_sort": 3,
      "dishes": [],
      "lat": 23.981227,
      "lng": 121.6079845
    },
    {
      "name": "豆 茶寮",
      "description": "｜人氣台菜與茶品，結合傳統與現代，深受食客喜愛。",
      "area": "",
      "rating": null,
      "reviews": null,
      "categories": [
        "中式"
      ],
      "category": "中式",
      "tags": [],
      "_sort": 3,
      "dishes": [],
      "lat": 23.9743359,
      "lng": 121.614308
    },
    {
      "name": "林記明禮路葱油餅",
      "description": "人氣葱油餅外酥內軟，香氣四溢，讓人難以抗拒。",
      "area": "",
      "rating": null,
      "reviews": null,
      "categories": [
        "中式"
      ],
      "category": "中式",
      "tags": [],
      "_sort": 3,
      "dishes": [],
      "lat": 23.9821166,
      "lng": 121.6087342
    },
    {
      "name": "阿傳師麻糬",
      "description": "超人氣麻糬，Q彈口感，搭配多種餡料，甜而不膩，深受喜愛。",
      "area": "",
      "rating": null,
      "reviews": null,
      "categories": [
        "中式"
      ],
      "category": "中式",
      "tags": [],
      "_sort": 3,
      "dishes": [],
      "lat": 23.9792445,
      "lng": 121.5972612
    },
    {
      "name": "丸山和食",
      "description": "精緻的日式料理，讓食客感受和風的美味魅力。",
      "area": "吉安鄉",
      "rating": null,
      "reviews": null,
      "categories": [
        "日式"
      ],
      "category": "日式",
      "tags": [],
      "_sort": 3,
      "dishes": [],
      "lat": 23.9651277,
      "lng": 121.5907754
    },
    {
      "name": "樂魚料亭",
      "description": "",
      "area": "",
      "rating": null,
      "reviews": null,
      "categories": [
        "中式"
      ],
      "category": "中式",
      "tags": [],
      "_sort": 3,
      "dishes": [],
      "lat": 23.9910732,
      "lng": 121.6111949
    },
    {
      "name": "早點。手作 超厚豬排蛋吐司•咖啡 (寵物友善)",
      "description": "寵物友善的咖啡喫茶，超厚吐司讓人垂涎欲滴。",
      "area": "",
      "rating": null,
      "reviews": null,
      "categories": [
        "咖啡廳"
      ],
      "category": "咖啡廳",
      "tags": [],
      "_sort": 3,
      "dishes": [],
      "lat": 23.9750434,
      "lng": 121.6034782
    },
    {
      "name": "黃家早午餐",
      "description": "招牌早午餐搭配咖啡, 讓每位食客都能感受到家的溫暖。",
      "area": "吉安鄉",
      "rating": null,
      "reviews": null,
      "categories": [
        "咖啡廳"
      ],
      "category": "咖啡廳",
      "tags": [],
      "_sort": 3,
      "dishes": [],
      "lat": 23.9766956,
      "lng": 121.5903617
    },
    {
      "name": "食萬伏特2.0 ｜花蓮美食｜花蓮早午餐",
      "description": "美味花蓮早午餐，咖啡與料理完美結合，讓味蕾驚艷。",
      "area": "",
      "rating": null,
      "reviews": null,
      "categories": [
        "咖啡廳"
      ],
      "category": "咖啡廳",
      "tags": [],
      "_sort": 3,
      "dishes": [],
      "lat": 23.9693752,
      "lng": 121.5962057
    },
    {
      "name": "花蓮冰舍雪花冰",
      "description": "甜品冰品，綿密雪花冰搭配水果，清爽又消暑。",
      "area": "",
      "rating": null,
      "reviews": null,
      "categories": [
        "中式"
      ],
      "category": "中式",
      "tags": [],
      "_sort": 3,
      "dishes": [],
      "lat": 23.9783777,
      "lng": 121.6005736
    },
    {
      "name": "圓滿冰店",
      "description": "甜品愛好者的最愛，讓你享受完美的冰品體驗。",
      "area": "吉安鄉",
      "rating": null,
      "reviews": null,
      "categories": [
        "甜品"
      ],
      "category": "甜品",
      "tags": [],
      "_sort": 3,
      "dishes": [],
      "lat": 23.9666277,
      "lng": 121.5924768
    },