{
  "routes": [
    {
      "name": "日月潭一日遊",
      "stops": [
        "朝霧碼頭",
        "向山遊客中心",
        "水社碼頭",
        "文武廟",
        "九蛙疊像",
        "伊達邵碼頭",
        "慈恩塔",
        "玄光寺",
        "喝喝茶"
      ],
      "description": "日月潭經典",
      "tags": [
        "一般路線"
      ],
      "lat": 23.8654727,
      "lng": 120.9120994
    },
    {
      "name": "清境一日遊",
      "stops": [
        "清境農場",
        "清境天空步道",
        "小瑞士花園",
        "夢谷瀑布"
      ],
      "description": "高山農場",
      "tags": [
        "一般路線"
      ],
      "lat": 24.0585107,
      "lng": 121.1628284
    },
    {
      "name": "埔里一日遊",
      "stops": [
        "寶湖宮天地堂地母廟",
        "元首館",
        "埔里酒廠",
        "妮娜巧克力夢想城堡",
        "紙教堂"
      ],
      "description": "酒廠+文創",
      "tags": [
        "一般路線"
      ],
      "lat": 23.9649845,
      "lng": 120.9675114
    },
    {
      "name": "溪頭一日遊",
      "stops": [
        "鳳凰谷鳥園",
        "溪頭自然教育園區",
        "妖怪村"
      ],
      "description": "森林浴",
      "tags": [
        "一般路線"
      ],
      "lat": 23.6722621,
      "lng": 120.7982029
    },
    {
      "name": "杉林溪一日遊",
      "stops": [
        "杉林溪森林遊樂區",
        "忘憂森林"
      ],
      "description": "高山森林",
      "tags": [
        "一般路線"
      ],
      "lat": 23.6368454,
      "lng": 120.7946581
    },
    {
      "name": "南投市、中寮一日遊",
      "stops": [
        "中寮石龍宮",
        "中興新村",
        "微熱山丘三合院",
        "猴探井天空之橋",
        "星月天空景觀餐廳"
      ],
      "description": "文化路線",
      "tags": [
        "一般路線"
      ],
      "lat": 23.8949878,
      "lng": 120.7250307
    },
    {
      "name": "集集、車埕一日遊",
      "stops": [
        "車埕木業展示館",
        "車埕火車站",
        "集集綠色隧道",
        "集集火車站",
        "明新書院",
        "集元果觀光工廠"
      ],
      "description": "鐵道路線",
      "tags": [
        "一般路線"
      ],
      "lat": 23.8279876,
      "lng": 120.7925043
    },
    {
      "name": "信義賞梅一日遊",
      "stops": [
        "雙龍瀑布七彩吊橋",
        "梅子夢工廠",
        "風櫃斗",
        "柳家梅園"
      ],
      "description": "賞梅路線",
      "tags": [
        "一般路線"
      ],
      "lat": 23.7945738,
      "lng": 120.9449314
    },
    {
      "name": "南投雨天工藝與酒廠巡禮",
      "description": "雨天就逛室內館舍，從台灣工藝研究發展中心看手工藝，到中台世界博物館賞佛教文物，再到埔里酒廠喝紹興酒，最後到水里蛇窯看陶藝",
      "stops": [
        "國立台灣工藝研究發展中心",
        "中台世界博物館",
        "埔里酒廠",
        "廣興紙寮",
        "水里蛇窯陶藝文化園區",
        "車埕木業展示館"
      ],
      "tags": [
        "雨天路線"
      ],
      "lat": 23.9179637,
      "lng": 120.6775054
    },
    {
      "name": "南投樂齡集集小火車漫遊",
      "description": "長輩南投輕鬆遊，從集集火車站搭小火車，到車埕木業展示館看林業歷史，再到中興新村散步看老房舍，全程平地無爬坡",
      "stops": [
        "集集火車站",
        "車埕火車站",
        "車埕木業展示館",
        "集集綠色隧道",
        "中興新村"
      ],
      "tags": [
        "樂齡路線"
      ],
      "lat": 23.8279876,
      "lng": 120.7925043
    },
    {
      "name": "南投埔里到清境美食縱貫線",
      "description": "南投美食從平地吃到山上，從埔里紹興酒蛋、日月潭阿婆茶葉蛋，到清境雲南擺夷料理，一路吃上山",
      "stops": [
        "埔里紹興酒蛋",
        "日月潭阿婆茶葉蛋",
        "清境魯媽媽雲南擺夷料理",
        "清境雲香園",
        "阿甲肉丸",
        "集集古早味香蕉冰"
      ],
      "tags": [
        "景點加美食"
      ],
      "lat": 24.0552388,
      "lng": 121.1620152
    },
    {
      "name": "食尚玩家・南投市美食與集集特技村一日遊",
      "description": "跟著風田朵拉吃南投美食，王記蚵仔煎、山上山下咖哩、沒有豆花，再到集集特技村體驗好萊塢等級特技",
      "stops": [
        "王記蚵仔煎",
        "山上山下咖哩",
        "沒有豆花",
        "兩兄弟美式河粉",
        "福瑞堂",
        "集集特技村"
      ],
      "tags": [
        "食尚玩家"
      ],
      "lat": 23.8231406,
      "lng": 120.7847918
    },
    {
      "name": "食尚玩家・日月潭環湖自行車道一日遊",
      "description": "日月潭文武廟拜月老，騎全台最美自行車道環湖，到朝霧碼頭看日出，向山眺望平台拍照，吃金盆阿嬤香菇茶葉蛋",
      "stops": [
        "日月潭文武廟",
        "日月潭環湖自行車道",
        "朝霧碼頭",
        "向山眺望平台",
        "湖の怪物咖啡店",
        "金盆阿嬤香菇茶葉蛋",
        "哖記蛋捲"
      ],
      "tags": [
        "食尚玩家"
      ],
      "lat": 23.8724524,
      "lng": 120.9232206
    },
    {
      "name": "食尚玩家・南投埔里紙燈巧克力一日遊",
      "description": "埔里逛造紙工廠做紙燈DIY，吃百菇大餐，到18度C巧克力工房買伴手禮，拍彩繪月老教堂",
      "stops": [
        "埔里紙廠",
        "18度C巧克力工房",
        "彩繪月老教堂",
        "虎甲製冰所",
        "雋荖廚房",
        "埔里酒廠"
      ],
      "tags": [
        "食尚玩家"
      ],
      "lat": 23.9615542,
      "lng": 120.9572045
    }
  ],
  "spots": [
    {
      "county": "南投",
      "name": "朝霧碼頭",
      "area": "日月潭",
      "rating": 4.4,
      "reviews": 3432,
      "description": "日月潭朝霧碼頭，晨霧湖景最美",
      "lat": 23.8677654,
      "lng": 120.9161911
    },
    {
      "county": "南投",
      "name": "向山遊客中心",
      "area": "日月潭",
      "rating": 4.5,
      "reviews": 20907,
      "description": "日月潭建築地標，清水模湖景",
      "lat": 23.8520298,
      "lng": 120.9022521
    },
    {
      "county": "南投",
      "name": "水社碼頭",
      "area": "日月潭",
      "rating": 4.4,
      "reviews": 14802,
      "description": "日月潭水社碼頭，搭船遊湖起點",
      "lat": 23.8645269,
      "lng": 120.9117702
    },
    {
      "county": "南投",
      "name": "文武廟",
      "area": "日月潭",
      "rating": 4.6,
      "reviews": 4402,
      "description": "日月潭最大廟宇，年階梯拍照",
      "lat": 23.8699678,
      "lng": 120.9275511
    },
    {
      "county": "南投",
      "name": "九蛙疊像",
      "area": "日月潭",
      "rating": 4.5,
      "reviews": 4821,
      "description": "日月潭九蛙疊像，水位指標地標",
      "lat": 23.8588078,
      "lng": 120.9356872
    },
    {
      "county": "南投",
      "name": "伊達邵碼頭",
      "area": "日月潭",
      "rating": 4.4,
      "reviews": 1157,
      "description": "日月潭伊達邵商圈，原民美食",
      "lat": 23.84974,
      "lng": 120.92967
    },
    {
      "county": "南投",
      "name": "慈恩塔",
      "area": "日月潭",
      "rating": 4.6,
      "reviews": 4111,
      "description": "日月潭慈恩塔，制高點俯瞰湖景",
      "lat": 23.8420255,
      "lng": 120.9208406
    },
    {
      "county": "南投",
      "name": "玄光寺",
      "area": "日月潭",
      "rating": 4.3,
      "reviews": 8312,
      "description": "日月潭玄光寺，玄光寺碼頭阿婆茶葉蛋",
      "lat": 23.8520961,
      "lng": 120.9136026
    },
    {
      "county": "南投",
      "name": "喝喝茶",
      "area": "日月潭",
      "rating": 4.7,
      "reviews": 33183,
      "description": "日月潭喝喝茶，茶業體驗觀光工廠",
      "lat": 23.8961935,
      "lng": 120.9337775
    },
    {
      "county": "南投",
      "name": "清境農場",
      "area": "清境",
      "rating": 4.4,
      "reviews": 39160,
      "description": "高山農場，綿羊秀與青青草原",
      "lat": 24.0544312,
      "lng": 121.1612645
    },
    {
      "county": "南投",
      "name": "清境天空步道",
      "area": "清境",
      "rating": 4.3,
      "reviews": 5176,
      "description": "清境觀景步道，無障礙高空賞景",
      "lat": 24.0550979,
      "lng": 121.1622865
    },
    {
      "county": "南投",
      "name": "小瑞士花園",
      "area": "清境",
      "rating": 4,
      "reviews": 19025,
      "description": "清境歐風花園，四季花海",
      "lat": 24.0440446,
      "lng": 121.1563945
    },
    {
      "county": "南投",
      "name": "夢谷瀑布",
      "area": "清境",
      "rating": 4.1,
      "reviews": 1984,
      "description": "埔里夢谷瀑布步道，清涼消暑",
      "lat": 24.0220687,
      "lng": 121.0860548
    },
    {
      "county": "南投",
      "name": "寶湖宮天地堂地母廟",
      "area": "埔里鎮",
      "rating": 4.8,
      "reviews": 363,
      "description": "埔里地母廟，全台最大地母信仰中心",
      "lat": 23.9514518,
      "lng": 120.9894656
    },
    {
      "county": "南投",
      "name": "元首館",
      "area": "埔里鎮",
      "rating": 3.8,
      "reviews": 15650,
      "description": "埔里元首館，觀光工廠伴手禮",
      "lat": 23.9701333,
      "lng": 120.9267949
    },
    {
      "county": "南投",
      "name": "埔里酒廠",
      "area": "埔里鎮",
      "rating": 4.4,
      "reviews": 2827,
      "description": "埔里紹興酒廠，酒文物館",
      "lat": 23.9932872,
      "lng": 120.9646866
    },
    {
      "county": "南投",
      "name": "妮娜巧克力夢想城堡",
      "area": "埔里鎮",
      "rating": 4.4,
      "reviews": 20075,
      "description": "埔里歐風巧克力城堡，DIY體驗",
      "lat": 23.9433221,
      "lng": 120.9295109
    },
    {
      "county": "南投",
      "name": "紙教堂",
      "area": "埔里鎮",
      "rating": 3.8,
      "reviews": 4125,
      "description": "埔里紙教堂，桃米生態村",
      "lat": 23.9413807,
      "lng": 120.9270419
    },
    {
      "county": "南投",
      "name": "鳳凰谷鳥園",
      "area": "溪頭",
      "rating": 4.4,
      "reviews": 7228,
      "description": "鹿谷鳥園生態園區，親子賞鳥",
      "lat": 23.6722621,
      "lng": 120.7982029
    },
    {
      "county": "南投",
      "name": "溪頭自然教育園區",
      "area": "溪頭",
      "rating": 4.5,
      "reviews": 28921,
      "description": "杉林溪森林遊樂區，大學池空中走廊",
      "lat": 23.6745178,
      "lng": 120.7972515
    },
    {
      "county": "南投",
      "name": "妖怪村",
      "area": "溪頭",
      "rating": 3.9,
      "reviews": 888,
      "description": "溪頭日式妖怪主題村，拍照打卡",
      "lat": 23.6776428,
      "lng": 120.7937001
    },
    {
      "county": "南投",
      "name": "杉林溪森林遊樂區",
      "area": "杉林溪",
      "rating": 4.7,
      "reviews": 7014,
      "description": "高山森林遊樂區，花卉與瀑布",
      "lat": 23.6368442,
      "lng": 120.7949225
    },
    {
      "county": "南投",
      "name": "忘憂森林",
      "area": "杉林溪",
      "rating": 4.6,
      "reviews": 1792,
      "description": "杉林溪枯木湖泊秘境，霧氣繚繞",
      "lat": 23.6486581,
      "lng": 120.7949528
    },
    {
      "county": "南投",
      "name": "中寮石龍宮",
      "area": "南投市、中寮",
      "rating": 4.6,
      "reviews": 7121,
      "description": "中寮石龍宮，山中寺廟秘境",
      "lat": 23.9237066,
      "lng": 120.7386318
    },
    {
      "county": "南投",
      "name": "中興新村",
      "area": "南投市、中寮",
      "rating": null,
      "reviews": null,
      "description": "台灣省政府所在地，省府宿舍群",
      "lat": 23.955234,
      "lng": 120.687352
    },
    {
      "county": "南投",
      "name": "微熱山丘三合院",
      "area": "南投市、中寮",
      "rating": 4.2,
      "reviews": 16956,
      "description": "南投微熱山丘本店，鳳梨酥發源地",
      "lat": 23.9337175,
      "lng": 120.6380355
    },
    {
      "county": "南投",
      "name": "猴探井天空之橋",
      "area": "南投市、中寮",
      "rating": 3.8,
      "reviews": 6833,
      "description": "南投天空之橋，猴探井賞景",
      "lat": 23.9084478,
      "lng": 120.6315992
    },
    {
      "county": "南投",
      "name": "星月天空景觀餐廳",
      "area": "南投市、中寮",
      "rating": 4.6,
      "reviews": 29450,
      "description": "南投景觀餐廳，夜景與動物互動",
      "lat": 23.9105555,
      "lng": 120.6305281
    },
    {
      "county": "南投",
      "name": "車埕木業展示館",
      "area": "集集、車埕",
      "rating": 4.3,
      "reviews": 13098,
      "description": "車埕木業館，林業歷史展示",
      "lat": 23.833482,
      "lng": 120.865801
    },
    {
      "county": "南投",
      "name": "車埕火車站",
      "area": "集集、車埕",
      "rating": 4.5,
      "reviews": 997,
      "description": "水里車埕木造車站，林業遺跡",
      "lat": 23.83263,
      "lng": 120.86574
    },
    {
      "county": "南投",
      "name": "集集綠色隧道",
      "area": "集集、車埕",
      "rating": 4.4,
      "reviews": 340,
      "description": "古坑綠色隧道，自行車道與咖啡",
      "lat": 23.8307496,
      "lng": 120.7583469
    },
    {
      "county": "南投",
      "name": "集集火車站",
      "area": "集集、車埕",
      "rating": 4.2,
      "reviews": 1625,
      "description": "集集線最重要車站，鐵道觀光起點",
      "lat": 23.83263,
      "lng": 120.86574
    },
    {
      "county": "南投",
      "name": "明新書院",
      "area": "集集、車埕",
      "rating": 4.1,
      "reviews": 3135,
      "description": "集集三級古蹟書院，清代建築",
      "lat": 23.8275265,
      "lng": 120.7995356
    },
    {
      "county": "南投",
      "name": "集元果觀光工廠",
      "area": "集集、車埕",
      "rating": 4.2,
      "reviews": 3675,
      "description": "集集山蕉觀光工廠，香蕉DIY",
      "lat": 23.8250823,
      "lng": 120.8142366
    },
    {
      "county": "南投",
      "name": "雙龍瀑布七彩吊橋",
      "area": "信義賞梅",
      "rating": 4.4,
      "reviews": 4660,
      "description": "信義雙龍瀑布，七彩吊橋秘境",
      "lat": 23.7767852,
      "lng": 120.9504481
    },
    {
      "county": "南投",
      "name": "梅子夢工廠",
      "area": "信義賞梅",
      "rating": 4.2,
      "reviews": 2976,
      "description": "信義梅子夢工廠，梅子DIY體驗",
      "lat": 23.6886867,
      "lng": 120.8615274
    },
    {
      "county": "南投",
      "name": "風櫃斗",
      "area": "信義賞梅",
      "rating": 4.2,
      "reviews": 1660,
      "description": "馬公風櫃漁港，聽濤勝地",
      "lat": 23.6688705,
      "lng": 120.8564442
    },
    {
      "county": "南投",
      "name": "柳家梅園",
      "area": "信義賞梅",
      "rating": 4.3,
      "reviews": 1753,
      "description": "信義柳家梅園，冬季梅花秘境",
      "lat": 23.7945738,
      "lng": 120.9449314
    },
    {
      "name": "半山夢工廠",
      "description": "位於南投的觀光工廠，以台灣在地產業為主題，提供多種DIY體驗與互動展示，是寓教於樂的親子景點。",
      "area": "其他",
      "rating": 4.5,
      "reviews": 15393,
      "tags": [],
      "lat": 23.9175046,
      "lng": 120.6561671
    },
    {
      "name": "大觀市場",
      "area": "草屯鎮",
      "rating": 4.2,
      "reviews": 1552,
      "description": "豐富的小吃選擇，讓每位食客都能找到心頭好。",
      "lat": 23.9829409,
      "lng": 120.6834868
    },
    {
      "name": "南投市黃昏市場",
      "area": "南投市",
      "rating": 4.2,
      "reviews": 388,
      "description": "夜市美食琳瑯滿目，吸引食客們前來品嚐。",
      "lat": 23.9066073,
      "lng": 120.6894245
    },
    {
      "name": "中興新村第三市場",
      "area": "其他",
      "rating": 4.1,
      "reviews": 2551,
      "description": "當地特色美食聚集地，琳瑯滿目的台灣小吃等你來發掘。",
      "lat": 23.9448852,
      "lng": 120.6967239
    },
    {
      "name": "南投市場",
      "area": "南投市",
      "rating": 4,
      "reviews": 1291,
      "description": "地道小吃聚集地，各種美味等你來品嚐。",
      "lat": 23.9090449,
      "lng": 120.6853829
    }
  ],
  "souvenirs": [
    {
      "name": "微熱山丘",
      "area": "南投市",
      "description": "南投鳳梨酥名店，外銷國際",
      "lat": 23.9335357,
      "lng": 120.6382574
    },
    {
      "name": "埔里酒廠",
      "area": "埔里鎮",
      "description": "台灣菸酒埔里廠紹興酒特產",
      "lat": 23.9932872,
      "lng": 120.9646866
    },
    {
      "name": "埔里紹興酒",
      "area": "埔里鎮",
      "description": "埔里特產紹興酒和酒蛋",
      "lat": 23.9649845,
      "lng": 120.9675114
    },
    {
      "name": "溪底遙學習農場",
      "area": "中寮鄉",
      "description": "南投龍眼乾和炭焙龍眼",
      "lat": 23.9058666,
      "lng": 120.7809676
    },
    {
      "name": "竹山蜜番薯",
      "area": "竹山鎮",
      "description": "竹山特產蜜番薯伴手",
      "lat": 23.7595688,
      "lng": 120.6822814
    },
    {
      "name": "鹿谷凍頂烏龍茶",
      "area": "鹿谷鄉",
      "description": "南投凍頂烏龍茶產地伴手茶",
      "lat": 23.74975,
      "lng": 120.766254
    },
    {
      "name": "車埕木桶便當",
      "area": "水里鄉",
      "description": "車埕特產木桶便當體驗",
      "lat": 23.8345521,
      "lng": 120.8655896
    },
    {
      "name": "Cona's妮娜巧克力 夢想城堡觀光工廠(當月壽星免費入園) 世界金牌巧克力",
      "description": "",
      "area": "其他",
      "rating": 4.4,
      "reviews": 20076,
      "tags": [],
      "lat": 23.9433221,
      "lng": 120.9295109
    },
    {
      "name": "微熱山丘 南投三合院門市",
      "description": "",
      "area": "其他",
      "rating": 4.2,
      "reviews": 16956,
      "tags": [],
      "lat": 23.9337175,
      "lng": 120.6380355
    }
  ],
  "food": [
    {
      "name": "竹山橋頭麵店",
      "description": "專注於多樣化的麵食，滿足食客的不同口味需求。",
      "area": "竹山鎮",
      "rating": 4.1,
      "reviews": 631,
      "categories": [
        "中式"
      ],
      "category": "中式",
      "tags": [
        "sp"
      ],
      "_sort": 2,
      "dishes": [],
      "lat": 23.758065,
      "lng": 120.6876143
    },
    {
      "name": "信義雙龍瀑布周邊小吃",
      "description": "部落周邊原民小吃烤肉串馬告香腸瀑布遊憩必吃",
      "area": "",
      "rating": 5,
      "reviews": 114,
      "categories": [
        "中式"
      ],
      "category": "中式",
      "tags": [],
      "_sort": 3,
      "dishes": [],
      "lat": 23.7767852,
      "lng": 120.9504481
    },
    {
      "name": "南投樂沐輕食",
      "description": "以新鮮食材為主的中式台菜，深受食客喜愛。",
      "area": "南投市",
      "rating": 5,
      "reviews": 202,
      "categories": [
        "咖啡廳"
      ],
      "category": "咖啡廳",
      "tags": [],
      "_sort": 3,
      "dishes": [],
      "lat": 23.9175153,
      "lng": 120.6568724
    },
    {
      "name": "麵屋好|",
      "description": "",
      "area": "竹山鎮",
      "rating": 5,
      "reviews": 680,
      "categories": [
        "中式"
      ],
      "category": "中式",
      "tags": [],
      "_sort": 3,
      "dishes": [],
      "lat": 23.7596655,
      "lng": 120.6863087
    },
    {
      "name": "拾六.八鍋物-埔里熱門鍋物|特色鍋物|人氣鍋物|海鮮火鍋|必吃火鍋|和牛火鍋|在地推薦火鍋|麻辣火鍋",
      "description": "",
      "area": "埔里鎮",
      "rating": 5,
      "reviews": 1336,
      "categories": [
        "火鍋"
      ],
      "category": "火鍋",
      "tags": [],
      "_sort": 3,
      "dishes": [],
      "lat": 23.9667756,
      "lng": 120.9636025
    },
    {
      "name": "台灣惠蓀咖啡 HUISUN COFFEE_品牌館",
      "description": "極致咖啡享受, 超人氣的咖啡店。",
      "area": "埔里鎮",
      "rating": 5,
      "reviews": 10091,
      "categories": [
        "咖啡廳"
      ],
      "category": "咖啡廳",
      "tags": [],
      "_sort": 3,
      "dishes": [],
      "lat": 23.9777474,
      "lng": 120.9185377
    },
    {
      "name": "炭頭夯肉工坊",
      "description": "招牌肉品口感絕佳，讓人回味無窮，人氣美食推薦。",
      "area": "埔里鎮",
      "rating": 5,
      "reviews": 218,
      "categories": [
        "中式"
      ],
      "category": "中式",
      "tags": [],
      "_sort": 3,
      "dishes": [],
      "lat": 23.9723773,
      "lng": 120.9670561
    },
    {
      "name": "啃什麼 滷味",
      "description": "五花八門的滷味選擇，讓人一次滿足多種口味。",
      "area": "竹山鎮",
      "rating": 5,
      "reviews": 341,
      "categories": [
        "中式"
      ],
      "category": "中式",
      "tags": [],
      "_sort": 3,
      "dishes": [],
      "lat": 23.7551631,
      "lng": 120.6850188
    },
    {
      "name": "安安你好",
      "description": "",
      "area": "草屯鎮",
      "rating": 5,
      "reviews": 155,
      "categories": [
        "中式"
      ],
      "category": "中式",
      "tags": [],
      "_sort": 3,
      "dishes": [],
      "lat": 23.9735748,
      "lng": 120.6839863
    },
    {
      "name": "尚齋善哉-素食坊",
      "description": "素食餐廳，提供健康蔬食料理。",
      "area": "竹山鎮",
      "rating": 5,
      "reviews": 126,
      "categories": [
        "素食"
      ],
      "tags": [],
      "category": "素食",
      "_sort": 3,
      "dishes": [],
      "lat": 23.774577,
      "lng": 120.707662
    },
    {
      "name": "光地蔬食 Grounding Vegan",
      "description": "素食餐廳，提供健康蔬食料理。",
      "area": "集集鎮",
      "rating": 5,
      "reviews": 163,
      "categories": [
        "素食"
      ],
      "tags": [],
      "category": "素食",
      "_sort": 3,
      "dishes": [],
      "lat": 23.8278404,
      "lng": 120.7923245
    },
    {
      "name": "溪頭元禾館蔬食園區",
      "description": "素食餐廳，提供健康蔬食料理。",
      "area": "鹿谷鄉",
      "rating": 5,
      "reviews": 7,
      "categories": [
        "素食"
      ],
      "tags": [],
      "category": "素食",
      "_sort": 3,
      "dishes": [],
      "lat": 23.7289033,
      "lng": 120.7741279
    },
    {
      "name": "幸福純素vegan",
      "description": "素食餐廳，提供健康蔬食料理。",
      "area": "名間鄉",
      "rating": 5,
      "reviews": 4,
      "categories": [
        "素食"
      ],
      "tags": [],
      "category": "素食",
      "_sort": 3,
      "dishes": [],
      "lat": 23.901638,
      "lng": 120.69216
    },
    {
      "name": "秝米歇歇亭",
      "description": "甜品專賣店，消暑好選擇",
      "area": "仁愛鄉",
      "rating": 5,
      "reviews": 852,
      "address": "546台灣南投縣仁愛鄉南豐村中正路88-3號",
      "categories": [
        "甜品"
      ],
      "category": "甜品",
      "tags": [],
      "_sort": 3,
      "dishes": [],
      "lat": 24.0019382,
      "lng": 121.0842936
    },
    {
      "name": "五山三水莊園｜南投水里包棟民宿（寵物友善、親子、電動車充電）",
      "description": "早午餐餐廳，活力一天的開始",
      "area": "水里鄉",
      "rating": 5,
      "reviews": 3537,
      "address": "553台灣南投縣水里鄉新城村金龍路198號",
      "categories": [
        "中式"
      ],
      "category": "中式",
      "tags": [],
      "_sort": 3,
      "dishes": [],
      "lat": 23.8206488,
      "lng": 120.8464461
    },
    {
      "name": "牛",
      "description": "招牌牛肉料理，鮮嫩美味，讓人一口接一口停不下來。",
      "area": "草屯鎮",
      "rating": 4.9,
      "reviews": 372,
      "categories": [
        "中式"
      ],
      "tags": [],
      "category": "中式",
      "_sort": 3,
      "dishes": [],
      "lat": 23.9609981,
      "lng": 120.9718638
    },
    {
      "name": "漫。島 ChillBar",
      "description": "超人氣咖啡喫茶店, 提供舒適的氛圍與精緻的咖啡選擇。",
      "area": "埔里鎮",
      "rating": 4.9,
      "reviews": 418,
      "categories": [
        "咖啡廳"
      ],
      "category": "咖啡廳",
      "tags": [],
      "_sort": 3,
      "dishes": [],
      "lat": 23.9644981,
      "lng": 120.965136
    },
    {
      "name": "BUBU ART CAFE 橘子布藝術咖啡 草屯店",
      "description": "",
      "area": "草屯鎮",
      "rating": 4.9,
      "reviews": 319,
      "categories": [
        "咖啡廳"
      ],
      "category": "咖啡廳",
      "tags": [],
      "_sort": 3,
      "dishes": [],
      "lat": 23.9742792,
      "lng": 120.6859543
    },
    {
      "name": "大人物牛排 King's Table",
      "description": "招牌牛排鮮嫩多汁，令人驚豔的用餐體驗。",
      "area": "埔里鎮",
      "rating": 4.9,
      "reviews": 1782,
      "categories": [
        "西式"
      ],
      "category": "西式",
      "tags": [],
      "_sort": 3,
      "dishes": [],
      "lat": 23.9712339,
      "lng": 120.9576058
    },
    {
      "name": "Coffee Reflections OLD 工作室（Reservation 預約制）",
      "description": "LD，專業咖啡館提供優質咖啡，讓您享受慢活時光。",
      "area": "埔里鎮",
      "rating": 4.9,
      "reviews": 277,
      "categories": [
        "咖啡廳"
      ],
      "category": "咖啡廳",
      "tags": [],
      "_sort": 3,
      "dishes": [],
      "lat": 23.9707138,
      "lng": 120.9746833
    },
    {
      "name": "南投竹山紫南宮美食-轉角黃金蜜地瓜",
      "description": "甜美的蜜地瓜獲得食客喜愛。",
      "area": "竹山鎮",
      "rating": 4.9,
      "reviews": 3651,
      "categories": [
        "中式"
      ],
      "category": "中式",
      "tags": [],
      "_sort": 3,
      "dishes": [],
      "lat": 23.8166529,
      "lng": 120.7212224
    },
    {
      "name": "養鍋 Yang Guo 石頭涮涮鍋 (南投南陽店)",
      "description": "",
      "area": "",
      "rating": 4.9,
      "reviews": 1231,
      "categories": [
        "火鍋"
      ],
      "category": "火鍋",
      "tags": [],
      "_sort": 3,
      "dishes": [],
      "lat": 23.9077472,
      "lng": 120.6899462
    },
    {
      "name": "花柚子日式餐館 | 咖哩 | 壽司 | 定食 | 拉麵 | 生魚片 | 健康餐 | 親子餐廳--南投旗艦店",
      "description": "",
      "area": "",
      "rating": 4.9,
      "reviews": 2301,
      "categories": [
        "日式"
      ],
      "category": "日式",
      "tags": [],
      "_sort": 3,
      "dishes": [],
      "lat": 23.9047179,
      "lng": 120.6868629
    },
    {
      "name": "魚池街仔尾古早味麵店",
      "description": "",
      "area": "魚池鄉",
      "rating": 4.9,
      "reviews": 151,
      "categories": [
        "中式"
      ],
      "tags": [],
      "category": "中式",
      "_sort": 3,
      "dishes": [
        {
          "name": "古早味乾麵",
          "description": "傳統手工麵條搭配古早味醬料，是在地人早餐首選"
        },
        {
          "name": "大塊豆腐湯",
          "description": "巨無霸大塊豆腐湯，份量十足非常有特色"
        },
        {
          "name": "筒仔米糕",
          "description": "魚池在地人必吃的傳統早餐米糕"
        }
      ],
      "lat": 23.8964992,
      "lng": 120.9381891
    },
    {
      "name": "竹山紫南宮鹹酥菇",
      "description": "周邊人氣小吃，現炸鹹酥菇酥脆好吃",
      "area": "",
      "rating": 4.9,
      "reviews": 3651,
      "categories": [
        "中式"
      ],
      "category": "中式",
      "tags": [],
      "_sort": 3,
      "dishes": [],
      "lat": 23.8170737,
      "lng": 120.7225649
    },
    {
      "name": "天利食堂南投草屯店",
      "description": "",
      "area": "草屯鎮",
      "rating": 4.9,
      "reviews": 9342,
      "categories": [
        "中式"
      ],
      "category": "中式",
      "tags": [],
      "_sort": 3,
      "dishes": [],
      "lat": 23.9786871,
      "lng": 120.6880796
    },
    {
      "name": "花園小鎮親子餐廳/若逢停車廣場舉辦活動需另行停車請來電洽詢/竹山必吃美食",
      "description": "適合家庭聚餐的美食場所，菜品新鮮，評價極高。",
      "area": "竹山鎮",
      "rating": 4.9,
      "reviews": 929,
      "categories": [
        "中式"
      ],
      "category": "中式",
      "tags": [],
      "_sort": 3,
      "dishes": [],
      "lat": 23.7561481,
      "lng": 120.6845159
    },
    {
      "name": "小巷町麵屋",
      "description": "招牌麵食選擇多樣，令人驚艷的口感，值得一試。",
      "area": "竹山鎮",
      "rating": 4.9,
      "reviews": 730,
      "categories": [
        "中式"
      ],
      "category": "中式",
      "tags": [],
      "_sort": 3,
      "dishes": [],
      "lat": 23.7608968,
      "lng": 120.6780637
    },
    {
      "name": "雕之森鐵板燒餐廳",
      "description": "超人氣鐵板燒, 每道料理都是主廚精心烹製的美味。",
      "area": "埔里鎮",
      "rating": 4.9,
      "reviews": 338,
      "categories": [
        "中式"
      ],
      "category": "中式",
      "tags": [],
      "_sort": 3,
      "dishes": [],
      "lat": 23.9650106,
      "lng": 120.9412213
    },
    {
      "name": "蜀都串香火鍋（南投店）～最晚收客21:30",
      "description": "",
      "area": "",
      "rating": 4.9,
      "reviews": 412,
      "categories": [
        "火鍋"
      ],
      "category": "火鍋",
      "tags": [],
      "_sort": 3,
      "dishes": [],
      "lat": 23.9448984,
      "lng": 120.6948701
    },
    {
      "name": "火鍋世家草屯尊爵店",
      "description": "豪華火鍋享受，讓人品味不凡的美食。",
      "area": "草屯鎮",
      "rating": 4.9,
      "reviews": 2423,
      "categories": [
        "火鍋"
      ],
      "category": "火鍋",
      "tags": [],
      "_sort": 3,
      "dishes": [],
      "lat": 23.9618661,
      "lng": 120.681852
    },
    {
      "name": "JULU Cafe（鉅鹿咖啡館 ）精品咖啡專賣店 不接受訂位",
      "description": "精品咖啡專賣店，讓咖啡愛好者享受精緻的咖啡體驗。",
      "area": "埔里鎮",
      "rating": 4.9,
      "reviews": 596,
      "categories": [
        "咖啡廳"
      ],
      "tags": [],
      "category": "咖啡廳",
      "_sort": 3,
      "dishes": [],
      "lat": 23.9647,
      "lng": 120.9685803
    },
    {
      "name": "吾庶 usu cafe (沒有電話沒有洗手間/無法接待6位以上/訂位請私訊ig 或fb/最後點餐時間14:30、售完提早打烊)",
      "description": "吾庶usu cafe，人氣咖啡喫茶，提供私密的用餐環境，適合小型聚會。",
      "area": "埔里鎮",
      "rating": 4.9,
      "reviews": 420,
      "categories": [
        "咖啡廳"
      ],
      "category": "咖啡廳",
      "tags": [],
      "_sort": 3,
      "dishes": [],
      "lat": 23.9651122,
      "lng": 120.965165
    },
    {
      "name": "卜森料理站（一捆丼飯）",
      "description": "招牌丼飯口味豐富，讓每一口都充滿驚喜。",
      "area": "埔里鎮",
      "rating": 4.9,
      "reviews": 470,
      "categories": [
        "日式"
      ],
      "category": "日式",
      "tags": [],
      "_sort": 3,
      "dishes": [],
      "lat": 23.9726938,
      "lng": 120.9632549
    },
    {
      "name": "沐森咖啡麵包店",
      "description": "精緻的咖啡與新鮮出爐的麵包，讓你享受悠閒時光。",
      "area": "中寮鄉",
      "rating": 4.9,
      "reviews": 309,
      "categories": [
        "咖啡廳"
      ],
      "category": "咖啡廳",
      "tags": [],
      "_sort": 3,
      "dishes": [],
      "lat": 23.8970288,
      "lng": 120.7106763
    },
    {
      "name": "Whalo52Hz",
      "description": "",
      "area": "",
      "rating": 4.9,
      "reviews": 390,
      "categories": [
        "中式"
      ],
      "category": "中式",
      "tags": [],
      "_sort": 3,
      "dishes": [],
      "lat": 23.9460479,
      "lng": 120.6907715
    },
    {
      "name": "樂冰小屋雪花冰專賣店",
      "description": "超人氣雪花冰，清涼消暑的最佳選擇。",
      "area": "",
      "rating": 4.9,
      "reviews": 2277,
      "categories": [
        "中式"
      ],
      "category": "中式",
      "tags": [],
      "_sort": 3,
      "dishes": [],
      "lat": 23.9426486,
      "lng": 120.6930916
    },
    {
      "name": "QQ田甜品工坊-埔里南安店",
      "description": "人氣甜品工坊，提供多樣美味冰品，讓人回味無窮。",
      "area": "埔里鎮",
      "rating": 4.9,
      "reviews": 428,
      "categories": [
        "甜品"
      ],
      "category": "甜品",
      "tags": [],
      "_sort": 3,
      "dishes": [],
      "lat": 23.9601994,
      "lng": 120.9623224
    },
    {
      "name": "守匠日式甜點專賣",
      "description": "提供精緻日式甜點，口感細膩，讓甜品愛好者愛不釋口。",
      "area": "埔里鎮",
      "rating": 4.9,
      "reviews": 416,
      "categories": [
        "甜品"
      ],
      "category": "甜品",
      "tags": [],
      "_sort": 3,
      "dishes": [],
      "lat": 23.9576041,
      "lng": 120.9749654
    },
    {
      "name": "天子舒芙蕾 埔里酒廠門市",
      "description": "超人氣舒芙蕾，輕盈綿密，成為許多甜點控的首選。",
      "area": "埔里鎮",
      "rating": 4.9,
      "reviews": 3554,
      "categories": [
        "甜品"
      ],
      "category": "甜品",
      "tags": [],
      "_sort": 3,
      "dishes": [],
      "lat": 23.9690906,
      "lng": 120.959712
    },
    {
      "name": "水母吃乳酪 南投清境店｜埔里乳酪蛋糕",
      "description": "",
      "area": "埔里鎮",
      "rating": 4.9,
      "reviews": 1691,
      "categories": [
        "甜品"
      ],
      "category": "甜品",
      "tags": [],
      "_sort": 3,
      "dishes": [],
      "lat": 23.9808736,
      "lng": 121.0122735
    },
    {
      "name": "廟囗冰果室",
      "description": "超人氣甜品，清涼冰品選擇多樣，適合炎熱夏日享用。",
      "area": "埔里鎮",
      "rating": 4.9,
      "reviews": 331,
      "categories": [
        "甜品"
      ],
      "category": "甜品",
      "tags": [],
      "_sort": 3,
      "dishes": [],
      "lat": 23.9594463,
      "lng": 120.9643344
    },
    {
      "name": "豬對有韓式烤肉吃到飽(草屯店)",
      "description": "超人氣韓式烤肉，讓食客盡情享受美味燒肉盛宴。",
      "area": "草屯鎮",
      "rating": 4.9,
      "reviews": 7968,
      "categories": [
        "西式"
      ],
      "category": "西式",
      "tags": [],
      "_sort": 3,
      "dishes": [],
      "lat": 23.9694154,
      "lng": 120.6869204
    },
    {
      "name": "愛燒烤",
      "description": "精選新鮮食材的燒烤，讓味蕾享受，人氣美食場所。",
      "area": "埔里鎮",
      "rating": 4.9,
      "reviews": 201,
      "categories": [
        "中式"
      ],
      "category": "中式",
      "tags": [],
      "_sort": 3,
      "dishes": [],
      "lat": 23.971392,
      "lng": 120.9691501
    },
    {
      "name": "一桌好食한상",
      "description": "精緻的台菜搭配，讓人品味到家的溫暖與美好。",
      "area": "埔里鎮",
      "rating": 4.9,
      "reviews": 629,
      "categories": [
        "中式"
      ],
      "category": "中式",
      "tags": [],
      "_sort": 3,
      "dishes": [],
      "lat": 23.9427569,
      "lng": 120.9290507
    },
    {
      "name": "不一樣の平價牛排#牛排夏季限定#冬季薑母鴨（酒廠對面）",
      "description": "夏季限定菜品，提供多樣化選擇，讓人驚喜連連。",
      "area": "埔里鎮",
      "rating": 4.9,
      "reviews": 253,
      "categories": [
        "西式"
      ],
      "category": "西式",
      "tags": [],
      "_sort": 3,
      "dishes": [],
      "lat": 23.9676595,
      "lng": 120.9610563
    },
    {
      "name": "(南投館)eyeslee貓羅小派對｜抓周派對｜南投抓周一條龍｜南投抓周",
      "description": "",
      "area": "",
      "rating": 4.9,
      "reviews": 874,
      "categories": [
        "中式"
      ],
      "category": "中式",
      "tags": [],
      "_sort": 3,
      "dishes": [],
      "lat": 23.9013383,
      "lng": 120.687436
    },
    {
      "name": "131多肉花園餐廳",
      "description": "超人氣餐廳，菜色新鮮多樣，讓人一試成主顧。",
      "area": "魚池鄉",
      "rating": 4.9,
      "reviews": 10816,
      "categories": [
        "中式"
      ],
      "category": "中式",
      "tags": [],
      "_sort": 3,
      "dishes": [
        "糖醋排骨",
        "蔥香米苔目",
        "甕仔雞",
        "鱘龍魚",
        "時蔬湯"
      ],
      "lat": 23.903791,
      "lng": 120.9280996
    },
    {
      "name": "龍霸鹹水雞 埔里店 南投埔里在地美食",
      "description": "超人氣鹹水雞，肉質鮮嫩，讓人一口接一口。",
      "area": "埔里鎮",
      "rating": 4.9,
      "reviews": 296,
      "categories": [
        "中式"
      ],
      "category": "中式",
      "tags": [],
      "_sort": 3,
      "dishes": [],
      "lat": 23.9651639,
      "lng": 120.9727228
    },
    {
      "name": "一根麵線 草屯美食炒飯（無內用）",
      "description": "招牌炒飯口感絕佳，深受食客喜愛。",
      "area": "草屯鎮",
      "rating": 4.9,
      "reviews": 174,
      "categories": [
        "中式"
      ],
      "category": "中式",
      "tags": [],
      "_sort": 3,
      "dishes": [],
      "lat": 23.9785742,
      "lng": 120.6807905
    },
    {
      "name": "軟蛋醬 蛋包飯專門製作所 南投草屯店",
      "description": "招牌蛋包飯，口感滑順，人氣美食之一。",
      "area": "草屯鎮",
      "rating": 4.9,
      "reviews": 1044,
      "categories": [
        "中式"
      ],
      "category": "中式",
      "tags": [],
      "_sort": 3,
      "dishes": [],
      "lat": 23.9747976,
      "lng": 120.6827887
    },
    {
      "name": "Bùdié 柨蝶歐法料理",
      "description": "",
      "area": "集集鎮",
      "rating": 4.9,
      "reviews": 337,
      "categories": [
        "中式"
      ],
      "category": "中式",
      "tags": [],
      "_sort": 3,
      "dishes": [],
      "lat": 23.8280942,
      "lng": 120.797651
    },
    {
      "name": "悦素人南洋蔬食",
      "description": "素食餐廳，提供健康蔬食料理。",
      "area": "南投市",
      "rating": 4.9,
      "reviews": 715,
      "categories": [
        "素食"
      ],
      "tags": [],
      "category": "素食",
      "_sort": 3,
      "dishes": [],
      "lat": 23.97652,
      "lng": 120.68668
    },
    {
      "name": "老山羊素食",
      "description": "素食餐廳，提供健康蔬食料理。",
      "area": "南投市",
      "rating": 4.9,
      "reviews": 121,
      "categories": [
        "素食"
      ],
      "tags": [],
      "category": "素食",
      "_sort": 3,
      "dishes": [
        {
          "name": "福州乾麵",
          "description": "麵條非常Q彈可口，無蛋奶純素食的經典麵食"
        },
        {
          "name": "大補湯",
          "description": "特色商品，不同於坊間十全大補湯，多了豆皮海帶等食材"
        },
        {
          "name": "手工水餃",
          "description": "無蛋奶純素水餃，1人份小包裝10粒35元，冰箱常備方便煮"
        }
      ],
      "lat": 23.953937,
      "lng": 120.6898044
    },
    {
      "name": "如意蔬食",
      "description": "素食餐廳，提供健康蔬食料理。",
      "area": "埔里鎮",
      "rating": 4.9,
      "reviews": 33,
      "categories": [
        "素食"
      ],
      "tags": [],
      "category": "素食",
      "_sort": 3,
      "dishes": [],
      "lat": 23.9715627,
      "lng": 120.9666918
    },
    {
      "name": "原蒸享臭素食/河堤這一間",
      "description": "素食餐廳，提供健康蔬食料理。",
      "area": "埔里鎮",
      "rating": 4.9,
      "reviews": 66,
      "categories": [
        "素食"
      ],
      "tags": [],
      "category": "素食",
      "_sort": 3,
      "dishes": [],
      "lat": 23.9577909,
      "lng": 120.9671821
    },
    {
      "name": "阿深越南素食",
      "description": "素食餐廳，提供健康蔬食料理。",
      "area": "埔里鎮",
      "rating": 4.9,
      "reviews": 11,
      "categories": [
        "素食"
      ],
      "tags": [],
      "category": "素食",
      "_sort": 3,
      "dishes": [
        {
          "name": "越式河粉",
          "description": "以新鮮蔬菜慢燉的甜湯底，搭配素肉片、九層塔和萊姆，清甜爽口"
        },
        {
          "name": "越南法國麵包",
          "description": "外皮酥脆的法棍，夾入醃蘿蔔、小黃瓜、九層塔和素肉，風味豐富"
        },
        {
          "name": "炸春捲",
          "description": "內餡包入香菇和冬粉，炸至金黃酥脆，搭配特製素魚醬"
        }
      ],
      "lat": 23.9673237,
      "lng": 120.9624955
    },
    {
      "name": "菩耘蔬食餐廳",
      "description": "素食餐廳，提供健康蔬食料理。",
      "area": "埔里鎮",
      "rating": 4.9,
      "reviews": 16,
      "categories": [
        "素食"
      ],
      "tags": [],
      "category": "素食",
      "_sort": 3,
      "dishes": [
        {
          "name": "蔬菜炊飯",
          "description": "以簡單食材炊煮，風味獲好評的蔬菜炊飯，米粒吸滿蔬菜鮮甜"
        },
        {
          "name": "蔬菜蛋三明治",
          "description": "新鮮蔬菜搭配蛋的清爽三明治，健康美味"
        },
        {
          "name": "蔬菜濃湯",
          "description": "以多種蔬菜熬製的濃湯，口感滑順營養滿分"
        }
      ],
      "lat": 23.9694951,
      "lng": 120.9769573
    },
    {
      "name": "竹山一心素食材料行/素料批發零售/堅果乾貨/網路熱銷素食產品/年菜",
      "description": "素食餐廳，提供健康蔬食料理。",
      "area": "竹山鎮",
      "rating": 4.9,
      "reviews": 9,
      "categories": [
        "素食"
      ],
      "tags": [],
      "category": "素食",
      "_sort": 3,
      "dishes": [],
      "lat": 23.75718,
      "lng": 120.6800699
    },
    {
      "name": "福心 蔬食野菜料理（家中有事 暫無期限公休、恢復營業會另外告知）",
      "description": "素食餐廳，提供健康蔬食料理。",
      "area": "鹿谷鄉",
      "rating": 4.9,
      "reviews": 400,
      "categories": [
        "素食"
      ],
      "tags": [],
      "category": "素食",
      "_sort": 3,
      "dishes": [],
      "lat": 23.7288767,
      "lng": 120.7749357
    },
    {
      "name": "國姓佛心有機素食菜一中興路183號",
      "description": "素食餐廳，提供健康蔬食料理。",
      "area": "國姓鄉",
      "rating": 4.9,
      "reviews": 10,
      "categories": [
        "素食"
      ],
      "tags": [],
      "category": "素食",
      "_sort": 3,
      "dishes": [],
      "lat": 24.0400524,
      "lng": 120.8557489
    },
    {
      "name": "小川好食無麩質蔬食料理",
      "description": "素食餐廳，提供健康蔬食料理。",
      "area": "埔里鎮",
      "rating": 4.9,
      "reviews": 13,
      "categories": [
        "素食"
      ],
      "tags": [],
      "category": "素食",
      "_sort": 3,
      "dishes": [],
      "lat": 23.9783821,
      "lng": 120.9937431
    },
    {
      "name": "鳳琴蔬食小點",
      "description": "素食餐廳，提供健康蔬食料理。",
      "area": "埔里鎮",
      "rating": 4.9,
      "reviews": 19,
      "categories": [
        "素食"
      ],
      "tags": [],
      "category": "素食",
      "_sort": 3,
      "dishes": [],
      "lat": 23.9710213,
      "lng": 120.965304
    },
    {
      "name": "溪頭九號森林食堂｜咖啡｜簡餐｜小火鍋｜便當｜美食餐廳",
      "description": "咖啡廳，適合放鬆休憩",
      "area": "鹿谷鄉",
      "rating": 4.9,
      "reviews": 631,
      "address": "558台灣南投縣鹿谷鄉內湖村森林巷9號",
      "categories": [
        "中式"
      ],
      "category": "中式",
      "tags": [],
      "_sort": 3,
      "dishes": [],
      "lat": 23.6729532,
      "lng": 120.796912
    },
    {
      "name": "斯娜堡景觀餐廳",
      "description": "中式餐廳，在地美味",
      "area": "仁愛鄉",
      "rating": 4.9,
      "reviews": 1915,
      "address": "546台灣南投縣仁愛鄉大同村信義巷41號",
      "categories": [
        "中式"
      ],
      "category": "中式",
      "tags": [],
      "_sort": 3,
      "dishes": [],
      "lat": 24.0328631,
      "lng": 121.1524988
    },
    {
      "name": "樸樂咖啡_南投南陽店｜南投美食｜親子友善｜烏龍麵｜丼飯｜義大利麵｜燉飯｜盤餐｜早午晚餐-南投必吃義大利麵|義式燉飯|焗烤推薦|人氣早午餐|炸物拼盤|輕食沙拉餐|必吃早午餐|熱門早午餐",
      "description": "人氣早午餐及義大利麵，適合親子共享的美味時光。",
      "area": "南投市",
      "rating": 4.8,
      "reviews": 409,
      "categories": [
        "咖啡廳"
      ],
      "category": "咖啡廳",
      "tags": [],
      "_sort": 3,
      "dishes": [],
      "lat": 23.9134427,
      "lng": 120.6836896
    },
    {
      "name": "暖宅煮意/restaurants/草屯火鍋/溫馨舒適的餐廳/南投美食/附近美食/吃的",
      "description": "溫馨火鍋餐廳，舒適環境與美味湯底，人氣選擇，讓人倍感放鬆。",
      "area": "草屯鎮",
      "rating": 4.8,
      "reviews": 520,
      "categories": [
        "火鍋"
      ],
      "category": "火鍋",
      "tags": [],
      "_sort": 3,
      "dishes": [
        {
          "name": "扁魚汕頭湯底",
          "description": "店內的招牌湯頭，以扁魚等多種食材慢火熬製，口感清甜、鮮味十足。"
        },
        {
          "name": "深海紅條魚雙人套餐",
          "description": "主打新鮮肥美的深海紅條魚，肉質細嫩Ｑ彈、富有膠質，極受海鮮愛好者推崇。"
        },
        {
          "name": "頂級海陸套餐",
          "description": "結合豐富海鮮（如大蝦、干貝、蛤蜊等）與特選優質肉品，擺盤澎湃，是聚餐的熱門選擇。"
        }
      ],
      "lat": 23.9765354,
      "lng": 120.6995201
    },
    {
      "name": "众鍋火鍋 JUNG HOT POT",
      "description": "",
      "area": "",
      "rating": 4.8,
      "reviews": 829,
      "categories": [
        "火鍋"
      ],
      "category": "火鍋",
      "tags": [],
      "_sort": 3,
      "dishes": [],
      "lat": 23.9032023,
      "lng": 120.6876184
    },
    {
      "name": "先得月 Tea lounge",
      "description": "茶飲獨具匠心, 超人氣的茶館。",
      "area": "魚池鄉",
      "rating": 4.8,
      "reviews": 5572,
      "categories": [
        "咖啡廳"
      ],
      "category": "咖啡廳",
      "tags": [],
      "_sort": 3,
      "dishes": [],
      "lat": 23.8698971,
      "lng": 120.9265314
    },
    {
      "name": "犒腰牛排 COW YOW STEAK",
      "description": "招牌牛排口感極佳，人氣餐廳，讓你一試成主顧。",
      "area": "草屯鎮",
      "rating": 4.8,
      "reviews": 315,
      "categories": [
        "西式"
      ],
      "category": "西式",
      "tags": [],
      "_sort": 3,
      "dishes": [],
      "lat": 23.9740008,
      "lng": 120.6798993
    },
    {
      "name": "Running Steak 朗寧牛排",
      "description": "",
      "area": "埔里鎮",
      "rating": 4.8,
      "reviews": 4138,
      "categories": [
        "西式"
      ],
      "category": "西式",
      "tags": [],
      "_sort": 3,
      "dishes": [],
      "lat": 23.9567647,
      "lng": 120.9749262
    },
    {
      "name": "製飯糰 Riceball",
      "description": "招牌飯糰口感絕佳，深受食客喜愛。",
      "area": "埔里鎮",
      "rating": 4.8,
      "reviews": 1192,
      "categories": [
        "中式"
      ],
      "category": "中式",
      "tags": [],
      "_sort": 3,
      "dishes": [],
      "lat": 23.9607957,
      "lng": 120.9681987
    },
    {
      "name": "米蟲cafe’；米蟲咖啡丨Alazyday cafe’ 丨最後點餐時間18:30丨義大利麵丨燉飯丨咖喱飯丨手工冰淇淋丨手沖咖啡丨下午茶丨鬆餅丨厚片丨素食丨外帶咖啡丨寵物友善丨假日無訂位服務丨週一公休丨水里美食丨客家幣合作店家",
      "description": "素食餐廳，提供健康蔬食料理。",
      "area": "水里鄉",
      "rating": 4.8,
      "reviews": 295,
      "categories": [
        "甜品"
      ],
      "tags": [],
      "category": "甜品",
      "_sort": 3,
      "dishes": [
        {
          "name": "厚切豬排丼飯",
          "description": "酥脆厚切豬排搭配白飯，份量十足的招牌主食"
        },
        {
          "name": "日式咖哩飯",
          "description": "濃郁日式咖哩搭配豬排，溫暖的 comfort food"
        },
        {
          "name": "草莓冰淇淋鬆餅",
          "description": "鬆軟鬆餅搭配冰淇淋，季節限定的人氣甜點"
        }
      ]
    },
    {
      "name": "集集古早味香蕉冰",
      "description": "",
      "area": "",
      "rating": 4.8,
      "reviews": 635,
      "categories": [
        "甜品"
      ],
      "tags": [],
      "category": "甜品",
      "_sort": 3,
      "dishes": [
        {
          "name": "古早味香蕉冰",
          "description": "招牌古早味香蕉冰，香甜綿密，懷舊風味"
        },
        {
          "name": "香蕉冰品",
          "description": "多種香蕉口味冰品，使用集集在地香蕉，天然香甜"
        },
        {
          "name": "紅豆牛奶冰",
          "description": "紅豆搭配牛奶冰品，甜而不膩，消暑首選"
        }
      ],
      "lat": 23.8279876,
      "lng": 120.7925043
    },
    {
      "name": "找窯子披薩",
      "description": "集集車站旁柴燒窯烤披薩手工餅皮搭配在地食材集集特色美食",
      "area": "",
      "rating": 4.8,
      "reviews": 278,
      "categories": [
        "異國"
      ],
      "category": "異國",
      "tags": [],
      "_sort": 3,
      "dishes": [
        {
          "name": "双腸搗蛋",
          "description": "雙腸配料的手工薄皮披薩，網友推薦人氣品項"
        },
        {
          "name": "福露特部隊",
          "description": "綜合水果口味披薩，手工揉製餅皮新鮮食材"
        },
        {
          "name": "波音ㄐㄧ是雞",
          "description": "雞肉口味手工披薩，200元有找的高CP值選擇"
        }
      ],
      "lat": 23.8258302,
      "lng": 120.7926004
    },
    {
      "name": "田園小轆",
      "description": "特色台菜以自然食材為基底，令人垂涎的美味。",
      "area": "南投市",
      "rating": 4.8,
      "reviews": 257,
      "categories": [
        "中式"
      ],
      "category": "中式",
      "tags": [],
      "_sort": 3,
      "dishes": [
        {
          "name": "台式熱炒",
          "description": "南投在地的台式熱炒料理，大火快炒鑊氣十足"
        },
        {
          "name": "客家小炒",
          "description": "傳統客家風味小炒，豆干肉絲魷魚經典組合"
        },
        {
          "name": "時令蔬菜",
          "description": "南投在地新鮮蔬菜，簡單調味吃出原味"
        }
      ],
      "lat": 23.9418607,
      "lng": 120.7008224
    },
    {
      "name": "象廚工房",
      "description": "",
      "area": "南投市",
      "rating": 4.8,
      "reviews": 285,
      "categories": [
        "中式"
      ],
      "category": "中式",
      "tags": [],
      "_sort": 3,
      "dishes": [
        {
          "name": "義大利麵",
          "description": "重工業風餐廳的招牌義大利麵，份量十足平價美味"
        },
        {
          "name": "燉飯",
          "description": "多種口味燉飯，南投市區的工業風義式料理"
        },
        {
          "name": "排餐",
          "description": "搭配義式醬料的排餐，10個座位的精緻小店"
        }
      ],
      "lat": 23.9053542,
      "lng": 120.6904416
    },
    {
      "name": "三月半咖啡",
      "description": "香醇咖啡與甜點的完美結合，超人氣館，悠閒氛圍令人放鬆。",
      "area": "草屯鎮",
      "rating": 4.8,
      "reviews": 4579,
      "categories": [
        "咖啡廳"
      ],
      "category": "咖啡廳",
      "tags": [],
      "_sort": 3,
      "dishes": [],
      "lat": 23.976512,
      "lng": 120.6863443
    },
    {
      "name": "花旬 HANASHUN【僅接待7歲以上｜豬排｜咖哩｜日式定食｜草屯美食｜中興新村｜甜點｜巴斯克｜布丁｜提拉米蘇】",
      "description": "專注於日式豬排和精緻甜點，人氣美食，適合成人享受悠閒時光。",
      "area": "草屯鎮",
      "rating": 4.8,
      "reviews": 803,
      "categories": [
        "日式"
      ],
      "category": "日式",
      "tags": [],
      "_sort": 3,
      "dishes": [],
      "lat": 23.955234,
      "lng": 120.687352
    },
    {
      "name": "鮨島日式料理",
      "description": "精緻壽司和日式料理，人氣餐廳，美味讓人心動不已。",
      "area": "草屯鎮",
      "rating": 4.8,
      "reviews": 1055,
      "categories": [
        "日式"
      ],
      "category": "日式",
      "tags": [],
      "_sort": 3,
      "dishes": [],
      "lat": 23.9761941,
      "lng": 120.6878414
    },
    {
      "name": "洄食堂日本料理｜刺身｜燒鳥｜酒（餐點需要時間等候，若食材提前售完會提前休息，建議先來電詢問）",
      "description": "刺身和燒鳥的極致享受，人氣選擇，讓人期待每一次的用餐。",
      "area": "草屯鎮",
      "rating": 4.8,
      "reviews": 503,
      "categories": [
        "日式"
      ],
      "category": "日式",
      "tags": [],
      "_sort": 3,
      "dishes": [
        {
          "name": "洄味招牌丼",
          "description": "滿載鮭魚肚、紅甘肚、干貝、鮮蝦、魷魚及蟹膏等的超豪華生魚片丼飯，食材鮮美，CP值極高。"
        },
        {
          "name": "黑松露干貝茶碗蒸",
          "description": "融入濃郁松露香氣，蛋香綿密，內含魚肉與干貝，用料扎實。"
        },
        {
          "name": "烤雞肉夾蔥",
          "description": "外皮烤得酥脆香濃的雞肉串，包夾著鮮甜蔥白，多汁又美味。"
        }
      ],
      "lat": 23.9933816,
      "lng": 120.7234992
    },
    {
      "name": "蝶舞花間",
      "description": "提供創意中式菜品，口感細膩，獲得高度評價。",
      "area": "竹山鎮",
      "rating": 4.8,
      "reviews": 236,
      "categories": [
        "中式"
      ],
      "category": "中式",
      "tags": [],
      "_sort": 3,
      "dishes": [
        {
          "name": "無菜單創意料理",
          "description": "留法主廚以在地有機蔬果製作的無菜單料理，需預約"
        },
        {
          "name": "花草下午茶",
          "description": "精緻的下午茶點心，在合掌玻璃屋中享用，浪漫氛圍"
        },
        {
          "name": "在地友善蔬果餐",
          "description": "使用竹山在地小農有機蔬果，順應自然的友善農法食材"
        }
      ],
      "lat": 23.7198358,
      "lng": 120.6899255
    },
    {
      "name": "蜂巢窯烤披薩",
      "description": "專注於窯烤技術，外脆內軟的披薩讓人欲罷不能。",
      "area": "竹山鎮",
      "rating": 4.8,
      "reviews": 1598,
      "categories": [
        "義式"
      ],
      "category": "義式",
      "tags": [],
      "_sort": 3,
      "dishes": [],
      "lat": 23.8069183,
      "lng": 120.7168682
    },
    {
      "name": "阿海窯烤雞紫南宮店（甕缸雞 甕仔雞）",
      "description": "",
      "area": "竹山鎮",
      "rating": 4.8,
      "reviews": 2081,
      "categories": [
        "中式"
      ],
      "category": "中式",
      "tags": [],
      "_sort": 3,
      "dishes": [],
      "lat": 23.8066692,
      "lng": 120.7169303
    },
    {
      "name": "埔里雋荖廚房（至少十日前訂位）",
      "description": "",
      "area": "埔里鎮",
      "rating": 4.8,
      "reviews": 357,
      "categories": [
        "中式"
      ],
      "category": "中式",
      "tags": [],
      "_sort": 3,
      "dishes": [],
      "lat": 23.9600648,
      "lng": 120.977247
    },
    {
      "name": "有麵子麵館-南投埔里美食",
      "description": "南投埔里人氣麵食，口感滑順，令人一試成主顧。",
      "area": "埔里鎮",
      "rating": 4.8,
      "reviews": 1073,
      "categories": [
        "中式"
      ],
      "category": "中式",
      "tags": [],
      "_sort": 3,
      "dishes": [],
      "lat": 23.9705258,
      "lng": 120.9679668
    },
    {
      "name": "韓泰泰餐坊",
      "description": "",
      "area": "埔里鎮",
      "rating": 4.8,
      "reviews": 1577,
      "categories": [
        "異國"
      ],
      "category": "異國",
      "tags": [],
      "_sort": 3,
      "dishes": [],
      "lat": 23.9707508,
      "lng": 120.9676618
    },
    {
      "name": "福澤亭日式料理屋",
      "description": "精緻日式料理, 環境優雅，讓人享受美食與放鬆的時光。",
      "area": "埔里鎮",
      "rating": 4.8,
      "reviews": 480,
      "categories": [
        "日式"
      ],
      "category": "日式",
      "tags": [],
      "_sort": 3,
      "dishes": [],
      "lat": 23.9801009,
      "lng": 120.9711853
    },
    {
      "name": "初煦咖哩 埔里創始店 truedish curry",
      "description": "",
      "area": "埔里鎮",
      "rating": 4.8,
      "reviews": 2045,
      "categories": [
        "日式"
      ],
      "category": "日式",
      "tags": [],
      "_sort": 3,
      "dishes": [],
      "lat": 23.9706326,
      "lng": 120.9556297
    },
    {
      "name": "享日啡啡-埔里美食-餐廳-咖啡 | 南投埔里 咖啡廳推薦 早午餐餐廳首選 網美咖啡廳好評 優質親子餐廳 人氣聚餐餐廳 熱門平價下午茶咖啡店 好吃 必吃 評價",
      "description": "網美咖啡廳, 提供美味早午餐與下午茶，適合親子聚會。",
      "area": "埔里鎮",
      "rating": 4.8,
      "reviews": 1458,
      "categories": [
        "咖啡廳"
      ],
      "category": "咖啡廳",
      "tags": [],
      "_sort": 3,
      "dishes": [],
      "lat": 23.9676174,
      "lng": 120.9637902
    },
    {
      "name": "一畝石鍋 南投店",
      "description": "鮮美鍋物，搭配新鮮食材，令人想再訪。",
      "area": "",
      "rating": 4.8,
      "reviews": 1123,
      "categories": [
        "火鍋"
      ],
      "category": "火鍋",
      "tags": [],
      "_sort": 3,
      "dishes": [],
      "lat": 23.905301,
      "lng": 120.6854574
    },
    {
      "name": "小鼎火鍋",
      "description": "口味多樣，吸引眾多食客前來品嚐，超人氣。",
      "area": "埔里鎮",
      "rating": 4.8,
      "reviews": 3110,
      "categories": [
        "火鍋"
      ],
      "category": "火鍋",
      "tags": [],
      "_sort": 3,
      "dishes": [],
      "lat": 23.9655157,
      "lng": 120.9677892
    },
    {
      "name": "橘喵找餐店-南投宵夜、南投晚餐、南投美食",
      "description": "宵夜與晚餐的完美選擇，帶來滿足的美食體驗。",
      "area": "",
      "rating": 4.8,
      "reviews": 303,
      "categories": [
        "中式"
      ],
      "category": "中式",
      "tags": [],
      "_sort": 3,
      "dishes": [],
      "lat": 23.9056017,
      "lng": 120.6852828
    },
    {
      "name": "Middle coffee",
      "description": "高品質咖啡, 讓人放鬆的舒適環境。",
      "area": "埔里鎮",
      "rating": 4.8,
      "reviews": 284,
      "categories": [
        "咖啡廳"
      ],
      "category": "咖啡廳",
      "tags": [],
      "_sort": 3,
      "dishes": [
        {
          "name": "葡萄柚美式",
          "description": "清新葡萄柚搭配美式咖啡的創意飲品"
        },
        {
          "name": "手沖單品咖啡",
          "description": "職人手沖咖啡，地母廟旁的韓系咖啡廳招牌"
        },
        {
          "name": "自製甜點蛋糕",
          "description": "每日新鲜製作的甜點蛋糕，搭配咖啡的完美選擇"
        }
      ],
      "lat": 23.9504956,
      "lng": 120.9877714
    },
    {
      "name": "Feeling18 LAB-烘焙研究所",
      "description": "",
      "area": "埔里鎮",
      "rating": 4.8,
      "reviews": 4355,
      "categories": [
        "咖啡廳"
      ],
      "category": "咖啡廳",
      "tags": [],
      "_sort": 3,
      "dishes": [],
      "lat": 23.9615676,
      "lng": 120.9458721
    },
    {
      "name": "攝香咖啡館",
      "description": "｜高評價的咖啡喫茶，提供香濃咖啡與舒適環境，適合靜謐時光",
      "area": "草屯鎮",
      "rating": 4.8,
      "reviews": 310,
      "categories": [
        "咖啡廳"
      ],
      "category": "咖啡廳",
      "tags": [],
      "_sort": 3,
      "dishes": [
        {
          "name": "檸檬咖啡",
          "description": "店內招牌，清新檸檬香氣與咖啡的完美結合"
        },
        {
          "name": "冰淇淋鬆餅",
          "description": "外酥內軟的鬆餅搭配香草冰淇淋，下午茶首選"
        },
        {
          "name": "茄汁肉醬義大利麵",
          "description": "番茄肉醬風味義大利麵，食材新鮮料理精緻"
        }
      ],
      "lat": 23.983539,
      "lng": 120.684526
    },
    {
      "name": "瀾島 埔里創始店（花型檸檬塔/脆皮泡芙/蛋糕專賣）",
      "description": "｜專賣花型檸檬塔及脆皮泡芙，甜品控必訪的美味天堂",
      "area": "埔里鎮",
      "rating": 4.8,
      "reviews": 1172,
      "categories": [
        "甜品"
      ],
      "category": "甜品",
      "tags": [],
      "_sort": 3,
      "dishes": [],
      "lat": 23.9686498,
      "lng": 120.957513
    },
    {
      "name": "埔里汶傳統米食坊-草仔粿｜芋頭糕",
      "description": "以芋頭糕聞名，傳承經典中式米食。",
      "area": "埔里鎮",
      "rating": 4.8,
      "reviews": 945,
      "categories": [
        "中式"
      ],
      "category": "中式",
      "tags": [],
      "_sort": 3,
      "dishes": [],
      "lat": 23.9628871,
      "lng": 120.9641565
    },
    {
      "name": "福滿蔬食堂™日式壽司/咖哩飯/風味麵食/沙拉定食/會議餐盒",
      "description": "",
      "area": "",
      "rating": 4.8,
      "reviews": 260,
      "categories": [
        "素食"
      ],
      "category": "素食",
      "tags": [],
      "_sort": 3,
      "dishes": [
        {
          "name": "創意手作壽司",
          "description": "蔬食手作壽司，創意口味連葷食族都愛的無肉料理"
        },
        {
          "name": "藥膳肉骨茶拉麵",
          "description": "蔬食版肉骨茶拉麵，藥膳香氣濃郁，溫暖滿足"
        },
        {
          "name": "咖哩飯",
          "description": "日式風味蔬食咖哩飯，香氣濃郁搭配新鮮食材"
        }
      ],
      "lat": 23.9439013,
      "lng": 120.6942947
    },
    {
      "name": "麥味登南崗店",
      "description": "台式經典美食，讓人回味無窮的家常味道。",
      "area": "",
      "rating": 4.8,
      "reviews": 316,
      "categories": [
        "中式"
      ],
      "category": "中式",
      "tags": [],
      "_sort": 3,
      "dishes": [],
      "lat": 23.9125605,
      "lng": 120.6778985
    },
    {
      "name": "妃藏茗義式手工冰淇淋",
      "description": "精緻的義式手工冰淇淋，帶來絕佳的口感與味覺享受。",
      "area": "埔里鎮",
      "rating": 4.8,
      "reviews": 249,
      "categories": [
        "甜品"
      ],
      "category": "甜品",
      "tags": [],
      "_sort": 3,
      "dishes": [
        {
          "name": "義式手工冰淇淋",
          "description": "埔里人氣手工冰淇淋店，香甜濃郁，多種口味可選"
        },
        {
          "name": "季節限定口味",
          "description": "依季節變換的限定冰淇淋，使用在地新鮮食材製作"
        },
        {
          "name": "經典牛奶冰淇淋",
          "description": "濃醇奶香，口感綿密滑順，吃過成主顧"
        }
      ],
      "lat": 23.9604635,
      "lng": 120.9680038
    },
    {
      "name": "娜味小姐 Annona",
      "description": "精緻的台菜，口感層次豐富，讓人回味無窮的人氣選擇。",
      "area": "埔里鎮",
      "rating": 4.8,
      "reviews": 1359,
      "categories": [
        "中式"
      ],
      "category": "中式",
      "tags": [],
      "_sort": 3,
      "dishes": [],
      "lat": 23.957957,
      "lng": 120.974747
    },
    {
      "name": "燒肉MEN埔里店 -YAKINIKU.MEN - 外帶咖哩販售中",
      "description": "",
      "area": "埔里鎮",
      "rating": 4.8,
      "reviews": 2740,
      "categories": [
        "西式"
      ],
      "category": "西式",
      "tags": [],
      "_sort": 3,
      "dishes": [],
      "lat": 23.9708606,
      "lng": 120.9758296
    },
    {
      "name": "上高地精品燒肉",
      "description": "",
      "area": "仁愛鄉",
      "rating": 4.8,
      "reviews": 1014,
      "categories": [
        "西式"
      ],
      "category": "西式",
      "tags": [],
      "_sort": 3,
      "dishes": [],
      "lat": 24.0389308,
      "lng": 121.1547754
    },
    {
      "name": "唯真燒肉 南投草屯店",
      "description": "",
      "area": "草屯鎮",
      "rating": 4.8,
      "reviews": 756,
      "categories": [
        "西式"
      ],
      "category": "西式",
      "tags": [],
      "_sort": 3,
      "dishes": [
        {
          "name": "A5和牛翼板",
          "description": "推薦必點菜色"
        },
        {
          "name": "A5和牛雪花",
          "description": "推薦必點菜色"
        },
        {
          "name": "豪華豬牛套餐-雙人套餐",
          "description": "推薦必點菜色"
        }
      ],
      "lat": 23.9818132,
      "lng": 120.6643761
    },
    {
      "name": "後頭厝餐廳民宿",
      "description": "結合美食與住宿的舒適體驗，讓您享受悠閒時光。",
      "area": "國姓鄉",
      "rating": 4.8,
      "reviews": 2233,
      "categories": [
        "中式"
      ],
      "category": "中式",
      "tags": [],
      "_sort": 3,
      "dishes": [],
      "lat": 24.0593017,
      "lng": 120.9324399
    },
    {
      "name": "國姓鄉村風味餐廳民宿",
      "description": "提供正宗台菜，人氣餐廳，讓人享受田園風情。",
      "area": "國姓鄉",
      "rating": 4.8,
      "reviews": 2022,
      "categories": [
        "中式"
      ],
      "category": "中式",
      "tags": [],
      "_sort": 3,
      "dishes": [],
      "lat": 24.0586696,
      "lng": 120.9282039
    },
    {
      "name": "好厝邊小吃，埔里在地美食",
      "description": "",
      "area": "埔里鎮",
      "rating": 4.8,
      "reviews": 111,
      "categories": [
        "中式"
      ],
      "category": "中式",
      "tags": [],
      "_sort": 3,
      "dishes": [
        {
          "name": "牛肉麵",
          "description": "招牌70元牛肉麵，大塊軟嫩牛肉超有誠意，一吃成主顧"
        },
        {
          "name": "綜合滷味",
          "description": "人氣小菜，各式滷味入味好吃"
        },
        {
          "name": "燙時蔬",
          "description": "新鮮時蔬簡單燙過，健康搭配主食"
        }
      ],
      "lat": 23.9679303,
      "lng": 120.9525955
    },
    {
      "name": "山茶話堂-芳吉1991/甜品/茶葉/下午茶",
      "description": "精緻甜品與茶葉搭配，午後茶時光的絕佳選擇。",
      "area": "竹山鎮",
      "rating": 4.8,
      "reviews": 174,
      "categories": [
        "咖啡廳"
      ],
      "category": "咖啡廳",
      "tags": [],
      "_sort": 3,
      "dishes": [
        {
          "name": "秘製滷味",
          "description": "獨家秘方滷製，每日限量供應"
        },
        {
          "name": "水果千層蛋糕",
          "description": "每日限量手作千層蛋糕，清爽水果風味"
        },
        {
          "name": "高山金萱茶",
          "description": "自家產茶，現點現沖回甘溫醇"
        }
      ],
      "lat": 23.7526711,
      "lng": 120.6779161
    },
    {
      "name": "SS65醬湯研究院｜老火湯｜私房菜 草屯美食 特色美食",
      "description": "提供創意醬湯，搭配私房菜，讓人驚喜不已。",
      "area": "草屯鎮",
      "rating": 4.8,
      "reviews": 415,
      "categories": [
        "中式"
      ],
      "category": "中式",
      "tags": [],
      "_sort": 3,
      "dishes": [],
      "lat": 23.969175,
      "lng": 120.6854844
    },
    {
      "name": "集集大飯桶（八肚金妖）",
      "description": "超人氣的大份量餐點，讓人吃得過癮。",
      "area": "集集鎮",
      "rating": 4.8,
      "reviews": 3100,
      "categories": [
        "中式"
      ],
      "category": "中式",
      "tags": [],
      "_sort": 3,
      "dishes": [],
      "lat": 23.8289412,
      "lng": 120.7900336
    },
    {
      "name": "一億香蕉冰淇淋、山蕉蛋捲",
      "description": "創新甜品，清涼消暑的最佳選擇。",
      "area": "集集鎮",
      "rating": 4.8,
      "reviews": 635,
      "categories": [
        "甜品"
      ],
      "category": "甜品",
      "tags": [],
      "_sort": 3,
      "dishes": [
        {
          "name": "香蕉冰淇淋",
          "description": "招牌香蕉冰淇淋，使用集集山蕉製作，香濃綿密"
        },
        {
          "name": "山蕉蛋捲",
          "description": "集集山蕉製成蛋捲，酥脆香甜，伴手禮首選"
        },
        {
          "name": "炸香蕉",
          "description": "現炸香蕉，外酥內軟，香蕉香氣濃郁"
        }
      ],
      "lat": 23.8269148,
      "lng": 120.7851518
    },
    {
      "name": "「埒」素食麵",
      "description": "素食餐廳，提供健康蔬食料理。",
      "area": "南投市",
      "rating": 4.8,
      "reviews": 4,
      "categories": [
        "素食"
      ],
      "tags": [],
      "category": "素食",
      "_sort": 3,
      "dishes": [],
      "lat": 23.9111181,
      "lng": 120.6897472
    },
    {
      "name": "貓居蔬食",
      "description": "素食餐廳，提供健康蔬食料理。",
      "area": "埔里鎮",
      "rating": 4.8,
      "reviews": 396,
      "categories": [
        "素食"
      ],
      "tags": [],
      "category": "素食",
      "_sort": 3,
      "dishes": [],
      "lat": 23.9697879,
      "lng": 120.9639452
    },
    {
      "name": "蓬萊蔬食",
      "description": "素食餐廳，提供健康蔬食料理。",
      "area": "埔里鎮",
      "rating": 4.8,
      "reviews": 35,
      "categories": [
        "素食"
      ],
      "tags": [],
      "category": "素食",
      "_sort": 3,
      "dishes": [],
      "lat": 23.9588608,
      "lng": 120.9657826
    },
    {
      "name": "花果蔬-嚴選蔬食|在地蔬食餐廳（無提供洗手間）-|蔬食產品|",
      "description": "素食餐廳，提供健康蔬食料理。",
      "area": "竹山鎮",
      "rating": 4.8,
      "reviews": 39,
      "categories": [
        "素食"
      ],
      "tags": [],
      "category": "素食",
      "_sort": 3,
      "dishes": [],
      "lat": 23.7630702,
      "lng": 120.6998755
    },
    {
      "name": "素香素食",
      "description": "素食餐廳，提供健康蔬食料理。",
      "area": "竹山鎮",
      "rating": 4.8,
      "reviews": 63,
      "categories": [
        "素食"
      ],
      "tags": [],
      "category": "素食",
      "_sort": 3,
      "dishes": [
        {
          "name": "炒麵特餐",
          "description": "網友大推的炒麵特餐，口味清淡健康，食材天然"
        },
        {
          "name": "素食便當",
          "description": "自備餐盒有優惠價，環保又省錢"
        },
        {
          "name": "素食麵食",
          "description": "竹山在地的素食麵食，乾淨清爽"
        }
      ],
      "lat": 23.760126,
      "lng": 120.691086
    },
    {
      "name": "老担菩提素食",
      "description": "素食餐廳，提供健康蔬食料理。",
      "area": "竹山鎮",
      "rating": 4.8,
      "reviews": 130,
      "categories": [
        "素食"
      ],
      "tags": [],
      "category": "素食",
      "_sort": 3,
      "dishes": [
        {
          "name": "南投意麵",
          "description": "推薦必吃，非油炸意麵口感獨特"
        },
        {
          "name": "水餃",
          "description": "皮Q內餡香，附配菜份量足"
        },
        {
          "name": "香菇芋頭",
          "description": "人氣菜品，一早就賣完"
        }
      ],
      "lat": 23.8010034,
      "lng": 120.7139451
    },
    {
      "name": "來發健康素食部",
      "description": "素食餐廳，提供健康蔬食料理。",
      "area": "竹山鎮",
      "rating": 4.8,
      "reviews": 50,
      "categories": [
        "素食"
      ],
      "tags": [],
      "category": "素食",
      "_sort": 3,
      "dishes": [],
      "lat": 23.7566807,
      "lng": 120.6820086
    },
    {
      "name": "桂田舍素食 Om Tara",
      "description": "素食餐廳，提供健康蔬食料理。",
      "area": "魚池鄉",
      "rating": 4.8,
      "reviews": 26,
      "categories": [
        "素食"
      ],
      "tags": [],
      "category": "素食",
      "_sort": 3,
      "dishes": [],
      "lat": 23.9057642,
      "lng": 120.9249865
    },
    {
      "name": "全養知異國蔬食 莊敬店",
      "description": "素食餐廳，提供健康蔬食料理。",
      "area": "信義鄉",
      "rating": 4.8,
      "reviews": 1251,
      "categories": [
        "素食"
      ],
      "tags": [],
      "category": "素食",
      "_sort": 3,
      "dishes": [],
      "lat": 25.0269014,
      "lng": 121.567031
    },
    {
      "name": "賓飲涼品複合式蔬食餐飲",
      "description": "素食餐廳，提供健康蔬食料理。",
      "area": "南投市",
      "rating": 4.8,
      "reviews": 41,
      "categories": [
        "素食"
      ],
      "tags": [],
      "category": "素食",
      "_sort": 3,
      "dishes": [],
      "lat": 23.9398101,
      "lng": 120.6377182
    },
    {
      "name": "省城甕缸雞",
      "description": "中式餐廳，在地美味",
      "area": "鹿谷鄉",
      "rating": 4.8,
      "reviews": 6930,
      "address": "558台灣南投縣鹿谷鄉鹿谷村中正路二段322號",
      "categories": [
        "中式"
      ],
      "category": "中式",
      "tags": [],
      "_sort": 3,
      "dishes": [],
      "lat": 23.7526427,
      "lng": 120.7467008
    },
    {
      "name": "豪家桶仔雞 鹿谷店",
      "description": "中式餐廳，在地美味",
      "area": "鹿谷鄉",
      "rating": 4.8,
      "reviews": 1754,
      "address": "558台灣南投縣鹿谷鄉彰雅村中正路一段206號",
      "categories": [
        "中式"
      ],
      "category": "中式",
      "tags": [],
      "_sort": 3,
      "dishes": [],
      "lat": 23.741687,
      "lng": 120.7573553
    },
    {
      "name": "茶二指故事館",
      "description": "中式餐廳，在地美味",
      "area": "名間鄉",
      "rating": 4.8,
      "reviews": 23454,
      "address": "551台灣南投縣名間鄉埔中村埔中巷32-1號",
      "categories": [
        "中式"
      ],
      "category": "中式",
      "tags": [],
      "_sort": 3,
      "dishes": [
        "茶葉蛋",
        "茶冰淇淋",
        "冷泡茶",
        "茶餅乾",
        "茶葉蛋糕"
      ],
      "lat": 23.8249073,
      "lng": 120.6439028
    },
    {
      "name": "仙徠山莊景觀餐廳",
      "description": "中式餐廳，在地美味",
      "area": "國姓鄉",
      "rating": 4.8,
      "reviews": 857,
      "address": "544台灣南投縣國姓鄉長豐村東二巷71號",
      "categories": [
        "中式"
      ],
      "category": "中式",
      "tags": [],
      "_sort": 3,
      "dishes": [],
      "lat": 24.1010703,
      "lng": 120.8790084
    },
    {
      "name": "番仔田甕仔雞/持惠蓀林場門票 套餐折一佰",
      "description": "中式餐廳，在地美味",
      "area": "國姓鄉",
      "rating": 4.8,
      "reviews": 1254,
      "address": "544台灣南投縣國姓鄉北港村長北路46號",
      "categories": [
        "中式"
      ],
      "category": "中式",
      "tags": [],
      "_sort": 3,
      "dishes": [],
      "lat": 24.060636,
      "lng": 120.9006282
    },
    {
      "name": "原鄉食堂美食餐廳",
      "description": "中式餐廳，在地美味",
      "area": "仁愛鄉",
      "rating": 4.8,
      "reviews": 4413,
      "address": "546台灣南投縣仁愛鄉大同村仁和路196號",
      "categories": [
        "中式"
      ],
      "category": "中式",
      "tags": [],
      "_sort": 3,
      "dishes": [],
      "lat": 24.0477913,
      "lng": 121.1566354
    },
    {
      "name": "雲南馬幫美食館",
      "description": "中式餐廳，在地美味",
      "area": "仁愛鄉",
      "rating": 4.8,
      "reviews": 792,
      "address": "546台灣南投縣仁愛鄉大同村仁和路224-1號",
      "categories": [
        "中式"
      ],
      "category": "中式",
      "tags": [],
      "_sort": 3,
      "dishes": [],
      "lat": 24.0672345,
      "lng": 121.1679792
    },
    {
      "name": "美凤姐的店/超人氣甕仔雞/合菜二人起/野當歸煎蛋/蔥爆山豬肉/鮮甜高山菜/套餐白飯吃到飽/啤酒冷飲供應",
      "description": "甜品專賣店，消暑好選擇",
      "area": "仁愛鄉",
      "rating": 4.8,
      "reviews": 1461,
      "address": "546台灣南投縣仁愛鄉大同村仁和路183號",
      "categories": [
        "中式"
      ],
      "category": "中式",
      "tags": [],
      "_sort": 3,
      "dishes": [],
      "lat": 24.047433,
      "lng": 121.156068
    },
    {
      "name": "澄石野老林 -車埕美食 景觀餐廳",
      "description": "中式餐廳，在地美味",
      "area": "水里鄉",
      "rating": 4.8,
      "reviews": 1441,
      "address": "553台灣南投縣水里鄉車埕村民權巷3號",
      "categories": [
        "中式"
      ],
      "category": "中式",
      "tags": [],
      "_sort": 3,
      "dishes": [],
      "lat": 23.8326557,
      "lng": 120.8653791
    },
    {
      "name": "大鼎夏荷麵食館 埔里店-埔里熱門牛肉麵|麵食料理|特色麵館|牛肉麵推薦|推薦乾拌麵|在地推薦餐廳",
      "description": "埔里熱門牛肉麵，特色乾拌麵，口味多樣化。",
      "area": "埔里鎮",
      "rating": 4.7,
      "reviews": 206,
      "categories": [
        "中式"
      ],
      "category": "中式",
      "tags": [],
      "_sort": 3,
      "dishes": [],
      "lat": 23.9705832,
      "lng": 120.9666201
    },
    {
      "name": "渡之島日高鍋物-日式火鍋、日式料理餐廳 puli hidaka hotpot restaurant",
      "description": "日式火鍋與料理完美結合，超人氣的選擇。",
      "area": "埔里鎮",
      "rating": 4.7,
      "reviews": 2737,
      "categories": [
        "火鍋"
      ],
      "category": "火鍋",
      "tags": [],
      "_sort": 3,
      "dishes": [],
      "lat": 23.9578376,
      "lng": 120.9746542
    },
    {
      "name": "鬲饕火鍋店/restaurants/南投美食/南投火鍋/家庭聚餐/推薦晚餐/吃的",
      "description": "適合家庭聚餐的火鍋場所，溫馨又美味。",
      "area": "埔里鎮",
      "rating": 4.7,
      "reviews": 1024,
      "categories": [
        "火鍋"
      ],
      "category": "火鍋",
      "tags": [],
      "_sort": 3,
      "dishes": [],
      "lat": 23.9667756,
      "lng": 120.9636025
    },
    {
      "name": "岡山羊肉快炒(水里店)",
      "description": "招牌羊肉快炒美味可口，人氣持續上升。",
      "area": "水里鄉",
      "rating": 4.7,
      "reviews": 1059,
      "categories": [
        "中式"
      ],
      "category": "中式",
      "tags": [],
      "_sort": 3,
      "dishes": [],
      "lat": 23.8131492,
      "lng": 120.8556819
    },
    {
      "name": "鹿稌咖啡 route café｜埔里鹽可頌｜奶酥厚片伴手禮",
      "description": "人氣鹽可頌與奶酥厚片，適合伴手禮或下午茶享用。",
      "area": "埔里鎮",
      "rating": 4.7,
      "reviews": 283,
      "categories": [
        "咖啡廳"
      ],
      "category": "咖啡廳",
      "tags": [],
      "_sort": 3,
      "dishes": [],
      "lat": 23.9628415,
      "lng": 120.9659976
    },
    {
      "name": "九重花間日本餐廳 The Japanese Restaurant",
      "description": "精緻的日式料理，令人流連忘返的美味。",
      "area": "",
      "rating": 4.7,
      "reviews": 231,
      "categories": [
        "日式"
      ],
      "category": "日式",
      "tags": [],
      "_sort": 3,
      "dishes": [],
      "lat": 23.8629759,
      "lng": 120.9086038
    },
    {
      "name": "雲南味 Yunnanwei",
      "description": "",
      "area": "埔里鎮",
      "rating": 4.7,
      "reviews": 454,
      "categories": [
        "異國"
      ],
      "category": "異國",
      "tags": [],
      "_sort": 3,
      "dishes": [],
      "lat": 23.9645445,
      "lng": 120.9694295
    },
    {
      "name": "姚記豬排蛋炒麵/飯/刈包&中式美食小菜&現榨果汁",
      "description": "",
      "area": "集集鎮",
      "rating": 4.7,
      "reviews": 163,
      "categories": [
        "咖啡廳"
      ],
      "category": "咖啡廳",
      "tags": [],
      "_sort": 3,
      "dishes": [],
      "lat": 23.8284632,
      "lng": 120.7844903
    },
    {
      "name": "Mica 蔬食",
      "description": "素食餐廳，提供健康蔬食料理。",
      "area": "埔里鎮",
      "rating": 4.7,
      "reviews": 293,
      "categories": [
        "素食"
      ],
      "tags": [],
      "category": "素食",
      "_sort": 3,
      "dishes": [],
      "lat": 23.9598852,
      "lng": 120.9729313
    },
    {
      "name": "惹鍋 -南投店",
      "description": "超人氣火鍋，湯底多樣化，讓人流連忘返。",
      "area": "",
      "rating": 4.7,
      "reviews": 4381,
      "categories": [
        "火鍋"
      ],
      "category": "火鍋",
      "tags": [],
      "_sort": 3,
      "dishes": [],
      "lat": 23.9038012,
      "lng": 120.6826836
    },
    {
      "name": "久味大姐手工麻糬中山店(草屯麻糬・南投伴手禮首選)",
      "description": "超人氣的草屯麻糬，口感柔軟，甜而不膩。",
      "area": "草屯鎮",
      "rating": 4.7,
      "reviews": 3677,
      "categories": [
        "中式"
      ],
      "category": "中式",
      "tags": [],
      "_sort": 3,
      "dishes": [],
      "lat": 23.9783872,
      "lng": 120.6828139
    },
    {
      "name": "圈圈大鼓餅",
      "description": "埔里銅板美食車輪餅，奶油紅豆麻糬酸菜花生口味，薄脆爆漿",
      "area": "",
      "rating": 4.7,
      "reviews": 103,
      "categories": [
        "烘焙"
      ],
      "category": "烘焙",
      "tags": [],
      "_sort": 3,
      "dishes": [],
      "lat": 23.9702089,
      "lng": 120.9758526
    },
    {
      "name": "日月潭紅茶",
      "description": "特產阿薩姆紅茶，台茶18號香醇回甘，伊達邵多家茶行",
      "area": "",
      "rating": 4.7,
      "reviews": 2685,
      "categories": [
        "咖啡廳"
      ],
      "category": "咖啡廳",
      "tags": [],
      "_sort": 3,
      "dishes": [],
      "lat": 23.8937287,
      "lng": 120.9244244
    },
    {
      "name": "信義望鄉部落風味餐",
      "description": "",
      "area": "信義鄉",
      "rating": 4.7,
      "reviews": 500,
      "categories": [
        "中式"
      ],
      "category": "中式",
      "tags": [],
      "_sort": 3,
      "dishes": [],
      "lat": 23.5856461,
      "lng": 120.8642493
    },
    {
      "name": "天利食堂 南投民族店",
      "description": "",
      "area": "南投市",
      "rating": 4.7,
      "reviews": 3843,
      "categories": [
        "中式"
      ],
      "category": "中式",
      "tags": [],
      "_sort": 3,
      "dishes": [],
      "lat": 23.9102591,
      "lng": 120.6911649
    },
    {
      "name": "東星屋景觀餐廳",
      "description": "超人氣的中式台菜與咖啡，享受美食與美景的完美結合。",
      "area": "南投市",
      "rating": 4.7,
      "reviews": 3506,
      "categories": [
        "咖啡廳"
      ],
      "category": "咖啡廳",
      "tags": [],
      "_sort": 3,
      "dishes": [],
      "lat": 23.9421258,
      "lng": 120.6515873
    },
    {
      "name": "微光曼曼",
      "description": "提供多樣中式台菜，讓每一口都充滿驚喜。",
      "area": "南投市",
      "rating": 4.7,
      "reviews": 235,
      "categories": [
        "中式"
      ],
      "category": "中式",
      "tags": [],
      "_sort": 3,
      "dishes": [],
      "lat": 23.9107863,
      "lng": 120.6844011
    },
    {
      "name": "陶板屋 南投萬家福店",
      "description": "",
      "area": "南投市",
      "rating": 4.7,
      "reviews": 4046,
      "categories": [
        "中式"
      ],
      "category": "中式",
      "tags": [],
      "_sort": 3,
      "dishes": [],
      "lat": 23.9058494,
      "lng": 120.6891447
    },
    {
      "name": "米樂義式料理",
      "description": "",
      "area": "南投市",
      "rating": 4.7,
      "reviews": 338,
      "categories": [
        "西式"
      ],
      "category": "西式",
      "tags": [],
      "_sort": 3,
      "dishes": [],
      "lat": 23.9103387,
      "lng": 120.6922059
    },
    {
      "name": "宮本武丼 南投草屯《日料美食》日式定食｜日式便當｜餐盒外送｜平價特色｜人氣丼飯｜熱門日料｜特色丼飯",
      "description": "提供精緻平價的日式丼飯，人氣日料選擇。",
      "area": "草屯鎮",
      "rating": 4.7,
      "reviews": 2044,
      "categories": [
        "中式"
      ],
      "category": "中式",
      "tags": [],
      "_sort": 3,
      "dishes": [],
      "lat": 23.9742855,
      "lng": 120.6835658
    },
    {
      "name": "竹山赤肉焿",
      "description": "赤肉焿湯頭鮮美，讓人愛不釋口的傳統台菜。",
      "area": "竹山鎮",
      "rating": 4.7,
      "reviews": 370,
      "categories": [
        "中式"
      ],
      "category": "中式",
      "tags": [],
      "_sort": 3,
      "dishes": [],
      "lat": 23.7642114,
      "lng": 120.7023846
    },
    {
      "name": "元爵味 黃燜雞米飯 南投門市",
      "description": "招牌黃燜雞米飯，人氣餐廳，讓人回味無窮。",
      "area": "",
      "rating": 4.7,
      "reviews": 287,
      "categories": [
        "中式"
      ],
      "category": "中式",
      "tags": [],
      "_sort": 3,
      "dishes": [],
      "lat": 23.9076063,
      "lng": 120.6867987
    },
    {
      "name": "基立屋原味餐坊（咖啡、簡餐、下午茶）",
      "description": "咖啡與簡餐完美結合，適合午後悠閒時光。",
      "area": "埔里鎮",
      "rating": 4.7,
      "reviews": 287,
      "categories": [
        "咖啡廳"
      ],
      "category": "咖啡廳",
      "tags": [],
      "_sort": 3,
      "dishes": [],
      "lat": 23.9728356,
      "lng": 120.9401802
    },
    {
      "name": "九初 流心脆皮煎餃 南投埔里店",
      "description": "招牌流心煎餃，外酥內嫩，口感極佳。",
      "area": "埔里鎮",
      "rating": 4.7,
      "reviews": 266,
      "categories": [
        "中式"
      ],
      "category": "中式",
      "tags": [],
      "_sort": 3,
      "dishes": [],
      "lat": 23.9657899,
      "lng": 120.972614
    },
    {
      "name": "五鮮級鍋物專賣 南投草屯店",
      "description": "五種鮮美湯底供應，適合火鍋愛好者。",
      "area": "草屯鎮",
      "rating": 4.7,
      "reviews": 2473,
      "categories": [
        "火鍋"
      ],
      "category": "火鍋",
      "tags": [],
      "_sort": 3,
      "dishes": [],
      "lat": 23.9598631,
      "lng": 120.6811519
    },
    {
      "name": "億品鍋 南投市店",
      "description": "",
      "area": "南投市",
      "rating": 4.7,
      "reviews": 770,
      "categories": [
        "火鍋"
      ],
      "category": "火鍋",
      "tags": [],
      "_sort": 3,
      "dishes": [],
      "lat": 23.9047048,
      "lng": 120.6806044
    },
    {
      "name": "來自牛眠汕頭火鍋｜南投埔里｜埔里美食｜埔里火鍋｜埔里推薦美食｜埔里必吃美食｜埔里小吃",
      "description": "專注於新鮮火鍋食材，讓人回味無窮。",
      "area": "埔里鎮",
      "rating": 4.7,
      "reviews": 385,
      "categories": [
        "火鍋"
      ],
      "category": "火鍋",
      "tags": [],
      "_sort": 3,
      "dishes": [],
      "lat": 23.9957418,
      "lng": 120.9708353
    },
    {
      "name": "春大地火鍋城",
      "description": "豐富的火鍋選擇，讓每一頓都充滿驚喜。",
      "area": "仁愛鄉",
      "rating": 4.7,
      "reviews": 2258,
      "categories": [
        "火鍋"
      ],
      "category": "火鍋",
      "tags": [],
      "_sort": 3,
      "dishes": [],
      "lat": 24.0382511,
      "lng": 121.1583772
    },
    {
      "name": "一饌泰式銅盤燒烤火鍋 南投草屯店",
      "description": "",
      "area": "草屯鎮",
      "rating": 4.7,
      "reviews": 1064,
      "categories": [
        "火鍋"
      ],
      "category": "火鍋",
      "tags": [],
      "_sort": 3,
      "dishes": [],
      "lat": 23.9818044,
      "lng": 120.6642932
    },
    {
      "name": "千葉火鍋- 埔里尊爵館（吃到飽火鍋好吃好吃好吃）",
      "description": "吃到飽的火鍋選擇，超人氣，讓人一次滿足。",
      "area": "埔里鎮",
      "rating": 4.7,
      "reviews": 5318,
      "categories": [
        "火鍋"
      ],
      "category": "火鍋",
      "tags": [],
      "_sort": 3,
      "dishes": [],
      "lat": 23.9718554,
      "lng": 120.9674217
    },
    {
      "name": "虎味煎餃",
      "description": "",
      "area": "埔里鎮",
      "rating": 4.7,
      "reviews": 5569,
      "categories": [
        "中式"
      ],
      "category": "中式",
      "tags": [],
      "_sort": 3,
      "dishes": [],
      "lat": 23.9685603,
      "lng": 120.9737802
    },
    {
      "name": "讚不絕口PLUS小火鍋草屯店",
      "description": "",
      "area": "草屯鎮",
      "rating": 4.7,
      "reviews": 893,
      "categories": [
        "火鍋"
      ],
      "category": "火鍋",
      "tags": [],
      "_sort": 3,
      "dishes": [],
      "lat": 23.9727856,
      "lng": 120.6863058
    },
    {
      "name": "美枝好鍋",
      "description": "提供道地中式料理，食材新鮮，讓人忍不住想再來一碗。",
      "area": "",
      "rating": 4.7,
      "reviews": 255,
      "categories": [
        "中式"
      ],
      "category": "中式",
      "tags": [],
      "_sort": 3,
      "dishes": [],
      "lat": 23.8986071,
      "lng": 120.6879528
    },
    {
      "name": "紅翻天平價現炒",
      "description": "",
      "area": "草屯鎮",
      "rating": 4.7,
      "reviews": 232,
      "categories": [
        "中式"
      ],
      "category": "中式",
      "tags": [],
      "_sort": 3,
      "dishes": [],
      "lat": 23.9808932,
      "lng": 120.6816208
    },
    {
      "name": "山影人宅 丨日月潭丨早午餐丨咖啡丨甜點丨空間合作丨路邊停車",
      "description": "早午餐與甜點完美搭配, 幽靜環境讓人放鬆。",
      "area": "魚池鄉",
      "rating": 4.7,
      "reviews": 262,
      "categories": [
        "咖啡廳"
      ],
      "category": "咖啡廳",
      "tags": [],
      "_sort": 3,
      "dishes": [],
      "lat": 23.9047341,
      "lng": 120.9206602
    },
    {
      "name": "微光寓所 Shimmer café",
      "description": "｜提供精緻中式美食，優雅氛圍與美味並存，令人嚮往的用餐體驗",
      "area": "埔里鎮",
      "rating": 4.7,
      "reviews": 709,
      "categories": [
        "咖啡廳"
      ],
      "category": "咖啡廳",
      "tags": [],
      "_sort": 3,
      "dishes": [],
      "lat": 23.9658476,
      "lng": 120.970093
    },
    {
      "name": "隱咖啡 In Café",
      "description": "｜享受靜謐的咖啡時光，精選咖啡搭配溫馨氛圍，令人放鬆的選擇",
      "area": "埔里鎮",
      "rating": 4.7,
      "reviews": 413,
      "categories": [
        "咖啡廳"
      ],
      "tags": [],
      "category": "咖啡廳",
      "_sort": 3,
      "dishes": [],
      "lat": 23.9712401,
      "lng": 120.9635284
    },
    {
      "name": "小醬.古早麵.臭豆腐",
      "description": "",
      "area": "埔里鎮",
      "rating": 4.7,
      "reviews": 5055,
      "categories": [
        "中式"
      ],
      "category": "中式",
      "tags": [],
      "_sort": 3,
      "dishes": [],
      "lat": 23.9645184,
      "lng": 120.9684671
    },
    {
      "name": "八貫饗手創料理 公所店",
      "description": "",
      "area": "",
      "rating": 4.7,
      "reviews": 206,
      "categories": [
        "中式"
      ],
      "category": "中式",
      "tags": [],
      "_sort": 3,
      "dishes": [],
      "lat": 23.9112209,
      "lng": 120.6844103
    },
    {
      "name": "日本鶴神丼飯烏龍麵 專賣",
      "description": "專賣日式料理，讓你品味正宗的丼飯與烏龍麵。",
      "area": "埔里鎮",
      "rating": 4.7,
      "reviews": 711,
      "categories": [
        "日式"
      ],
      "category": "日式",
      "tags": [],
      "_sort": 3,
      "dishes": [],
      "lat": 23.9661357,
      "lng": 120.9740552
    },
    {
      "name": "福田日式蔬食",
      "description": "",
      "area": "草屯鎮",
      "rating": 4.7,
      "reviews": 242,
      "categories": [
        "素食"
      ],
      "category": "素食",
      "tags": [],
      "_sort": 3,
      "dishes": [],
      "lat": 23.9789216,
      "lng": 120.6876011
    },
    {
      "name": "黑古豆漿",
      "description": "招牌豆漿香濃，適合喜愛咖啡喫茶的朋友。",
      "area": "",
      "rating": 4.7,
      "reviews": 228,
      "categories": [
        "中式"
      ],
      "category": "中式",
      "tags": [],
      "_sort": 3,
      "dishes": [],
      "lat": 23.9202673,
      "lng": 120.6739421
    },
    {
      "name": "熊愛呷冰 南投旗艦店",
      "description": "創意冰品選擇多，適合喜愛甜品的你。",
      "area": "",
      "rating": 4.7,
      "reviews": 498,
      "categories": [
        "甜品"
      ],
      "category": "甜品",
      "tags": [],
      "_sort": 3,
      "dishes": [],
      "lat": 23.9424911,
      "lng": 120.6912277
    },
    {
      "name": "冰磚美人手工冰淇淋專賣店",
      "description": "專賣手工冰淇淋，口味多樣，讓你每次都能驚喜。",
      "area": "埔里鎮",
      "rating": 4.7,
      "reviews": 204,
      "categories": [
        "甜品"
      ],
      "category": "甜品",
      "tags": [],
      "_sort": 3,
      "dishes": [],
      "lat": 23.9727238,
      "lng": 120.9630799
    },
    {
      "name": "清原芋圓-南投埔里店",
      "description": "新鮮的芋圓，口感Q彈，成為廣受歡迎的甜品選擇。",
      "area": "埔里鎮",
      "rating": 4.7,
      "reviews": 542,
      "categories": [
        "中式"
      ],
      "category": "中式",
      "tags": [],
      "_sort": 3,
      "dishes": [],
      "lat": 23.9632028,
      "lng": 120.969305
    },
    {
      "name": "果丘in 手作白木耳吸凍飲專賣店",
      "description": "創意的白木耳飲品，深受顧客喜愛，成為特色飲品店。",
      "area": "埔里鎮",
      "rating": 4.7,
      "reviews": 457,
      "categories": [
        "中式"
      ],
      "category": "中式",
      "tags": [],
      "_sort": 3,
      "dishes": [],
      "lat": 23.9668701,
      "lng": 120.9583445
    },
    {
      "name": "焰屋燒肉 草屯店",
      "description": "草屯店，人氣日式燒肉，燒烤技術精湛，肉質鮮嫩多汁。",
      "area": "草屯鎮",
      "rating": 4.7,
      "reviews": 648,
      "categories": [
        "西式"
      ],
      "category": "西式",
      "tags": [],
      "_sort": 3,
      "dishes": [],
      "lat": 23.97648,
      "lng": 120.687558
    },
    {
      "name": "春花炭火串燒",
      "description": "",
      "area": "埔里鎮",
      "rating": 4.7,
      "reviews": 1014,
      "categories": [
        "日式"
      ],
      "category": "日式",
      "tags": [],
      "_sort": 3,
      "dishes": [],
      "lat": 23.9734647,
      "lng": 120.9717449
    },
    {
      "name": "小山島串燒專門店",
      "description": "",
      "area": "埔里鎮",
      "rating": 4.7,
      "reviews": 633,
      "categories": [
        "日式"
      ],
      "category": "日式",
      "tags": [],
      "_sort": 3,
      "dishes": [],
      "lat": 23.9691163,
      "lng": 120.9693947
    },
    {
      "name": "漫聚時光森林營地",
      "description": "超人氣的環境與美食結合，讓每位食客都能享受悠閒時光。",
      "area": "埔里鎮",
      "rating": 4.7,
      "reviews": 3544,
      "categories": [
        "中式"
      ],
      "category": "中式",
      "tags": [],
      "_sort": 3,
      "dishes": [],
      "lat": 23.9732155,
      "lng": 120.9937343
    },
    {
      "name": "舊丘串燒-埔里",
      "description": "",
      "area": "埔里鎮",
      "rating": 4.7,
      "reviews": 423,
      "categories": [
        "日式"
      ],
      "category": "日式",
      "tags": [],
      "_sort": 3,
      "dishes": [],
      "lat": 23.9673193,
      "lng": 120.9644593
    },
    {
      "name": "南投聞吔香火鍋牛排館(6/19端午公休一天）",
      "description": "火鍋與牛排的完美結合，讓你享受雙重美味。",
      "area": "",
      "rating": 4.7,
      "reviews": 547,
      "categories": [
        "西式"
      ],
      "category": "西式",
      "tags": [],
      "_sort": 3,
      "dishes": [],
      "lat": 23.9092431,
      "lng": 120.6890013
    },
    {
      "name": "紅美小吃部",
      "description": "經典台灣小吃，讓你品味到濃厚的家鄉味道。",
      "area": "埔里鎮",
      "rating": 4.7,
      "reviews": 357,
      "categories": [
        "中式"
      ],
      "category": "中式",
      "tags": [],
      "_sort": 3,
      "dishes": [],
      "lat": 23.9545603,
      "lng": 120.9789392
    },
    {
      "name": "真好吃蕃薯竹筍包",
      "description": "特色蕃薯竹筍包令人驚艷，口感細膩、美味無比。",
      "area": "竹山鎮",
      "rating": 4.7,
      "reviews": 138,
      "categories": [
        "中式"
      ],
      "category": "中式",
      "tags": [],
      "_sort": 3,
      "dishes": [],
      "lat": 23.7732906,
      "lng": 120.7118468
    },
    {
      "name": "草屯李蘇古早味紅薯餅",
      "description": "香脆可口的紅薯餅，讓人回味無窮。",
      "area": "草屯鎮",
      "rating": 4.7,
      "reviews": 308,
      "categories": [
        "烘焙"
      ],
      "tags": [],
      "category": "烘焙",
      "_sort": 3,
      "dishes": [],
      "lat": 23.978183,
      "lng": 120.6822719
    },
    {
      "name": "深坑の什麼鍋 草屯店",
      "description": "",
      "area": "草屯鎮",
      "rating": 4.7,
      "reviews": 762,
      "categories": [
        "中式"
      ],
      "category": "中式",
      "tags": [],
      "_sort": 3,
      "dishes": [],
      "lat": 23.9757733,
      "lng": 120.6852075
    },
    {
      "name": "川香滿園",
      "description": "主打川味小吃，麻辣味十足，讓人欲罷不能。",
      "area": "草屯鎮",
      "rating": 4.7,
      "reviews": 121,
      "categories": [
        "火鍋"
      ],
      "category": "火鍋",
      "tags": [],
      "_sort": 3,
      "dishes": [],
      "lat": 23.9757628,
      "lng": 120.6827576
    },
    {
      "name": "集集蜜酥花枝",
      "description": "",
      "area": "集集鎮",
      "rating": 4.7,
      "reviews": 133,
      "categories": [
        "中式"
      ],
      "category": "中式",
      "tags": [],
      "_sort": 3,
      "dishes": [],
      "lat": 23.8268576,
      "lng": 120.7847938
    },
    {
      "name": "碧雲製冰城",
      "description": "提供多樣創意冰品，甜品愛好者的好去處。",
      "area": "集集鎮",
      "rating": 4.7,
      "reviews": 241,
      "categories": [
        "甜品"
      ],
      "category": "甜品",
      "tags": [],
      "_sort": 3,
      "dishes": [],
      "lat": 23.8295921,
      "lng": 120.7924371
    },
    {
      "name": "無所從來蔬食文創館",
      "description": "素食餐廳，提供健康蔬食料理。",
      "area": "埔里鎮",
      "rating": 4.7,
      "reviews": 810,
      "categories": [
        "素食"
      ],
      "tags": [],
      "category": "素食",
      "_sort": 3,
      "dishes": [],
      "lat": 23.9683478,
      "lng": 120.9528313
    },
    {
      "name": "憶鄉園素食",
      "description": "素食餐廳，提供健康蔬食料理。",
      "area": "埔里鎮",
      "rating": 4.7,
      "reviews": 60,
      "categories": [
        "素食"
      ],
      "tags": [],
      "category": "素食",
      "_sort": 3,
      "dishes": [],
      "lat": 23.9616372,
      "lng": 120.9664766
    },
    {
      "name": "吐司一品 蔬食（晚上不接受當天訂位LINE ID:@zdz5772i）",
      "description": "素食餐廳，提供健康蔬食料理。",
      "area": "埔里鎮",
      "rating": 4.7,
      "reviews": 186,
      "categories": [
        "烘焙"
      ],
      "tags": [],
      "category": "烘焙",
      "_sort": 3,
      "dishes": [],
      "lat": 23.9757761,
      "lng": 120.9837253
    },
    {
      "name": "光明素食館（濟公齋）",
      "description": "素食餐廳，提供健康蔬食料理。",
      "area": "草屯鎮",
      "rating": 4.7,
      "reviews": 20,
      "categories": [
        "素食"
      ],
      "tags": [],
      "category": "素食",
      "_sort": 3,
      "dishes": [],
      "lat": 23.984005,
      "lng": 120.685836
    },
    {
      "name": "天喜素食竹山",
      "description": "素食餐廳，提供健康蔬食料理。",
      "area": "竹山鎮",
      "rating": 4.7,
      "reviews": 67,
      "categories": [
        "素食"
      ],
      "tags": [],
      "category": "素食",
      "_sort": 3,
      "dishes": [],
      "lat": 23.7635489,
      "lng": 120.7030586
    },
    {
      "name": "一碗食舖Vegan bowl 建議預約",
      "description": "素食餐廳，提供健康蔬食料理。",
      "area": "埔里鎮",
      "rating": 4.7,
      "reviews": 181,
      "categories": [
        "素食"
      ],
      "tags": [],
      "category": "素食",
      "_sort": 3,
      "dishes": [],
      "lat": 23.9813282,
      "lng": 120.9567894
    },
    {
      "name": "慢午廚房(須預約)",
      "description": "中式餐廳，在地美味",
      "area": "信義鄉",
      "rating": 4.7,
      "reviews": 500,
      "address": "556台灣南投縣信義鄉四鄰望和巷113號卡里布安村",
      "categories": [
        "中式"
      ],
      "category": "中式",
      "tags": [],
      "_sort": 3,
      "dishes": [],
      "lat": 23.5986298,
      "lng": 120.8841149
    },
    {
      "name": "南投鹿谷鵝樂蔬菜餐館（賣完就收🥹）",
      "description": "中式餐廳，在地美味",
      "area": "鹿谷鄉",
      "rating": 4.7,
      "reviews": 722,
      "address": "558台灣南投縣鹿谷鄉鹿谷村中正路二段268巷1號",
      "categories": [
        "中式"
      ],
      "category": "中式",
      "tags": [],
      "_sort": 3,
      "dishes": [],
      "lat": 23.7513497,
      "lng": 120.7488003
    },
    {
      "name": "嶋嶋坐｜職人烘焙咖啡專賣店 (6/26店休一日 )",
      "description": "咖啡廳，適合放鬆休憩",
      "area": "鹿谷鄉",
      "rating": 4.7,
      "reviews": 649,
      "address": "558台灣南投縣鹿谷鄉內湖村興產路76-3號",
      "categories": [
        "咖啡廳"
      ],
      "category": "咖啡廳",
      "tags": [],
      "_sort": 3,
      "dishes": [],
      "lat": 23.7239503,
      "lng": 120.7767446
    },
    {
      "name": "十九号甕缸雞-名間店",
      "description": "中式餐廳，在地美味",
      "area": "名間鄉",
      "rating": 4.7,
      "reviews": 1302,
      "address": "551台灣南投縣名間鄉濁水村員集路40-39號",
      "categories": [
        "中式"
      ],
      "category": "中式",
      "tags": [],
      "_sort": 3,
      "dishes": [],
      "lat": 23.8325127,
      "lng": 120.7098915
    },
    {
      "name": "清境沐四季景觀餐廳",
      "description": "中式餐廳，在地美味",
      "area": "仁愛鄉",
      "rating": 4.7,
      "reviews": 518,
      "address": "546台灣南投縣仁愛鄉大同村仁和路 信義巷36號",
      "categories": [
        "中式"
      ],
      "category": "中式",
      "tags": [],
      "_sort": 3,
      "dishes": [],
      "lat": 24.0366594,
      "lng": 121.1450065
    },
    {
      "name": "復古雞餐廳(清境店)",
      "description": "中式餐廳，在地美味",
      "area": "仁愛鄉",
      "rating": 4.7,
      "reviews": 3959,
      "address": "546台灣南投縣仁愛鄉大同村仁和路206-1號",
      "categories": [
        "中式"
      ],
      "category": "中式",
      "tags": [],
      "_sort": 3,
      "dishes": [],
      "lat": 24.062313,
      "lng": 121.1676788
    },
    {
      "name": "星嵐拉麵",
      "description": "日式料理餐廳",
      "area": "仁愛鄉",
      "rating": 4.7,
      "reviews": 867,
      "address": "546台灣南投縣仁愛鄉大同村榮光巷40之1號",
      "categories": [
        "日式"
      ],
      "category": "日式",
      "tags": [],
      "_sort": 3,
      "dishes": [],
      "lat": 24.0360091,
      "lng": 121.1499095
    },
    {
      "name": "澄石新天畝",
      "description": "日式料理餐廳",
      "area": "水里鄉",
      "rating": 4.7,
      "reviews": 2931,
      "address": "553台灣南投縣水里鄉車埕村民權巷3號",
      "categories": [
        "日式"
      ],
      "category": "日式",
      "tags": [],
      "_sort": 3,
      "dishes": [],
      "lat": 23.832673,
      "lng": 120.8653703
    },
    {
      "name": "水里車埕歐樂麵包店 OLO BAKERY",
      "description": "甜品專賣店，消暑好選擇",
      "area": "水里鄉",
      "rating": 4.7,
      "reviews": 878,
      "address": "553台灣南投縣水里鄉村民權巷110之2號",
      "categories": [
        "烘焙"
      ],
      "category": "烘焙",
      "tags": [],
      "_sort": 3,
      "dishes": [],
      "lat": 23.8336809,
      "lng": 120.8660207
    },
    {
      "name": "柳家傳統米食-河南路221號（草仔粿，紅龜粿，芋頭，肉粽）",
      "description": "草仔粿、紅龜粿等傳統美食，帶你回味童年。",
      "area": "埔里鎮",
      "rating": 4.6,
      "reviews": 240,
      "categories": [
        "中式"
      ],
      "category": "中式",
      "tags": [],
      "_sort": 3,
      "dishes": [],
      "lat": 23.9624077,
      "lng": 120.9646935
    },
    {
      "name": "桂和園蔬食",
      "description": "素食餐廳，提供健康蔬食料理。",
      "area": "埔里鎮",
      "rating": 4.6,
      "reviews": 342,
      "categories": [
        "素食"
      ],
      "tags": [],
      "category": "素食",
      "_sort": 3,
      "dishes": [],
      "lat": 23.9610934,
      "lng": 120.976897
    },
    {
      "name": "古早味菜脯雞",
      "description": "",
      "area": "竹山鎮",
      "rating": 4.6,
      "reviews": 1910,
      "categories": [
        "中式"
      ],
      "tags": [],
      "category": "中式",
      "_sort": 3,
      "dishes": [],
      "lat": 23.7756438,
      "lng": 120.7093275
    },
    {
      "name": "中華十三番牛肉麵",
      "description": "招牌牛肉麵，濃郁湯頭讓人難忘。",
      "area": "魚池鄉",
      "rating": 4.6,
      "reviews": 592,
      "categories": [
        "中式"
      ],
      "category": "中式",
      "tags": [],
      "_sort": 3,
      "dishes": [],
      "lat": 23.90449,
      "lng": 120.9268536
    },
    {
      "name": "清境農場雲南擺夷料理",
      "description": "",
      "area": "",
      "rating": 4.6,
      "reviews": 1714,
      "categories": [
        "異國"
      ],
      "category": "異國",
      "tags": [],
      "_sort": 3,
      "dishes": [],
      "lat": 24.0551102,
      "lng": 121.1620096
    },
    {
      "name": "字村珍饌會館",
      "description": "經典台菜佳餚，多樣選擇，人氣餐廳，滿足食客的味蕾。",
      "area": "南投市",
      "rating": 4.6,
      "reviews": 1034,
      "categories": [
        "中式"
      ],
      "category": "中式",
      "tags": [],
      "_sort": 3,
      "dishes": [],
      "lat": 23.9034,
      "lng": 120.690074
    },
    {
      "name": "鰻。定食",
      "description": "",
      "area": "草屯鎮",
      "rating": 4.6,
      "reviews": 228,
      "categories": [
        "日式"
      ],
      "category": "日式",
      "tags": [],
      "_sort": 3,
      "dishes": [],
      "lat": 23.975665,
      "lng": 120.683368
    },
    {
      "name": "北平餃子館-草屯60年老店",
      "description": "歷史悠久的餃子專賣店，口味經典，人氣不減。",
      "area": "草屯鎮",
      "rating": 4.6,
      "reviews": 1205,
      "categories": [
        "中式"
      ],
      "category": "中式",
      "tags": [],
      "_sort": 3,
      "dishes": [],
      "lat": 23.9763807,
      "lng": 120.6855492
    },
    {
      "name": "竹山煎餃",
      "description": "人氣的煎餃專賣店，外脆內嫩，滋味無窮。",
      "area": "竹山鎮",
      "rating": 4.6,
      "reviews": 1291,
      "categories": [
        "中式"
      ],
      "category": "中式",
      "tags": [],
      "_sort": 3,
      "dishes": [],
      "lat": 23.75646,
      "lng": 120.6828461
    },
    {
      "name": "夢鄉引",
      "description": "",
      "area": "埔里鎮",
      "rating": 4.6,
      "reviews": 498,
      "categories": [
        "中式"
      ],
      "category": "中式",
      "tags": [],
      "_sort": 3,
      "dishes": [],
      "lat": 23.9663863,
      "lng": 120.9740804
    },
    {
      "name": "金都餐廳",
      "description": "超人氣台菜饗宴，豐富多樣的菜色讓人目不暇接。",
      "area": "埔里鎮",
      "rating": 4.6,
      "reviews": 8249,
      "categories": [
        "中式"
      ],
      "category": "中式",
      "tags": [],
      "_sort": 3,
      "dishes": [],
      "lat": 23.9737676,
      "lng": 120.9726439
    },
    {
      "name": "町固餐點坊/埔里親子餐廳/美食推薦/動物友善",
      "description": "動物友善親子餐廳, 供應美味中式台菜，適合全家共享的餐點。",
      "area": "埔里鎮",
      "rating": 4.6,
      "reviews": 462,
      "categories": [
        "中式"
      ],
      "category": "中式",
      "tags": [],
      "_sort": 3,
      "dishes": [],
      "lat": 23.9705832,
      "lng": 120.9666201
    },
    {
      "name": "埔里美食 家味香客家廚房",
      "description": "",
      "area": "埔里鎮",
      "rating": 4.6,
      "reviews": 2662,
      "categories": [
        "中式"
      ],
      "category": "中式",
      "tags": [],
      "_sort": 3,
      "dishes": [],
      "lat": 23.978606,
      "lng": 120.992549
    },
    {
      "name": "御品牛肉麵",
      "description": "招牌牛肉麵，肉質鮮嫩，令人一試成主顧。",
      "area": "埔里鎮",
      "rating": 4.6,
      "reviews": 981,
      "categories": [
        "中式"
      ],
      "category": "中式",
      "tags": [],
      "_sort": 3,
      "dishes": [],
      "lat": 23.9654881,
      "lng": 120.9671307
    },
    {
      "name": "一畝石鍋 埔里店",
      "description": "精緻的鍋品與新鮮食材，讓人忍不住多來幾次。",
      "area": "埔里鎮",
      "rating": 4.6,
      "reviews": 699,
      "categories": [
        "中式"
      ],
      "category": "中式",
      "tags": [],
      "_sort": 3,
      "dishes": [],
      "lat": 23.9702384,
      "lng": 120.9547515
    },
    {
      "name": "肉多多火鍋-草屯太平店",
      "description": "招牌火鍋選擇多樣，肉品新鮮，人氣火鍋店。",
      "area": "草屯鎮",
      "rating": 4.6,
      "reviews": 608,
      "categories": [
        "火鍋"
      ],
      "category": "火鍋",
      "tags": [],
      "_sort": 3,
      "dishes": [],
      "lat": 23.9711246,
      "lng": 120.6831918
    },
    {
      "name": "億品鍋-南投埔里店",
      "description": "火鍋選擇豐富，食材新鮮，適合聚餐。",
      "area": "埔里鎮",
      "rating": 4.6,
      "reviews": 801,
      "categories": [
        "火鍋"
      ],
      "category": "火鍋",
      "tags": [],
      "_sort": 3,
      "dishes": [],
      "lat": 23.9734597,
      "lng": 120.9723855
    },
    {
      "name": "方舟水產",
      "description": "新鮮海鮮與中式料理的完美搭配，受歡迎的餐廳。",
      "area": "草屯鎮",
      "rating": 4.6,
      "reviews": 984,
      "categories": [
        "中式"
      ],
      "category": "中式",
      "tags": [],
      "_sort": 3,
      "dishes": [],
      "lat": 23.9825311,
      "lng": 120.6764031
    },
    {
      "name": "享棧平價現炒餐廳/南投美食/餐廳/聚餐/附近美食/快炒/必吃",
      "description": "平價快炒美味，適合聚餐的好去處。",
      "area": "",
      "rating": 4.6,
      "reviews": 344,
      "categories": [
        "中式"
      ],
      "category": "中式",
      "tags": [],
      "_sort": 3,
      "dishes": [],
      "lat": 23.9113566,
      "lng": 120.6936677
    },
    {
      "name": "鐵帽咖啡",
      "description": "人氣咖啡喫茶，提供多樣化的飲品選擇，適合各類型的客人。",
      "area": "國姓鄉",
      "rating": 4.6,
      "reviews": 343,
      "categories": [
        "咖啡廳"
      ],
      "category": "咖啡廳",
      "tags": [],
      "_sort": 3,
      "dishes": [],
      "lat": 24.0275721,
      "lng": 120.8421158
    },
    {
      "name": "山間良物-國姓咖啡手造所",
      "description": "咖啡手造所，提供自然的咖啡氛圍，讓您感受山間的靜謐。",
      "area": "國姓鄉",
      "rating": 4.6,
      "reviews": 261,
      "categories": [
        "咖啡廳"
      ],
      "category": "咖啡廳",
      "tags": [],
      "_sort": 3,
      "dishes": [],
      "lat": 24.0241149,
      "lng": 120.8142059
    },
    {
      "name": "暐 お食事处",
      "description": "",
      "area": "埔里鎮",
      "rating": 4.6,
      "reviews": 579,
      "categories": [
        "中式"
      ],
      "category": "中式",
      "tags": [],
      "_sort": 3,
      "dishes": [],
      "lat": 23.9656053,
      "lng": 120.965886
    },
    {
      "name": "拉貝諾美妍冰淇淋",
      "description": "手工冰淇淋專賣，讓你體驗美",
      "area": "埔里鎮",
      "rating": 4.6,
      "reviews": 335,
      "categories": [
        "甜品"
      ],
      "category": "甜品",
      "tags": [],
      "_sort": 3,
      "dishes": [],
      "lat": 23.9696843,
      "lng": 120.9298742
    },
    {
      "name": "Buonissimo柏尼西蒙甜點工坊",
      "description": "",
      "area": "",
      "rating": 4.6,
      "reviews": 393,
      "categories": [
        "甜品"
      ],
      "category": "甜品",
      "tags": [],
      "_sort": 3,
      "dishes": [],
      "lat": 23.9604157,
      "lng": 120.9775295
    },
    {
      "name": "加賀屋燒肉 涮涮鍋",
      "description": "",
      "area": "埔里鎮",
      "rating": 4.6,
      "reviews": 767,
      "categories": [
        "西式"
      ],
      "category": "西式",
      "tags": [],
      "_sort": 3,
      "dishes": [],
      "lat": 23.9659696,
      "lng": 120.9651281
    },
    {
      "name": "牛丁次郎坊-南投集賢店",
      "description": "鮮嫩牛排搭配創意料理，讓你回味無窮。",
      "area": "",
      "rating": 4.6,
      "reviews": 766,
      "categories": [
        "西式"
      ],
      "category": "西式",
      "tags": [],
      "_sort": 3,
      "dishes": [],
      "lat": 23.9047885,
      "lng": 120.6848412
    },
    {
      "name": "山頂玻璃屋私房菜",
      "description": "以新鮮食材製作精緻台菜，人氣餐廳，讓人流連忘返。",
      "area": "魚池鄉",
      "rating": 4.6,
      "reviews": 1310,
      "categories": [
        "中式"
      ],
      "category": "中式",
      "tags": [],
      "_sort": 3,
      "dishes": [],
      "lat": 23.8379459,
      "lng": 120.9014577
    },
    {
      "name": "綠屋の食堂",
      "description": "招牌菜肴色香味俱全，適合家庭聚餐，深受食客推崇。",
      "area": "埔里鎮",
      "rating": 4.6,
      "reviews": 412,
      "categories": [
        "中式"
      ],
      "category": "中式",
      "tags": [],
      "_sort": 3,
      "dishes": [],
      "lat": 23.9426105,
      "lng": 120.9270699
    },
    {
      "name": "有水居創意餐坊",
      "description": "提供創意中式料理，人氣餐廳，菜品精緻美味。",
      "area": "埔里鎮",
      "rating": 4.6,
      "reviews": 1404,
      "categories": [
        "中式"
      ],
      "category": "中式",
      "tags": [],
      "_sort": 3,
      "dishes": [],
      "lat": 23.9431724,
      "lng": 120.9326934
    },
    {
      "name": "日日春.油飯",
      "description": "招牌油飯香氣四溢，成為夜市中受歡迎的選擇。",
      "area": "南投市",
      "rating": 4.6,
      "reviews": 251,
      "categories": [
        "中式"
      ],
      "category": "中式",
      "tags": [],
      "_sort": 3,
      "dishes": [],
      "lat": 23.9058825,
      "lng": 120.6903886
    },
    {
      "name": "逗花.豆花",
      "description": "甜品中的人氣之選，口感滑嫩，讓人一試成主顧。",
      "area": "埔里鎮",
      "rating": 4.6,
      "reviews": 712,
      "categories": [
        "中式"
      ],
      "category": "中式",
      "tags": [],
      "_sort": 3,
      "dishes": [],
      "lat": 23.9692182,
      "lng": 120.9650449
    },
    {
      "name": "竹山三十年代蕃薯竹筍包",
      "description": "",
      "area": "竹山鎮",
      "rating": 4.6,
      "reviews": 366,
      "categories": [
        "中式"
      ],
      "category": "中式",
      "tags": [],
      "_sort": 3,
      "dishes": [],
      "lat": 23.7573229,
      "lng": 120.6788887
    },
    {
      "name": "佳宏麵飯食堂",
      "description": "",
      "area": "竹山鎮",
      "rating": 4.6,
      "reviews": 136,
      "categories": [
        "中式"
      ],
      "category": "中式",
      "tags": [],
      "_sort": 3,
      "dishes": [],
      "lat": 23.7668292,
      "lng": 120.7065662
    },
    {
      "name": "蕭家麵館（中山店）",
      "description": "手工麵條彈牙，湯頭鮮美，吃過就想再來。",
      "area": "竹山鎮",
      "rating": 4.6,
      "reviews": 102,
      "categories": [
        "中式"
      ],
      "category": "中式",
      "tags": [],
      "_sort": 3,
      "dishes": [],
      "lat": 23.7504201,
      "lng": 120.6766448
    },
    {
      "name": "涼涼食茶",
      "description": "清新飲品與小吃搭配，讓人感受夏日清爽。",
      "area": "草屯鎮",
      "rating": 4.6,
      "reviews": 298,
      "categories": [
        "中式"
      ],
      "category": "中式",
      "tags": [],
      "_sort": 3,
      "dishes": [],
      "lat": 23.9751389,
      "lng": 120.6858889
    },