{
  "routes": [
    {
      "name": "台北最經典101一日遊",
      "stops": [
        "國父紀念館",
        "四四南村",
        "吉米月亮公車",
        "台北101觀景台/象山夜景"
      ],
      "description": "台北最經典路線",
      "tags": [
        "一般路線"
      ],
      "lat": 25.0329636,
      "lng": 121.5654268
    },
    {
      "name": "總統府＆華山文創一日遊",
      "stops": [
        "總統府",
        "華山文創園區",
        "台灣博物館",
        "228公園"
      ],
      "description": "文青路線",
      "tags": [
        "一般路線"
      ],
      "lat": 25.0440698,
      "lng": 121.5293583
    },
    {
      "name": "松山文創＆中正紀念堂一日遊",
      "stops": [
        "松山文創園區",
        "中正紀念堂",
        "袖珍博物館",
        "寧夏夜市"
      ],
      "description": "文創+夜市",
      "tags": [
        "一般路線"
      ],
      "lat": 25.0450413,
      "lng": 121.5603762
    },
    {
      "name": "北投溫泉一日遊",
      "stops": [
        "北投市場",
        "新北投車站",
        "北投圖書館",
        "溫泉博物館",
        "地熱谷",
        "硫磺谷",
        "北投溫泉飯店泡湯"
      ],
      "description": "溫泉之旅",
      "tags": [
        "一般路線"
      ],
      "lat": 25.133891,
      "lng": 121.5010051
    },
    {
      "name": "陽明山賞花一日遊",
      "stops": [
        "竹子湖採海芋/繡球花",
        "小油坑",
        "擎天崗",
        "冷水坑",
        "夢幻湖",
        "陽明山溫泉泡湯"
      ],
      "description": "依季節而定",
      "tags": [
        "一般路線"
      ],
      "lat": 25.1683059,
      "lng": 121.5388751
    },
    {
      "name": "古蹟＆潮流衝突一日遊",
      "stops": [
        "剝皮寮",
        "龍山寺",
        "西門町商圈",
        "西門町住一晚"
      ],
      "description": "古今交錯",
      "tags": [
        "一般路線"
      ],
      "lat": 25.0329636,
      "lng": 121.5654268
    },
    {
      "name": "台灣第一學府知性一日遊",
      "stops": [
        "台灣大學",
        "自來水博物館",
        "寶藏巖",
        "公館商圈"
      ],
      "description": "知性路線",
      "tags": [
        "一般路線"
      ],
      "lat": 25.1334522,
      "lng": 121.5023706
    },
    {
      "name": "故宮親子寓教於樂一日遊",
      "stops": [
        "故宮/兒童樂園",
        "科學教育館/天文科學教育館",
        "士林夜市"
      ],
      "description": "親子路線",
      "tags": [
        "一般路線"
      ],
      "lat": 25.1023554,
      "lng": 121.5484925
    },
    {
      "name": "動物園、貓空親子一日遊",
      "stops": [
        "動物園",
        "貓空一日遊"
      ],
      "description": "親子路線",
      "tags": [
        "一般路線"
      ],
      "lat": 24.972981,
      "lng": 121.5883709
    },
    {
      "name": "大稻埕行天宮古蹟一日遊",
      "stops": [
        "迪化街",
        "大稻埕",
        "行天宮",
        "永康商圈"
      ],
      "description": "懷舊路線",
      "tags": [
        "一般路線"
      ],
      "lat": 25.0628658,
      "lng": 121.5338733
    },
    {
      "name": "碧潭＆烏來一日遊",
      "stops": [
        "碧潭",
        "烏來老街",
        "烏來台車",
        "烏來瀑布",
        "烏來溫泉泡湯"
      ],
      "description": "新北景點",
      "tags": [
        "一般路線"
      ],
      "lat": 24.8663721,
      "lng": 121.5497801
    },
    {
      "name": "淡水一日遊",
      "stops": [
        "淡水老街",
        "小白宮",
        "淡水紅毛城",
        "漁人碼頭",
        "淡水住一晚"
      ],
      "description": "新北景點",
      "tags": [
        "一般路線"
      ],
      "lat": 25.1719805,
      "lng": 121.4433706
    },
    {
      "name": "平溪一日遊",
      "stops": [
        "猴硐貓村",
        "十分老街",
        "十分瀑布",
        "平溪老街",
        "菁桐老街"
      ],
      "description": "新北景點",
      "tags": [
        "一般路線"
      ],
      "lat": 25.0248314,
      "lng": 121.7408654
    },
    {
      "name": "石碇＆深坑一日遊",
      "stops": [
        "石碇千鳥湖",
        "石碇老街",
        "許家手工麵線",
        "深坑老街"
      ],
      "description": "新北景點",
      "tags": [
        "一般路線"
      ],
      "lat": 25.0033792,
      "lng": 121.6169002
    },
    {
      "name": "台北雨天文青一日遊・故宮到松菕",
      "description": "雨天最適合逛博物館，上午看故宮國寶，中午到士林吃小吃，下午到科學教育館看展覽，傍晚到松山文創園區逛設計小店",
      "stops": [
        "國立故宮博物院",
        "士林夜市",
        "國立台灣科學教育館",
        "誠品生活松菕店",
        "松山文創園區"
      ],
      "tags": [
        "雨天路線"
      ],
      "lat": 25.1023554,
      "lng": 121.5484925
    },
    {
      "name": "台北樂齡植物園散步",
      "description": "長輩最愛的台北平地路線，從228公園悠閒散步，到中正紀念堂看憲兵交接，再到永康商圈吃鼎泰豐，全程平地好走",
      "stops": [
        "228公園",
        "台灣博物館",
        "中正紀念堂",
        "永康商圈",
        "鼎泰豐信義店"
      ],
      "tags": [
        "樂齡路線"
      ],
      "lat": 25.0329636,
      "lng": 121.5654268
    },
    {
      "name": "台北牛肉麵一條街吃到飽",
      "description": "台北是牛肉麵一級戰區，從建宏到林東芳再到穆記，一次收集台北三大名店，中途穿插阜杭豆漿和劉芋仔，麵食控的朝聖之旅",
      "stops": [
        "阜杭豆漿",
        "建宏牛肉麵",
        "林東芳牛肉麵",
        "穆記牛肉麵",
        "劉芋仔"
      ],
      "tags": [
        "景點加美食"
      ],
      "lat": 25.0329636,
      "lng": 121.5654268
    },
    {
      "name": "食尚玩家・台北捷運經典觀光一日遊",
      "description": "搭捷運玩台北經典路線，從中正紀念堂出發，逛永康街吃午餐，上台北101觀景台看城市天際線，傍晚象山看夕陽，晚上饒河夜市收尾",
      "stops": [
        "中正紀念堂",
        "永康街",
        "台北101觀景台",
        "象山步道",
        "信義商圈",
        "饒河夜市"
      ],
      "tags": [
        "食尚玩家"
      ],
      "lat": 25.0329636,
      "lng": 121.5654268
    },
    {
      "name": "食尚玩家・台北老城文化散步路線",
      "description": "走訪萬華古蹟與老街，從龍山寺拜拜出發，逛剝皮寮紅磚街屋，轉西門町快閃，再到迪化街大稻埕看夕陽，晚上寧夏夜市吃小吃",
      "stops": [
        "龍山寺",
        "剝皮寮歷史街區",
        "西門町",
        "迪化街",
        "大稻埕碼頭",
        "寧夏夜市"
      ],
      "tags": [
        "食尚玩家"
      ],
      "lat": 25.0254651,
      "lng": 121.4975001
    },
    {
      "name": "食尚玩家・台北南機場美食與植物園一日遊",
      "description": "走訪南機場夜市必比登美食，順遊免門票植物園與翻新史博館，吃遍山內雞肉、吾旺再季、阿男麻油雞等名店",
      "stops": [
        "台北植物園",
        "國立歷史博物館",
        "南機場夜市",
        "山內雞肉",
        "吾旺再季",
        "阿男麻油雞",
        "臭老闆臭豆腐"
      ],
      "tags": [
        "食尚玩家"
      ],
      "lat": 25.0291811,
      "lng": 121.5059244
    },
    {
      "name": "食尚玩家・台北玫瑰展晴光市場一日遊",
      "description": "春季限定台北玫瑰展攻略，從行天宮出發，逛晴光市場吃美食，賞全台最大玫瑰花展，再到北美館看展，最後圓山周邊吃美食",
      "stops": [
        "行天宮",
        "晴光市場",
        "花博新生園區玫瑰展",
        "北美館",
        "圓山驛關東煮",
        "不萊梅義大利麵",
        "第一土鵝"
      ],
      "tags": [
        "食尚玩家"
      ],
      "lat": 25.0693501,
      "lng": 121.5287696
    },
    {
      "name": "食尚玩家・北投溫泉一條街日式浴場行",
      "description": "搭捷運到北投，泡百年日式浴場，走京都風老宅打卡，吃氣球蔥油餅，感受台北唯一溫泉鄉的日式氛圍",
      "stops": [
        "日勝生加賀屋",
        "北投溫泉街",
        "京都風老宅",
        "氣球蔥油餅",
        "北投市場"
      ],
      "tags": [
        "食尚玩家"
      ],
      "lat": 25.133891,
      "lng": 121.5010051
    }
  ],
  "spots": [
    {
      "county": "台北",
      "name": "國父紀念館",
      "area": "台北最經典101",
      "rating": 4.5,
      "reviews": 20767,
      "description": "紀念國父孫中山，台北文青展演空間",
      "lat": 25.0329694,
      "lng": 121.5654177
    },
    {
      "county": "台北",
      "name": "四四南村",
      "area": "台北最經典101",
      "rating": 4.4,
      "reviews": 2757,
      "description": "台灣第一眷村，簡單市集與古蹟",
      "lat": 25.0315454,
      "lng": 121.5618806
    },
    {
      "county": "台北",
      "name": "吉米月亮公車",
      "area": "台北最經典101",
      "rating": 4.3,
      "reviews": 3576,
      "description": "幾米裝置藝術，月亮公車打卡熱點",
      "lat": 25.0327587,
      "lng": 121.5657351
    },
    {
      "county": "台北",
      "name": "台北101觀景台/象山夜景",
      "area": "台北最經典101",
      "rating": 4.5,
      "reviews": 38545,
      "description": "台北地標觀景台，俯瞰台北全景",
      "lat": 25.0336752,
      "lng": 121.5648831
    },
    {
      "county": "台北",
      "name": "總統府",
      "area": "總統府＆華山文創",
      "rating": 4.4,
      "reviews": 4195,
      "description": "台灣最高權力中心，巴洛克建築地標",
      "lat": 25.0399991,
      "lng": 121.5119507
    },
    {
      "county": "台北",
      "name": "華山文創園區",
      "area": "總統府＆華山文創",
      "rating": 4.5,
      "reviews": 74108,
      "description": "酒廠改建文創園區，展演市集齊聚",
      "lat": 25.0450426,
      "lng": 121.5278941
    },
    {
      "county": "台北",
      "name": "台灣博物館",
      "area": "總統府＆華山文創",
      "rating": 4.5,
      "reviews": 13504,
      "description": "台灣最古老博物館，自然史常設展",
      "lat": 25.0440698,
      "lng": 121.5293583
    },
    {
      "county": "台北",
      "name": "228公園",
      "area": "總統府＆華山文創",
      "rating": 4.2,
      "reviews": 24883,
      "description": "台北市中心公園，歷史紀念與休憩",
      "lat": 25.0440698,
      "lng": 121.5293583
    },
    {
      "county": "台北",
      "name": "松山文創園區",
      "area": "松山文創＆中正紀念堂",
      "rating": 4.4,
      "reviews": 51975,
      "description": "菸廠改建文創聚落，展覽市集不斷",
      "lat": 25.0435962,
      "lng": 121.5594021
    },
    {
      "county": "台北",
      "name": "中正紀念堂",
      "area": "松山文創＆中正紀念堂",
      "rating": 4.5,
      "reviews": 81994,
      "description": "紀念蔣中正的國家級建築，衛兵交接必看",
      "lat": 25.0438366,
      "lng": 121.5606383
    },
    {
      "county": "台北",
      "name": "袖珍博物館",
      "area": "松山文創＆中正紀念堂",
      "rating": 4.4,
      "reviews": 6480,
      "description": "亞洲首座袖珍藝術主題博物館",
      "lat": 25.050421,
      "lng": 121.5360584
    },
    {
      "county": "台北",
      "name": "寧夏夜市",
      "area": "松山文創＆中正紀念堂",
      "rating": 4.2,
      "reviews": 60859,
      "description": "台北最受好評夜市，古早味小吃天堂",
      "lat": 25.0566808,
      "lng": 121.5153641
    },
    {
      "county": "台北",
      "name": "北投市場",
      "area": "北投溫泉",
      "rating": 4.1,
      "reviews": 6786,
      "description": "北投在地市場，溫泉之旅必訪",
      "lat": 25.1332453,
      "lng": 121.5024487
    },
    {
      "county": "台北",
      "name": "新北投車站",
      "area": "北投溫泉",
      "rating": 4.4,
      "reviews": 5797,
      "description": "百年木造車站，溫泉鄉入口地標",
      "lat": 25.1366463,
      "lng": 121.5034598
    },
    {
      "county": "台北",
      "name": "北投圖書館",
      "area": "北投溫泉",
      "rating": 4.6,
      "reviews": 3363,
      "description": "全台最美綠建築圖書館，森林中閱讀",
      "lat": 25.1364397,
      "lng": 121.5062909
    },
    {
      "county": "台北",
      "name": "溫泉博物館",
      "area": "北投溫泉",
      "rating": 4.5,
      "reviews": 11836,
      "description": "百年溫泉浴場改建，北投歷史見證",
      "lat": 25.1365694,
      "lng": 121.50715
    },
    {
      "county": "台北",
      "name": "地熱谷",
      "area": "北投溫泉",
      "rating": 4.6,
      "reviews": 1672,
      "description": "溫泉源頭硫磺蒸氣，免費煮蛋體驗",
      "lat": 25.137894,
      "lng": 121.5118863
    },
    {
      "county": "台北",
      "name": "硫磺谷",
      "area": "北投溫泉",
      "rating": 4.4,
      "reviews": 4142,
      "description": "硫磺地熱景觀，溫泉步道免費泡腳",
      "lat": 25.1435677,
      "lng": 121.521203
    },
    {
      "county": "台北",
      "name": "北投溫泉飯店泡湯",
      "area": "北投溫泉",
      "rating": 4.1,
      "reviews": 4628,
      "description": "北投溫泉鄉，百年泡湯文化體驗",
      "lat": 25.1360164,
      "lng": 121.5103605
    },
    {
      "county": "台北",
      "name": "竹子湖採海芋/繡球花",
      "area": "陽明山賞花",
      "rating": 4.3,
      "reviews": 700,
      "description": "陽明山花季限定，海芋繡球花海",
      "lat": 25.1683059,
      "lng": 121.5388751
    },
    {
      "county": "台北",
      "name": "小油坑",
      "area": "陽明山賞花",
      "rating": 4.6,
      "reviews": 6360,
      "description": "陽明山火山噴氣孔，硫磺地質奇觀",
      "lat": 25.176864,
      "lng": 121.547523
    },
    {
      "county": "台北",
      "name": "擎天崗",
      "area": "陽明山賞花",
      "rating": 4.6,
      "reviews": 19625,
      "description": "陽明山草原牛群，台北最美高地草原",
      "lat": 25.165756,
      "lng": 121.5753508
    },
    {
      "county": "台北",
      "name": "冷水坑",
      "area": "陽明山賞花",
      "rating": null,
      "reviews": null,
      "description": "陽明山免費溫泉池，登山休息站",
      "lat": 25.1655828,
      "lng": 121.5640191
    },
    {
      "county": "台北",
      "name": "夢幻湖",
      "area": "陽明山賞花",
      "rating": 4.4,
      "reviews": 300,
      "description": "陽明山高山湖泊，生態保護區",
      "lat": 25.1667829,
      "lng": 121.5602805
    },
    {
      "county": "台北",
      "name": "陽明山溫泉泡湯",
      "area": "陽明山賞花",
      "rating": 4.1,
      "reviews": 1334,
      "description": "陽明山溫泉區，台北最近泡湯勝地",
      "lat": 25.1683059,
      "lng": 121.5388751
    },
    {
      "county": "台北",
      "name": "剝皮寮",
      "area": "古蹟＆潮流衝突",
      "rating": 4.2,
      "reviews": 13662,
      "description": "萬華歷史街區，清代建築活保存",
      "lat": 25.036838,
      "lng": 121.5021648
    },
    {
      "county": "台北",
      "name": "龍山寺",
      "area": "古蹟＆潮流衝突",
      "rating": 4.5,
      "reviews": 49207,
      "description": "台北最古老寺廟，國定古蹟信仰中心",
      "lat": 25.0373106,
      "lng": 121.4998654
    },
    {
      "county": "台北",
      "name": "西門町商圈",
      "area": "古蹟＆潮流衝突",
      "rating": 4.4,
      "reviews": 10539,
      "description": "台北年輕潮流聖地，西門紅樓地標",
      "lat": 25.0428337,
      "lng": 121.5077445
    },
    {
      "county": "台北",
      "name": "西門町住一晚",
      "area": "古蹟＆潮流衝突",
      "rating": 4.9,
      "reviews": 26182,
      "description": "西門町住宿體驗，夜生活不間斷",
      "lat": 25.0446664,
      "lng": 121.5063096
    },
    {
      "county": "台北",
      "name": "台灣大學",
      "area": "台灣第一學府知性",
      "rating": 4.6,
      "reviews": 6739,
      "description": "台灣第一學府，椰林大道校園美景",
      "lat": 25.1334522,
      "lng": 121.5023706
    },
    {
      "county": "台北",
      "name": "自來水博物館",
      "area": "台灣第一學府知性",
      "rating": 4.3,
      "reviews": 5019,
      "description": "巴洛克式自來水廠建築，婚紗熱點",
      "lat": 25.0125283,
      "lng": 121.5300223
    },
    {
      "county": "台北",
      "name": "寶藏巖",
      "area": "台灣第一學府知性",
      "rating": 4.3,
      "reviews": 7723,
      "description": "違建聚落改建藝術村，河岸山城",
      "lat": 25.0105988,
      "lng": 121.5332629
    },
    {
      "county": "台北",
      "name": "公館商圈",
      "area": "台灣第一學府知性",
      "rating": 4.2,
      "reviews": 1166,
      "description": "台大旁學生商圈，美食小吃聚集",
      "lat": 25.0137201,
      "lng": 121.5347221
    },
    {
      "county": "台北",
      "name": "故宮/兒童樂園",
      "area": "故宮親子寓教於樂",
      "rating": 4.6,
      "reviews": 509,
      "description": "世界級中華文物典藏，必看翠玉白菜",
      "lat": 25.1020891,
      "lng": 121.5483432
    },
    {
      "county": "台北",
      "name": "科學教育館/天文科學教育館",
      "area": "故宮親子寓教於樂",
      "rating": 4.6,
      "reviews": 13414,
      "description": "互動科學展覽與天文館，親子首選",
      "lat": 25.0959417,
      "lng": 121.5192048
    },
    {
      "county": "台北",
      "name": "士林夜市",
      "area": "故宮親子寓教於樂",
      "rating": 4.1,
      "reviews": 20720,
      "description": "台北最大夜市，多樣小吃與遊戲",
      "lat": 25.0884972,
      "lng": 121.5243504
    },
    {
      "county": "台北",
      "name": "動物園",
      "area": "動物園、貓空親子",
      "rating": 4.6,
      "reviews": 77563,
      "description": "亞洲最大動物園，貓熊企鵝明星動物",
      "lat": 24.972981,
      "lng": 121.5883709
    },
    {
      "county": "台北",
      "name": "貓空一日遊",
      "area": "動物園、貓空親子",
      "rating": 4.5,
      "reviews": 4997,
      "description": "搭纜車上貓空品茶，台北茶鄉體驗",
      "lat": 24.972981,
      "lng": 121.5883709
    },
    {
      "county": "台北",
      "name": "迪化街",
      "area": "大稻埕行天宮古蹟",
      "rating": null,
      "reviews": null,
      "description": "台北最古老商街，中藥乾貨南北貨集散",
      "lat": 25.0628658,
      "lng": 121.5338733
    },
    {
      "county": "台北",
      "name": "大稻埕",
      "area": "大稻埕行天宮古蹟",
      "description": "清末台北商業重心，懷舊文創復興",
      "lat": 25.05658135568174,
      "lng": 121.507134999781
    },
    {
      "county": "台北",
      "name": "行天宮",
      "area": "大稻埕行天宮古蹟",
      "rating": 4.7,
      "reviews": 19398,
      "description": "台北知名關帝廟，收驚信仰熱門",
      "lat": 25.0628658,
      "lng": 121.5338733
    },
    {
      "county": "台北",
      "name": "永康商圈",
      "area": "大稻埕行天宮古蹟",
      "rating": 4.2,
      "reviews": 1739,
      "description": "芒果冰牛肉麵發源地，文青美食街",
      "lat": 25.0335158,
      "lng": 121.5300045
    },
    {
      "name": "九斗村農場(官方LINEID:@abc101洽詢、預約請加入)團康大型活動 家庭日 戶外教學 迎新露營 有機農場生態現採蔬果 推薦人氣好玩",
      "description": "位於台北近郊的有機休閒農場，提供團康活動、露營、生態導覽與現採蔬果體驗，適合家庭出遊、戶外教學與企業家庭日活動。",
      "area": "其他",
      "rating": 4.9,
      "reviews": 17598,
      "tags": [],
      "lat": 24.9607349,
      "lng": 121.1289554
    },
    {
      "name": "大湖公園",
      "description": "位於台北內湖的都會公園，以白鷺鷥造型的錦帶橋與湖光山色聞名，環湖步道與錦帶橋倒影是台北最美的拍照景點之一。",
      "area": "其他",
      "rating": 4.5,
      "reviews": 19421,
      "tags": [],
      "lat": 25.0825351,
      "lng": 121.603164
    },
    {
      "name": "陽明山國家公園",
      "description": "台灣最接近都會區的國家公園，以大屯火山群地景為特色，擁有溫泉、硫磺地熱、高山草原與豐富生態，是台北人賞花泡湯與登山的首選。",
      "area": "其他",
      "rating": 4.5,
      "reviews": 25866,
      "tags": [],
      "lat": 25.1942462,
      "lng": 121.5609363
    },
    {
      "name": "延平河濱公園",
      "description": "位於台北大同區的河濱公園，沿淡水河畔設有自行車道與運動設施，可欣賞夕陽與大稻埕碼頭景色，是市民河岸散步與騎車的休閒好去處。",
      "area": "其他",
      "rating": 4.3,
      "reviews": 13039,
      "tags": [],
      "lat": 25.054116,
      "lng": 121.507081
    },
    {
      "name": "臺北植物園",
      "description": "位於台北南海路的歷史植物園，創建於日治時期，收藏超過2000種植物，有荷花池與歷史建築，是市區內的植物知識與賞荷勝地。",
      "area": "其他",
      "rating": 4.6,
      "reviews": 11914,
      "tags": [],
      "lat": 25.0318511,
      "lng": 121.5094593
    },
    {
      "name": "北投溫泉博物館",
      "description": "位於台北北投的溫泉博物館，原為日治時期的公共浴場，展示北投溫泉發展史與溫泉地質，建築本身即為歷史古蹟。",
      "area": "其他",
      "rating": 4.5,
      "reviews": 11840,
      "tags": [],
      "lat": 25.1365694,
      "lng": 121.50715
    },
    {
      "name": "國立臺灣博物館",
      "description": "台灣歷史最悠久的博物館，位於台北二二八和平公園內，建築為希臘古典風格，展示台灣自然史、原住民文化與生物多樣性。",
      "area": "其他",
      "rating": 4.5,
      "reviews": 13510,
      "tags": [],
      "lat": 25.0427872,
      "lng": 121.5151192
    },
    {
      "name": "華山1914文化創意產業園區",
      "description": "位於台北市的文創園區，由日治時期酒廠改建，提供展覽、表演、市集與文創商店，是台灣文創產業的指標性據點。",
      "area": "其他",
      "rating": 4.5,
      "reviews": 74112,
      "tags": [],
      "lat": 25.0440698,
      "lng": 121.5293583
    },
    {
      "name": "臺北市立美術館",
      "description": "台灣第一座現代美術館，位於圓山花博公園旁，收藏與展示台灣現代藝術作品，建築為現代主義風格，是台灣美術發展的重鎮。",
      "area": "其他",
      "rating": 4.6,
      "reviews": 18794,
      "tags": [],
      "lat": 25.072136,
      "lng": 121.5244037
    },
    {
      "name": "臺北市立兒童新樂園",
      "description": "位於士林的台北市兒童樂園，提供旋轉木馬、摩天輪、雲霄飛車等遊樂設施，結合天文科學館與兒童館，適合親子出遊。",
      "area": "其他",
      "rating": 4.5,
      "reviews": 37487,
      "tags": [],
      "lat": 25.0972351,
      "lng": 121.514951
    },
    {
      "name": "轉角小市場",
      "area": "北投",
      "rating": 4.6,
      "reviews": 211,
      "description": "特色小吃琳瑯滿目，讓人流連忘返，是夜市的亮點。",
      "lat": 25.134363,
      "lng": 121.5024853
    },
    {
      "name": "臺北市公有士林市場",
      "area": "士林",
      "rating": 4.1,
      "reviews": 1668,
      "description": "人氣市場小吃，琳瑯滿目，滿足各種味蕾需求。",
      "lat": 25.0880024,
      "lng": 121.5241766
    },
    {
      "name": "臨江市場",
      "area": "大安",
      "rating": 4.1,
      "reviews": 496,
      "description": "多樣小吃選擇，讓你品味台灣地道美食的好去處。",
      "lat": 25.0294555,
      "lng": 121.5571479
    },
    {
      "name": "水源市場",
      "area": "中正",
      "rating": 4.1,
      "reviews": 7507,
      "description": "多樣化小吃選擇，超人氣的夜市美食天堂。",
      "lat": 25.013569,
      "lng": 121.5349937
    }
  ],
  "souvenirs": [
    {
      "name": "佳德糕餅",
      "area": "松山",
      "description": "台北名產鳳梨酥，年節送禮熱門",
      "lat": 25.0512434,
      "lng": 121.5614407
    },
    {
      "name": "維格餅家",
      "area": "北投",
      "description": "鳳梨酥名店，伴手禮排行榜常客",
      "lat": 25.1151759,
      "lng": 121.515018
    },
    {
      "name": "台北犁記糕餅",
      "area": "大同",
      "description": "百年老店，綠豆椪和咖哩餅必買",
      "lat": 25.0485971,
      "lng": 121.5340321
    },
    {
      "name": "新東陽",
      "area": "台北市",
      "description": "肉鬆肉乾老牌，台灣伴手禮代表",
      "lat": 25.0329636,
      "lng": 121.5654268
    },
    {
      "name": "老天祿滷味",
      "area": "西門町",
      "description": "西門町老牌滷味，鴨舌頭最出名",
      "lat": 25.0447183,
      "lng": 121.5072228
    },
    {
      "name": "佳德鳳梨酥",
      "description": "",
      "area": "其他",
      "rating": 4.2,
      "reviews": 15867,
      "tags": [],
      "lat": 25.0512434,
      "lng": 121.5614407
    },
    {
      "name": "小潘蛋糕坊 板橋中正店",
      "description": "",
      "area": "其他",
      "rating": 4.2,
      "reviews": 10238,
      "tags": [],
      "lat": 25.0154824,
      "lng": 121.4559405
    }
  ],
  "food": [
    {
      "name": "雙月食品社北投店",
      "description": "連續七年米其林必比登推薦雞湯專賣店，澎湃蛤蠣雞湯",
      "area": "北投",
      "rating": 4.9,
      "reviews": 11467,
      "categories": [
        "中式"
      ],
      "michelin": "bib",
      "category": "中式",
      "tags": [
        "sp",
        "michelin-bib"
      ],
      "_sort": 0,
      "dishes_searched": true,
      "lat": 25.1358382,
      "lng": 121.505752
    },
    {
      "name": "吾旺再季",
      "description": "招牌中式台菜，人氣餐廳，菜品鮮美。",
      "area": "大安",
      "rating": 4.2,
      "reviews": 1066,
      "categories": [
        "中式"
      ],
      "michelin": "bib",
      "tags": [
        "sp",
        "michelin-bib"
      ],
      "category": "中式",
      "_sort": 0,
      "dishes": [],
      "lat": 25.0287579,
      "lng": 121.5067236
    },
    {
      "name": "祥和蔬食料理（鎮江店）",
      "description": "素食餐廳，提供健康蔬食料理。",
      "area": "中正",
      "rating": 4.4,
      "reviews": 1681,
      "categories": [
        "素食"
      ],
      "tags": [
        "michelin-bib"
      ],
      "category": "素食",
      "_sort": 1,
      "dishes": [],
      "lat": 25.0443616,
      "lng": 121.5217918
    },
    {
      "name": "天下三絕麵食館",
      "description": "招牌麵食口感豐富，深受食客喜愛。",
      "area": "",
      "rating": 4.3,
      "reviews": 3062,
      "categories": [
        "中式"
      ],
      "category": "中式",
      "tags": [
        "michelin-bib"
      ],
      "_sort": 1,
      "dishes": [],
      "lat": 25.03888,
      "lng": 121.5453168
    },
    {
      "name": "杭州小籠湯包",
      "description": "湯包皮薄多汁，搭配清爽配菜",
      "area": "大安",
      "rating": 3.8,
      "reviews": 9074,
      "categories": [
        "中式"
      ],
      "michelin": "bib",
      "category": "中式",
      "tags": [
        "michelin-bib"
      ],
      "_sort": 1,
      "dishes": [],
      "lat": 25.0340691,
      "lng": 121.523723
    },
    {
      "name": "老山東牛肉家常麵店",
      "description": "牛肉麵與山東餃子，西門町老店",
      "area": "萬華",
      "rating": 4,
      "reviews": 5499,
      "categories": [
        "中式"
      ],
      "michelin": "bib",
      "category": "中式",
      "tags": [
        "michelin-bib"
      ],
      "_sort": 1,
      "dishes": [],
      "lat": 25.0435797,
      "lng": 121.5060857
    },
    {
      "name": "無名推車燒餅",
      "description": "推車現烤燒餅，凌晨限定美食",
      "area": "大安",
      "rating": 3.5,
      "reviews": 878,
      "categories": [
        "中式"
      ],
      "michelin": "bib",
      "tags": [
        "michelin-bib"
      ],
      "category": "中式",
      "_sort": 1,
      "dishes": [],
      "lat": 25.0284445,
      "lng": 121.5067334
    },
    {
      "name": "雞家莊",
      "description": "老字號台菜餐廳，以雞湯與台式宴席菜聞名",
      "area": "中山",
      "rating": 4.2,
      "reviews": 4618,
      "categories": [
        "中式"
      ],
      "michelin": "bib",
      "category": "中式",
      "tags": [
        "michelin-selected"
      ],
      "_sort": 1,
      "dishes": [],
      "lat": 25.0508879,
      "lng": 121.5230394
    },
    {
      "name": "鍾家原上海生煎包",
      "description": "上海生煎包專賣，外皮酥脆內餡多汁",
      "area": "大安",
      "rating": 4.3,
      "reviews": 1698,
      "categories": [
        "中式"
      ],
      "michelin": "bib",
      "category": "中式",
      "tags": [
        "michelin-bib"
      ],
      "_sort": 1,
      "dishes": [],
      "lat": 25.0889159,
      "lng": 121.5262109
    },
    {
      "name": "大橋頭老牌筒仔米糕",
      "description": "傳統筒仔米糕與滷肉飯，大同區老字號",
      "area": "大同",
      "rating": 4.3,
      "reviews": 5344,
      "categories": [
        "中式"
      ],
      "michelin": "bib",
      "category": "中式",
      "tags": [
        "michelin-bib"
      ],
      "_sort": 1,
      "dishes": [],
      "lat": 25.0630769,
      "lng": 121.5135995
    },
    {
      "name": "好朋友涼麵",
      "description": "招牌麻醬涼麵與酸辣湯，夏日必吃",
      "area": "中正",
      "rating": 4.1,
      "reviews": 1689,
      "categories": [
        "中式"
      ],
      "michelin": "bib",
      "category": "中式",
      "tags": [
        "michelin-bib"
      ],
      "_sort": 1,
      "dishes": [],
      "lat": 25.0890906,
      "lng": 121.5255367
    },
    {
      "name": "小酌之家",
      "description": "台式熱炒與家常菜，深夜食堂氛圍",
      "area": "中山",
      "rating": 4.6,
      "reviews": 595,
      "categories": [
        "中式"
      ],
      "michelin": "bib",
      "category": "中式",
      "tags": [
        "michelin-bib"
      ],
      "_sort": 1,
      "dishes": [],
      "lat": 25.0659315,
      "lng": 121.5303149
    },
    {
      "name": "雄記蔥抓餅",
      "description": "酥香蔥抓餅與多樣配料，排隊名店",
      "area": "中正",
      "rating": 4.2,
      "reviews": 970,
      "categories": [
        "中式"
      ],
      "michelin": "bib",
      "category": "中式",
      "tags": [
        "michelin-bib"
      ],
      "_sort": 1,
      "dishes": [],
      "lat": 25.0134436,
      "lng": 121.5353398
    },
    {
      "name": "黃記魯肉飯",
      "description": "經典滷肉飯與紅燒肉，台北必吃",
      "area": "中山",
      "rating": 4.2,
      "reviews": 6295,
      "categories": [
        "中式"
      ],
      "michelin": "bib",
      "category": "中式",
      "tags": [
        "michelin-bib"
      ],
      "_sort": 1,
      "dishes": [],
      "lat": 25.0636698,
      "lng": 121.524142
    },
    {
      "name": "隱食家",
      "description": "精緻創意中菜，隱藏巷弄美食",
      "area": "信義",
      "rating": 4.4,
      "reviews": 504,
      "categories": [
        "中式"
      ],
      "michelin": "bib",
      "category": "中式",
      "tags": [
        "michelin-bib"
      ],
      "_sort": 1,
      "dishes": [],
      "lat": 25.0409201,
      "lng": 121.5720055
    },
    {
      "name": "人和園",
      "description": "北方麵食與家常菜，老字號麵館",
      "area": "中山",
      "rating": 4.4,
      "reviews": 2524,
      "categories": [
        "中式"
      ],
      "michelin": "bib",
      "category": "中式",
      "tags": [
        "michelin-bib"
      ],
      "_sort": 1,
      "dishes": [],
      "lat": 25.0607259,
      "lng": 121.5227606
    },
    {
      "name": "金賞軒",
      "description": "供應地道的中式台菜, 每道菜都讓人懷念家鄉味。",
      "area": "大安",
      "rating": 4.6,
      "reviews": 1119,
      "categories": [
        "中式"
      ],
      "michelin": "bib",
      "category": "中式",
      "tags": [
        "michelin-bib"
      ],
      "_sort": 1,
      "dishes": [],
      "lat": 25.0541469,
      "lng": 121.5525107
    },
    {
      "name": "小小樹食",
      "description": "創意蔬食餐廳，精緻素食料理",
      "area": "大安",
      "rating": 4.3,
      "reviews": 2677,
      "categories": [
        "素食"
      ],
      "michelin": "bib",
      "category": "素食",
      "tags": [
        "michelin-bib"
      ],
      "_sort": 1,
      "dishes": [],
      "lat": 25.0399012,
      "lng": 121.5448228
    },
    {
      "name": "賣麵炎仔",
      "description": "米粉湯與滷味小吃，大橋頭排隊店",
      "area": "大同",
      "rating": 4.2,
      "reviews": 5838,
      "categories": [
        "中式"
      ],
      "michelin": "bib",
      "category": "中式",
      "tags": [
        "michelin-bib"
      ],
      "_sort": 1,
      "dishes": [],
      "lat": 25.0610993,
      "lng": 121.5097861
    },
    {
      "name": "茂園",
      "description": "傳統台菜與海鮮料理，辦桌等級",
      "area": "中山",
      "rating": 4.1,
      "reviews": 3157,
      "categories": [
        "中式"
      ],
      "michelin": "bib",
      "category": "中式",
      "tags": [
        "michelin-bib"
      ],
      "_sort": 1,
      "dishes": [],
      "lat": 25.048428,
      "lng": 121.5426365
    },
    {
      "name": "番紅花印度美饌",
      "description": "印度咖哩與烤餅，道地印度味",
      "area": "大安",
      "rating": 4.4,
      "reviews": 1687,
      "categories": [
        "異國"
      ],
      "michelin": "bib",
      "category": "異國",
      "tags": [
        "michelin-bib"
      ],
      "_sort": 1,
      "dishes": [],
      "lat": 25.1175306,
      "lng": 121.5329886
    },
    {
      "name": "祥和蔬食",
      "description": "中式創意素食料理，葷食者也愛",
      "area": "中正",
      "rating": 4.5,
      "reviews": 2169,
      "categories": [
        "素食"
      ],
      "michelin": "bib",
      "category": "素食",
      "tags": [
        "michelin-bib"
      ],
      "_sort": 1,
      "dishes": [],
      "lat": 25.0443616,
      "lng": 121.5217918
    },
    {
      "name": "欣葉小聚",
      "description": "現代台菜與中式料理，欣葉體系",
      "area": "大安",
      "rating": 4.2,
      "reviews": 2193,
      "categories": [
        "中式"
      ],
      "michelin": "bib",
      "category": "中式",
      "tags": [
        "michelin-bib"
      ],
      "_sort": 1,
      "dishes": [],
      "lat": 25.0249441,
      "lng": 121.5433783
    },
    {
      "name": "心潮飯店",
      "description": "精緻的中式台菜, 總能帶給顧客美好的用餐體驗。",
      "area": "大安",
      "rating": 4.3,
      "reviews": 3324,
      "categories": [
        "中式"
      ],
      "michelin": "bib",
      "category": "中式",
      "tags": [
        "michelin-bib"
      ],
      "_sort": 1,
      "dishes": [],
      "lat": 25.0249441,
      "lng": 121.5433783
    },
    {
      "name": "軟食力",
      "description": "提供多樣甜品和冰品, 讓人回味無窮的咖啡時光。",
      "area": "大同",
      "rating": 4.1,
      "reviews": 2297,
      "categories": [
        "咖啡廳"
      ],
      "michelin": "bib",
      "category": "咖啡廳",
      "tags": [
        "michelin-bib"
      ],
      "_sort": 1,
      "dishes": [],
      "lat": 25.0642997,
      "lng": 121.53413
    },
    {
      "name": "松竹園",
      "description": "傳統中式台菜的好去處, 讓人感受到家的溫暖。",
      "area": "中山",
      "rating": 4.3,
      "reviews": 6357,
      "categories": [
        "中式"
      ],
      "michelin": "bib",
      "category": "中式",
      "tags": [
        "michelin-bib"
      ],
      "_sort": 1,
      "dishes": [],
      "lat": 25.1398123,
      "lng": 121.5676159
    },
    {
      "name": "巷子龍家常菜",
      "description": "以道地的家常菜取勝, 讓人感受到熟悉的味道。",
      "area": "大安",
      "rating": 3.9,
      "reviews": 819,
      "categories": [
        "中式"
      ],
      "michelin": "bib",
      "category": "中式",
      "tags": [
        "michelin-bib"
      ],
      "_sort": 1,
      "dishes": [],
      "lat": 25.035469,
      "lng": 121.5482533
    },
    {
      "name": "天下三絕",
      "description": "招牌麵食口感滑順, 吸引眾多食客前來一嚐為快。",
      "area": "大安",
      "rating": 4.3,
      "reviews": 3063,
      "categories": [
        "中式"
      ],
      "michelin": "bib",
      "category": "中式",
      "tags": [
        "michelin-bib"
      ],
      "_sort": 1,
      "dishes": [],
      "lat": 25.03888,
      "lng": 121.5453168
    },
    {
      "name": "醉楓園小館",
      "description": "以精緻中式台菜聞名, 總能讓食客感受到美味。",
      "area": "中山",
      "rating": 4.3,
      "reviews": 1782,
      "categories": [
        "中式"
      ],
      "michelin": "bib",
      "category": "中式",
      "tags": [
        "michelin-bib"
      ],
      "_sort": 1,
      "dishes": [],
      "lat": 25.0474562,
      "lng": 121.5497801
    },
    {
      "name": "小王煮瓜",
      "description": "滷肉飯與苦瓜湯，西門町平價美食",
      "area": "萬華",
      "rating": 4.1,
      "reviews": 14150,
      "categories": [
        "中式"
      ],
      "michelin": "bib",
      "category": "中式",
      "tags": [
        "michelin-bib"
      ],
      "_sort": 1,
      "dishes": [
        "之後更是門庭若市",
        "at DuckDuckGo",
        "推薦 招牌 at DuckDuckGo",
        "- 瑪姬幸福過日子",
        "招牌 at DuckDuckGo"
      ],
      "lat": 25.0392193,
      "lng": 121.4986043
    },
    {
      "name": "小品雅廚",
      "description": "精緻中式台菜，適合聚會，口味絕佳。",
      "area": "中山",
      "rating": 4,
      "reviews": 1863,
      "categories": [
        "中式"
      ],
      "michelin": "bib",
      "category": "中式",
      "tags": [
        "michelin-bib"
      ],
      "_sort": 1,
      "dishes": [],
      "lat": 25.0630748,
      "lng": 121.5288669
    },
    {
      "name": "一甲子餐飲",
      "description": "傳統米粉與羹湯，大橋頭老店",
      "area": "大同",
      "rating": 4.4,
      "reviews": 6817,
      "categories": [
        "中式"
      ],
      "michelin": "bib",
      "tags": [
        "michelin-bib"
      ],
      "category": "中式",
      "_sort": 1,
      "dishes": [],
      "lat": 25.0404022,
      "lng": 121.5021711
    },
    {
      "name": "源芳刈包",
      "description": "招牌刈包與四神湯，艋舺美食",
      "area": "萬華",
      "rating": 4.3,
      "reviews": 2880,
      "categories": [
        "中式"
      ],
      "michelin": "bib",
      "category": "中式",
      "tags": [
        "michelin-bib"
      ],
      "_sort": 1,
      "dishes": [],
      "lat": 25.0394056,
      "lng": 121.4985841
    },
    {
      "name": "HUGH dessert dining",
      "description": "精緻甜品與咖啡喫茶的完美結合，適合聚會放鬆。",
      "area": "大同",
      "rating": 4.5,
      "reviews": 202,
      "categories": [
        "咖啡廳"
      ],
      "michelin": "bib",
      "category": "咖啡廳",
      "tags": [
        "michelin-bib"
      ],
      "_sort": 1,
      "dishes": [],
      "lat": 25.0675764,
      "lng": 121.5121894
    },
    {
      "name": "清真中國牛肉麵食館 (大安)",
      "description": "",
      "area": "大安",
      "rating": 4.2,
      "reviews": 3776,
      "categories": [
        "中式"
      ],
      "category": "中式",
      "tags": [
        "michelin-bib"
      ],
      "_sort": 3,
      "dishes": [],
      "lat": 25.0420706,
      "lng": 121.5549566
    },
    {
      "name": "好公道金雞園",
      "description": "",
      "area": "大安",
      "rating": 3.9,
      "reviews": 4226,
      "categories": [
        "中式"
      ],
      "michelin": "bib",
      "category": "中式",
      "tags": [
        "michelin-bib"
      ],
      "_sort": 3,
      "dishes": [],
      "lat": 25.0307503,
      "lng": 121.529454
    },
    {
      "name": "施家鮮肉湯圓",
      "description": "甜品界的明星，肉餡豐富，口感滑嫩。",
      "area": "大同",
      "rating": 4.3,
      "reviews": 3752,
      "categories": [
        "甜品"
      ],
      "michelin": "bib",
      "category": "甜品",
      "tags": [
        "michelin-bib"
      ],
      "_sort": 3,
      "dishes": [],
      "lat": 25.065153,
      "lng": 121.5109816
    },
    {
      "name": "元味料理",
      "description": "",
      "area": "大同",
      "rating": 4.4,
      "reviews": 353,
      "categories": [
        "中式"
      ],
      "michelin": "bib",
      "category": "中式",
      "tags": [
        "michelin-bib"
      ],
      "_sort": 3,
      "dishes": [],
      "lat": 25.0507827,
      "lng": 121.5141209
    },
    {
      "name": "彭家園",
      "description": "經典中式台菜，適合家庭聚餐，人氣之選。",
      "area": "大安",
      "rating": 4.2,
      "reviews": 1323,
      "categories": [
        "中式"
      ],
      "michelin": "bib",
      "category": "中式",
      "tags": [
        "michelin-bib"
      ],
      "_sort": 3,
      "dishes": [],
      "lat": 25.0359237,
      "lng": 121.5476345
    },
    {
      "name": "阿城鵝肉",
      "description": "｜招牌鵝肉，肉質鮮嫩，人氣。",
      "area": "中山",
      "rating": 4.4,
      "reviews": 7853,
      "categories": [
        "中式"
      ],
      "michelin": "bib",
      "category": "中式",
      "tags": [
        "michelin-bib"
      ],
      "_sort": 3,
      "dishes": [],
      "lat": 25.0566217,
      "lng": 121.5300667
    },
    {
      "name": "阿國切仔麵",
      "description": "寧夏市場旁切仔麵，豬骨清湯",
      "area": "大同",
      "rating": 3.8,
      "reviews": 2143,
      "categories": [
        "中式"
      ],
      "michelin": "bib",
      "category": "中式",
      "tags": [
        "michelin-bib"
      ],
      "_sort": 3,
      "dishes": [],
      "lat": 25.0606145,
      "lng": 121.5211324
    },
    {
      "name": "都一處",
      "description": "北平菜館60年歷史，炸丸子必吃",
      "area": "信義",
      "rating": 4,
      "reviews": 3266,
      "categories": [
        "中式"
      ],
      "michelin": "bib",
      "category": "中式",
      "tags": [
        "michelin-selected"
      ],
      "_sort": 3,
      "dishes": [],
      "lat": 25.0372424,
      "lng": 121.5610468
    },
    {
      "name": "女娘的店",
      "description": "",
      "area": "士林",
      "rating": 4.3,
      "reviews": 1383,
      "categories": [
        "中式"
      ],
      "michelin": "bib",
      "category": "中式",
      "tags": [
        "michelin-bib"
      ],
      "_sort": 3,
      "dishes": [],
      "lat": 25.1183404,
      "lng": 121.5360648
    },
    {
      "name": "榮榮園",
      "description": "浙寧餐廳1965年，火靠排骨",
      "area": "大安",
      "rating": 4.1,
      "reviews": 3492,
      "categories": [
        "中式"
      ],
      "michelin": "bib",
      "category": "中式",
      "tags": [
        "michelin-bib"
      ],
      "_sort": 3,
      "dishes": [],
      "lat": 25.0335786,
      "lng": 121.5446388
    },
    {
      "name": "泰姬",
      "description": "北印菜色，香料與廚師來自印度",
      "area": "大安",
      "rating": 4.7,
      "reviews": 4311,
      "categories": [
        "異國"
      ],
      "michelin": "bib",
      "category": "異國",
      "tags": [
        "michelin-bib"
      ],
      "_sort": 3,
      "dishes": [],
      "lat": 25.0447362,
      "lng": 121.5458423
    },
    {
      "name": "昶鴻麵點",
      "description": "夜市小吃的經典之選，滿足你的味蕾。",
      "area": "萬華",
      "rating": 4.1,
      "reviews": 688,
      "categories": [
        "中式"
      ],
      "michelin": "bib",
      "category": "中式",
      "tags": [
        "michelin-bib"
      ],
      "_sort": 3,
      "dishes": [],
      "lat": 25.039475,
      "lng": 121.4985906
    },
    {
      "name": "高麗菜飯 原汁排骨湯",
      "description": "傳統台菜的絕妙搭配，令人回味無窮。",
      "area": "大同",
      "rating": 4,
      "reviews": 3156,
      "categories": [
        "中式"
      ],
      "michelin": "bib",
      "category": "中式",
      "tags": [
        "michelin-bib"
      ],
      "_sort": 3,
      "dishes": [],
      "lat": 25.0639091,
      "lng": 121.5112782
    },
    {
      "name": "磐石坊",
      "description": "經典台菜的匠心之作，讓人一試成主顧。",
      "area": "大安",
      "rating": 4.4,
      "reviews": 1041,
      "categories": [
        "中式"
      ],
      "michelin": "bib",
      "category": "中式",
      "tags": [
        "michelin-bib"
      ],
      "_sort": 3,
      "dishes": [],
      "lat": 25.0280665,
      "lng": 121.5512797
    },
    {
      "name": "阿國滷味",
      "description": "人氣夜市小吃，滷汁香醇，令人一再光顧。",
      "area": "松山",
      "rating": 3.5,
      "reviews": 456,
      "categories": [
        "中式"
      ],
      "michelin": "bib",
      "nm_area": "饒河街觀光夜市",
      "category": "中式",
      "tags": [
        "michelin-bib"
      ],
      "_sort": 3,
      "dishes": [],
      "lat": 25.0507327,
      "lng": 121.5775106
    },
    {
      "name": "鼎泰豐信義店",
      "description": "信義路二段米其林指南餐廳，小籠包是全球必吃台灣美食代表，皮薄餡多汁鮮",
      "area": "信義",
      "rating": 4.4,
      "reviews": 13097,
      "categories": [
        "中式"
      ],
      "michelin": "bib",
      "category": "中式",
      "tags": [
        "michelin-bib"
      ],
      "_sort": 3,
      "dishes": [
        "蝦肉蒸餃",
        "招牌的豬肉",
        "的豬肉",
        "排骨蛋炒飯",
        "必點排骨蛋炒飯"
      ],
      "lat": 25.0409201,
      "lng": 121.5720055
    },
    {
      "name": "劉山東小吃店",
      "description": "人氣麵食餐廳，提供多樣化的麵食選擇",
      "area": "",
      "rating": 4,
      "reviews": 11289,
      "categories": [
        "中式"
      ],
      "category": "中式",
      "tags": [
        "michelin-bib"
      ],
      "_sort": 3,
      "dishes_searched": true,
      "lat": 25.0457149,
      "lng": 121.5137602
    },
    {
      "name": "渣男TaiwanBistro 木柵二渣",
      "description": "",
      "area": "文山",
      "rating": 4.8,
      "reviews": 2555,
      "categories": [
        "中式"
      ],
      "category": "中式",
      "tags": [
        "sp"
      ],
      "_sort": 2,
      "dishes": [],
      "lat": 24.9984807,
      "lng": 121.5704915
    },
    {
      "name": "樂崎火鍋-信義店",
      "description": "",
      "area": "信義",
      "rating": 4.8,
      "reviews": 739,
      "categories": [
        "火鍋"
      ],
      "category": "火鍋",
      "tags": [
        "sp"
      ],
      "_sort": 2,
      "dishes": [],
      "lat": 25.028395,
      "lng": 121.569097
    },
    {
      "name": "金雞母Jingimoo｜永康｜",
      "description": "",
      "area": "大安",
      "rating": 4.6,
      "reviews": 2389,
      "categories": [
        "中式"
      ],
      "category": "中式",
      "tags": [
        "sp"
      ],
      "_sort": 2,
      "dishes": [],
      "lat": 25.03097,
      "lng": 121.52931
    },
    {
      "name": "夫妻飯莊(南機場)",
      "description": "",
      "area": "中正",
      "rating": 4.5,
      "reviews": 792,
      "categories": [
        "中式"
      ],
      "tags": [
        "sp"
      ],
      "category": "中式",
      "_sort": 2,
      "dishes": [],
      "lat": 25.0285646,
      "lng": 121.5063783
    },
    {
      "name": "台北花園大酒店-PRIME ONE牛排館",
      "description": "精緻餐點與舒適氛圍，人氣餐廳。",
      "area": "",
      "rating": 4.4,
      "reviews": 1039,
      "categories": [
        "西式"
      ],
      "category": "西式",
      "tags": [
        "sp"
      ],
      "_sort": 2,
      "dishes": [],
      "lat": 25.0363328,
      "lng": 121.5069595
    },
    {
      "name": "Q麻吉古早味麻糬",
      "description": "",
      "area": "",
      "rating": 4.4,
      "reviews": 315,
      "categories": [
        "中式"
      ],
      "tags": [
        "sp"
      ],
      "category": "中式",
      "_sort": 2,
      "dishes": [],
      "lat": 25.0283108,
      "lng": 121.5058832
    },
    {
      "name": "彰化肉圓",
      "description": "人氣小吃，口感軟糯的肉圓令人回味無窮。",
      "area": "",
      "rating": 4.3,
      "reviews": 1614,
      "categories": [
        "中式"
      ],
      "category": "中式",
      "tags": [
        "sp"
      ],
      "_sort": 2,
      "dishes": [],
      "lat": 25.0439032,
      "lng": 121.5429652
    },
    {
      "name": "曉迪筒仔米糕",
      "description": "｜米糕口感滑嫩，搭配各式配料，讓你回味無窮。",
      "area": "中正",
      "rating": 4.3,
      "reviews": 2974,
      "categories": [
        "中式"
      ],
      "tags": [
        "sp"
      ],
      "category": "中式",
      "_sort": 2,
      "dishes": [],
      "lat": 25.0291952,
      "lng": 121.5060735
    },
    {
      "name": "龍哥無骨雞腿排",
      "description": "無骨雞腿排外脆內嫩，令人難以抗拒的美味。",
      "area": "中正",
      "rating": 4.3,
      "reviews": 459,
      "categories": [
        "中式"
      ],
      "category": "中式",
      "tags": [
        "sp"
      ],
      "_sort": 2,
      "dishes": [],
      "lat": 25.0130933,
      "lng": 121.5350486
    },
    {
      "name": "龍潭豆花",
      "description": "甜品冰品的最佳選擇，滑嫩豆花令人難以抗拒。",
      "area": "中正",
      "rating": 4.3,
      "reviews": 2128,
      "categories": [
        "中式"
      ],
      "category": "中式",
      "tags": [
        "sp"
      ],
      "_sort": 2,
      "dishes": [],
      "lat": 25.01392,
      "lng": 121.534102
    },
    {
      "name": "南機場 彰化肉圓",
      "description": "彰化肉圓，口感滑嫩的肉圓，人氣小吃，深受食客喜愛。",
      "area": "中正",
      "rating": 4.2,
      "reviews": 1085,
      "categories": [
        "中式"
      ],
      "tags": [
        "sp"
      ],
      "category": "中式",
      "_sort": 2,
      "dishes": [],
      "lat": 25.0283987,
      "lng": 121.5065291
    },
    {
      "name": "台北東一排骨總店",
      "description": "招牌排骨料理人氣，深受食客喜愛，讓人回味無窮。",
      "area": "",
      "rating": 4.2,
      "reviews": 6615,
      "categories": [
        "中式"
      ],
      "category": "中式",
      "tags": [
        "sp"
      ],
      "_sort": 2,
      "dishes": [],
      "lat": 25.0446358,
      "lng": 121.5104063
    },
    {
      "name": "溫州街蘿蔔絲餅達人",
      "description": "臨櫃點餐的質樸店鋪，供應包有蔬菜內餡的手工煎餅。",
      "area": "大安",
      "rating": 4.1,
      "reviews": 5761,
      "categories": [
        "中式"
      ],
      "category": "中式",
      "tags": [
        "sp"
      ],
      "_sort": 2,
      "dishes": [],
      "lat": 25.0262472,
      "lng": 121.5303704
    },
    {
      "name": "南機場芋頭大王",
      "description": "｜芋頭甜香濃郁，甜品愛好者的必訪之地。",
      "area": "中正",
      "rating": 4.1,
      "reviews": 1306,
      "categories": [
        "甜品"
      ],
      "tags": [
        "sp"
      ],
      "category": "甜品",
      "_sort": 2,
      "dishes": [],
      "lat": 25.0282639,
      "lng": 121.5060278
    },
    {
      "name": "好初早餐 中山",
      "description": "清新早餐選擇，受歡迎的咖啡喫茶，是開始一天的理想之地。",
      "area": "中山",
      "rating": 4,
      "reviews": 1282,
      "categories": [
        "咖啡廳"
      ],
      "category": "咖啡廳",
      "tags": [
        "sp"
      ],
      "_sort": 2,
      "dishes": [],
      "lat": 25.0505496,
      "lng": 121.5180916
    },
    {
      "name": "金峰魯肉飯",
      "description": "",
      "area": "",
      "rating": 3.7,
      "reviews": 16487,
      "categories": [
        "中式"
      ],
      "tags": [
        "sp"
      ],
      "category": "中式",
      "_sort": 2,
      "dishes": [
        "魯肉飯",
        "雞肉飯",
        "控肉飯",
        "白菜魯",
        "油豆腐"
      ],
      "lat": 25.0320911,
      "lng": 121.5185362
    },
    {
      "name": "林東芳牛肉麵",
      "description": "",
      "area": "中山",
      "rating": 3.8,
      "reviews": 12473,
      "categories": [
        "中式"
      ],
      "michelin": "bib",
      "category": "中式",
      "tags": [
        "sp"
      ],
      "_sort": 2,
      "dishes": [
        "牛肉麵",
        "傳承三代人氣牛肉麵"
      ],
      "lat": 25.0472524,
      "lng": 121.5430792
    },
    {
      "name": "陳董藥燉排骨",
      "description": "",
      "area": "松山",
      "rating": 3.5,
      "reviews": 1565,
      "categories": [
        "中式"
      ],
      "michelin": "bib",
      "category": "中式",
      "tags": [
        "sp"
      ],
      "_sort": 2,
      "dishes": [],
      "lat": 25.0506263,
      "lng": 121.5757605
    },
    {
      "name": "福州世祖胡椒餅",
      "description": "｜香脆胡椒餅，內餡豐富，超人氣。",
      "area": "松山",
      "rating": 4.3,
      "reviews": 2714,
      "categories": [
        "中式"
      ],
      "michelin": "bib",
      "category": "中式",
      "tags": [
        "sp"
      ],
      "_sort": 2,
      "dishes": [],
      "lat": 25.0509544,
      "lng": 121.5773857
    },
    {
      "name": "劉山東牛肉麵",
      "description": "招牌牛肉麵，肉質鮮嫩，湯頭香濃，人氣不斷上升。",
      "area": "中正",
      "rating": 4,
      "reviews": 11290,
      "categories": [
        "中式"
      ],
      "michelin": "bib",
      "category": "中式",
      "tags": [
        "sp"
      ],
      "_sort": 2,
      "dishes_searched": true,
      "lat": 25.0457149,
      "lng": 121.5137602
    },
    {
      "name": "阜杭豆漿",
      "description": "台北必吃早餐，厚餅蛋夾油條",
      "area": "中正",
      "rating": 4.1,
      "reviews": 23936,
      "categories": [
        "中式"
      ],
      "michelin": "bib",
      "tags": [
        "sp"
      ],
      "category": "中式",
      "_sort": 2,
      "dishes": [
        "鹹豆漿",
        "厚餅夾蛋",
        "薄餅夾油條",
        "焦糖甜餅",
        "鹹飯糰"
      ],
      "lat": 25.0442333,
      "lng": 121.5248433
    },
    {
      "name": "阿男麻油雞",
      "description": "特色麻油雞，滋味濃郁，是夜市小吃中的人氣之選。",
      "area": "中正",
      "rating": 4.3,
      "reviews": 2354,
      "categories": [
        "中式"
      ],
      "michelin": "bib",
      "tags": [
        "sp"
      ],
      "nm_area": "南機場觀光夜市",
      "category": "中式",
      "_sort": 2,
      "dishes": [],
      "lat": 25.028881,
      "lng": 121.5066339
    },
    {
      "name": "臭老闆現蒸臭豆腐",
      "description": "招牌臭豆腐，外酥內嫩，超人氣夜市美食。",
      "area": "中正",
      "rating": 4,
      "reviews": 2444,
      "categories": [
        "中式"
      ],
      "michelin": "bib",
      "tags": [
        "sp"
      ],
      "nm_area": "南機場觀光夜市",
      "category": "中式",
      "_sort": 2,
      "dishes": [],
      "lat": 25.0281283,
      "lng": 121.5061458
    },
    {
      "name": "佳香豆漿",
      "description": "永和市場巷弄內，2025米其林必比登推薦，招牌胡椒蔥餅必點",
      "area": "",
      "rating": 4.3,
      "reviews": 388,
      "categories": [
        "中式"
      ],
      "michelin": "bib",
      "category": "中式",
      "tags": [],
      "_sort": 1,
      "dishes": [],
      "lat": 24.9821121,
      "lng": 121.5598154
    },
    {
      "name": "雲川水月",
      "description": "當代亞洲蔬食，融入台灣原型食材",
      "area": "大安",
      "rating": 4.5,
      "reviews": 327,
      "categories": [
        "素食"
      ],
      "michelin": "bib",
      "category": "素食",
      "tags": [],
      "_sort": 1,
      "dishes": [],
      "lat": 25.0597433,
      "lng": 121.5531659
    },
    {
      "name": "蘇來傳",
      "description": "傳統肉圓與芋粿，70年老店",
      "area": "大同",
      "rating": 4,
      "reviews": 2123,
      "categories": [
        "中式"
      ],
      "michelin": "bib",
      "category": "中式",
      "tags": [],
      "_sort": 1,
      "dishes": [],
      "lat": 25.0349999,
      "lng": 121.4976927
    },
    {
      "name": "Tableau by Craig Yang",
      "description": "法式技巧結合台灣辦桌菜，預約制",
      "area": "中正",
      "rating": 4.6,
      "reviews": 187,
      "categories": [
        "西式"
      ],
      "michelin": "bib",
      "category": "西式",
      "tags": [],
      "_sort": 1,
      "dishes": [],
      "lat": 25.0351135,
      "lng": 121.5503472
    },
    {
      "name": "三燔北投 Mihan Beitou",
      "description": "火烤美味台菜，人氣，滿足你的味蕾渴望。",
      "area": "北投",
      "rating": 4.9,
      "reviews": 2593,
      "categories": [
        "火鍋"
      ],
      "category": "火鍋",
      "tags": [],
      "_sort": 3,
      "dishes": [],
      "lat": 25.13815,
      "lng": 121.5044611
    },
    {
      "name": "酒米食堂chumi_canteen－北投店beitou",
      "description": "店，創新台式料理，超人氣，讓人回味無窮。",
      "area": "北投",
      "rating": 4.9,
      "reviews": 3702,
      "categories": [
        "中式"
      ],
      "category": "中式",
      "tags": [],
      "_sort": 3,
      "dishes": [],
      "lat": 25.1395294,
      "lng": 121.5004796
    },
    {
      "name": "泉源閣 Bando Club",
      "description": "招牌料理融合傳統與創新，讓食客在品嚐中感受驚喜。",
      "area": "北投",
      "rating": 4.9,
      "reviews": 607,
      "categories": [
        "中式"
      ],
      "category": "中式",
      "tags": [],
      "_sort": 3,
      "dishes": [],
      "lat": 25.1382859,
      "lng": 121.504675
    },
    {
      "name": "香旬 日式料理",
      "description": "香旬日式料理, 高評價日式料理，料理精緻，讓人回味無窮。",
      "area": "",
      "rating": 4.9,
      "reviews": 1901,
      "categories": [
        "日式"
      ],
      "category": "日式",
      "tags": [],
      "_sort": 3,
      "dishes": [],
      "lat": 25.0231164,
      "lng": 121.5552516
    },
    {
      "name": "老井極上燒肉 台北信義店",
      "description": "",
      "area": "信義",
      "rating": 4.9,
      "reviews": 12272,
      "categories": [
        "西式"
      ],
      "category": "西式",
      "tags": [],
      "_sort": 3,
      "dishes": [
        "厚切牛舌",
        "新生雙人套餐",
        "厚切豬排裹起司",
        "頂級和牛",
        "海鮮拼盤"
      ],
      "lat": 25.0362324,
      "lng": 121.5691896
    },
    {
      "name": "尚好烤肉（饒河店）Authentic Taiwanese BBQ Skewers",
      "description": "",
      "area": "松山",
      "rating": 4.9,
      "reviews": 116,
      "categories": [
        "西式"
      ],
      "category": "西式",
      "tags": [],
      "_sort": 3,
      "dishes": [],
      "lat": 25.050847,
      "lng": 121.5774426
    },
    {
      "name": "燒肉眾精緻炭火燒肉 台北西門店",
      "description": "新鮮海鮮料理專賣，超人氣的海味選擇",
      "area": "萬華",
      "rating": 4.9,
      "reviews": 11320,
      "categories": [
        "西式"
      ],
      "category": "西式",
      "tags": [],
      "_sort": 3,
      "dishes_searched": true,
      "lat": 25.042822,
      "lng": 121.505295
    },
    {
      "name": "士林貳貳參丼飯",
      "description": "專注日式丼飯，口味豐富，超人氣餐廳，必嚐美味。",
      "area": "士林",
      "rating": 4.9,
      "reviews": 3184,
      "categories": [
        "日式"
      ],
      "category": "日式",
      "tags": [],
      "_sort": 3,
      "dishes": [],
      "lat": 25.0949137,
      "lng": 121.5264319
    },
    {
      "name": "士林店",
      "description": "特色日式料理，食材新鮮，超人氣，深受食客喜愛。",
      "area": "士林",
      "rating": 4.9,
      "reviews": 5086,
      "categories": [
        "日式"
      ],
      "category": "日式",
      "tags": [],
      "_sort": 3,
      "dishes": [],
      "lat": 25.0887625,
      "lng": 121.5266487
    },
    {
      "name": "豚馬日本料理",
      "description": "",
      "area": "士林",
      "rating": 4.9,
      "reviews": 7555,
      "categories": [
        "日式"
      ],
      "category": "日式",
      "tags": [],
      "_sort": 3,
      "dishes": [],
      "lat": 25.1035401,
      "lng": 121.5227689
    },
    {
      "name": "不葷主義茶餐廳 台北店 (13:30/20:30最後點餐｜僅收現金)",
      "description": "招牌無肉餐點，超人氣，健康美味兼顧，滿足你的味蕾。",
      "area": "松山",
      "rating": 4.9,
      "reviews": 12420,
      "categories": [
        "中式"
      ],
      "category": "中式",
      "tags": [],
      "_sort": 3,
      "dishes": [
        "絲瓜鮮湯包",
        "淡淡的幸福",
        "流沙芋泥球",
        "塔香脆腸",
        "打拋豬肉"
      ],
      "lat": 25.0520392,
      "lng": 121.5455169
    },
    {
      "name": "大鵬壽司",
      "description": "招牌新鮮壽司，超人氣，讓你感受日式料理的精緻與美味。",
      "area": "松山",
      "rating": 4.9,
      "reviews": 4831,
      "categories": [
        "日式"
      ],
      "category": "日式",
      "tags": [],
      "_sort": 3,
      "dishes": [],
      "lat": 25.0497857,
      "lng": 121.5631795
    },
    {
      "name": "巴雷巴雷印度餐廳",
      "description": "超人氣甜點專賣店，提供多樣化的甜品選擇",
      "area": "松山",
      "rating": 4.9,
      "reviews": 23030,
      "categories": [
        "異國"
      ],
      "category": "異國",
      "tags": [],
      "_sort": 3,
      "dishes": [
        "印度烤餅",
        "奶油咖喱雞",
        "孜然羊肉",
        "芒果奶酪",
        "印度奶茶"
      ],
      "lat": 25.0486993,
      "lng": 121.5576634
    },
    {
      "name": "二本松涮涮屋 本館",
      "description": "新鮮海鮮料理專賣，超人氣的海味選擇",
      "area": "",
      "rating": 4.9,
      "reviews": 12076,
      "categories": [
        "火鍋"
      ],
      "category": "火鍋",
      "tags": [],
      "_sort": 3,
      "dishes": [
        "限定極上帝王蟹套餐",
        "極上松葉蟹套餐",
        "毛蟹雙人套餐",
        "松露山藥海膽佐小豆島醬油",
        "日本A5和牛紐約客"
      ],
      "lat": 25.0296552,
      "lng": 121.5425364
    },
    {
      "name": "肥龍老火鍋（重慶風味）- 台北林森店-台北麻辣火鍋推薦|台北重慶火鍋|台北聚餐餐廳|中山聚餐|必吃火鍋|中山美食推薦|中山火鍋|重慶麻辣鍋",
      "description": "",
      "area": "中正",
      "rating": 4.9,
      "reviews": 2672,
      "categories": [
        "火鍋"
      ],
      "category": "火鍋",
      "tags": [],
      "_sort": 3,
      "dishes": [],
      "lat": 25.0792018,
      "lng": 121.5427093
    },
    {
      "name": "手工殿麻辣鍋物 信義店",
      "description": "人氣火鍋，手工製作的食材與濃郁湯頭相得益彰。",
      "area": "信義",
      "rating": 4.9,
      "reviews": 1153,
      "categories": [
        "火鍋"
      ],
      "category": "火鍋",
      "tags": [],
      "_sort": 3,
      "dishes": [],
      "lat": 25.0361184,
      "lng": 121.5693179
    },
    {
      "name": "鼎楓寶島火鍋 信義Att店",
      "description": "人氣火鍋，豐富食材與鮮美湯底讓人回味無窮。",
      "area": "信義",
      "rating": 4.9,
      "reviews": 1421,
      "categories": [
        "火鍋"
      ],
      "category": "火鍋",
      "tags": [],
      "_sort": 3,
      "dishes": [],
      "lat": 25.035259,
      "lng": 121.5660561
    },
    {
      "name": "功殿火鍋",
      "description": "人氣火鍋，濃郁湯底搭配多樣食材，滿足火鍋愛好者的味�",
      "area": "",
      "rating": 4.9,
      "reviews": 3303,
      "categories": [
        "火鍋"
      ],
      "category": "火鍋",
      "tags": [],
      "_sort": 3,
      "dishes": [],
      "lat": 25.0544248,
      "lng": 121.5271279
    },
    {
      "name": "無老鍋(台北信義店)",
      "description": "",
      "area": "信義",
      "rating": 4.9,
      "reviews": 1661,
      "categories": [
        "火鍋"
      ],
      "category": "火鍋",
      "tags": [],
      "_sort": 3,
      "dishes": [],
      "lat": 25.035365,
      "lng": 121.5679137
    },
    {
      "name": "三分半海鮮鍋物",
      "description": "",
      "area": "",
      "rating": 4.9,
      "reviews": 768,
      "categories": [
        "火鍋"
      ],
      "category": "火鍋",
      "tags": [],
      "_sort": 3,
      "dishes": [],
      "lat": 25.0427995,
      "lng": 121.5661503
    },
    {
      "name": "仨弄砂鍋煲-台北科大|火鍋|熱炒|餐酒館|運動賽事|聚餐|寵物友善餐廳推薦|台北大安區",
      "description": "多元的火鍋與熱炒選擇，寵物友善環境讓聚餐更添樂趣。",
      "area": "大安",
      "rating": 4.9,
      "reviews": 1045,
      "categories": [
        "火鍋"
      ],
      "category": "火鍋",
      "tags": [],
      "_sort": 3,
      "dishes": [],
      "lat": 25.04297,
      "lng": 121.53857
    },
    {
      "name": "黃小妹地攤火鍋－四川重慶火鍋店｜麻辣鍋推薦｜宵夜｜開到凌晨｜台北中山區｜捷運中山站",
      "description": "推薦麻辣鍋，宵夜最佳選擇，人氣火鍋店，開到凌晨。",
      "area": "中山",
      "rating": 4.9,
      "reviews": 1667,
      "categories": [
        "火鍋"
      ],
      "category": "火鍋",
      "tags": [],
      "_sort": 3,
      "dishes": [],
      "lat": 25.052685,
      "lng": 121.520391
    },
    {
      "name": "《擼吉霸》正宗成都四川麻辣串串火鍋創始店｜全台最多種擼串｜人氣平價麻辣｜宵夜、聚餐、包埸｜捷運站美食｜串串｜火鍋｜麻辣｜宵夜｜林森北路美食｜中山區美食｜四川串串｜美食推薦",
      "description": "四川串串，擁有全台最多種擼串，超人氣平價麻辣宵夜。",
      "area": "中山",
      "rating": 4.9,
      "reviews": 10985,
      "categories": [
        "火鍋"
      ],
      "category": "火鍋",
      "tags": [],
      "_sort": 3,
      "dishes_searched": true,
      "lat": 30.5722599,
      "lng": 104.0665099
    },
    {
      "name": "1+1鍋物—忠孝店",
      "description": "環境簡樸的休閒餐廳，主要供應肉類料理和海鮮火鍋。",
      "area": "",
      "rating": 4.9,
      "reviews": 4182,
      "categories": [
        "火鍋"
      ],
      "category": "火鍋",
      "tags": [],
      "_sort": 3,
      "dishes": [],
      "lat": 25.0399644,
      "lng": 121.5527894
    },
    {
      "name": "林美如 海鮮 熱炒 燒烤 酒場",
      "description": "超人氣餐廳，提供多樣化的美味料理選擇",
      "area": "",
      "rating": 4.9,
      "reviews": 15938,
      "categories": [
        "中式"
      ],
      "category": "中式",
      "tags": [],
      "_sort": 3,
      "dishes": [
        "熱炒海鮮",
        "烤鮮蚵",
        "炒牛肉",
        "三杯雞",
        "生啤酒"
      ],
      "lat": 25.044994,
      "lng": 121.5427726
    },
    {
      "name": "營火 Campfire Cafe",
      "description": "",
      "area": "",
      "rating": 4.9,
      "reviews": 254,
      "categories": [
        "咖啡廳"
      ],
      "tags": [],
      "category": "咖啡廳",
      "_sort": 3,
      "dishes": [],
      "lat": 25.0364364,
      "lng": 121.5588801
    },
    {
      "name": "岡心食堂",
      "description": "",
      "area": "",
      "rating": 4.9,
      "reviews": 4933,
      "categories": [
        "中式"
      ],
      "category": "中式",
      "tags": [],
      "_sort": 3,
      "dishes": [],
      "lat": 25.0427705,
      "lng": 121.5470538
    },
    {
      "name": "四時輕燒肉概念屋 台北最強健康輕燒肉",
      "description": "新鮮海鮮料理專賣，超人氣的海味選擇",
      "area": "松山",
      "rating": 4.9,
      "reviews": 12916,
      "categories": [
        "西式"
      ],
      "category": "西式",
      "tags": [],
      "_sort": 3,
      "dishes": [
        "台北最強健康輕燒肉",
        "台北燒肉",
        "台北輕燒肉",
        "的唯一輕燒肉"
      ],
      "lat": 25.0470899,
      "lng": 121.550617
    },
    {
      "name": "初樂燒肉",
      "description": "氣氛放鬆的日式燒肉餐廳，供應可自行燒烤的肉類及烤冰淇淋。",
      "area": "",
      "rating": 4.9,
      "reviews": 5691,
      "categories": [
        "西式"
      ],
      "category": "西式",
      "tags": [],
      "_sort": 3,
      "dishes": [],
      "lat": 25.0425672,
      "lng": 121.546893
    },
    {
      "name": "梨谷-韓式鐵板炭火烤肉 信義ATT店",
      "description": "",
      "area": "信義",
      "rating": 4.9,
      "reviews": 4093,
      "categories": [
        "西式"
      ],
      "category": "西式",
      "tags": [],
      "_sort": 3,
      "dishes": [],
      "lat": 25.0352542,
      "lng": 121.5659448
    },
    {
      "name": "發肉燒肉餐酒忠孝二店",
      "description": "超人氣中式燒肉餐酒館，結合美酒與燒肉的絕佳享受。",
      "area": "",
      "rating": 4.9,
      "reviews": 3705,
      "categories": [
        "西式"
      ],
      "category": "西式",
      "tags": [],
      "_sort": 3,
      "dishes": [],
      "lat": 25.0398269,
      "lng": 121.551468
    },
    {
      "name": "肉你好燒肉-延吉店",
      "description": "精緻燒肉選擇，口味絕佳，吸引眾多食客。",
      "area": "大安",
      "rating": 4.9,
      "reviews": 1453,
      "categories": [
        "西式"
      ],
      "category": "西式",
      "tags": [],
      "_sort": 3,
      "dishes": [],
      "lat": 25.0392848,
      "lng": 121.5541476
    },
    {
      "name": "香香小吃",
      "description": "超人氣夜市小吃，口味多樣，讓人一次品嚐多種美味。",
      "area": "士林",
      "rating": 4.9,
      "reviews": 1839,
      "categories": [
        "中式"
      ],
      "category": "中式",
      "tags": [],
      "_sort": 3,
      "dishes": [],
      "lat": 25.0886802,
      "lng": 121.5269996
    },
    {
      "name": "士林堃叔手作糯米腸",
      "description": "超人氣糯米腸，外皮Q彈，內餡豐富，口感絕佳。",
      "area": "士林",
      "rating": 4.9,
      "reviews": 868,
      "categories": [
        "中式"
      ],
      "category": "中式",
      "tags": [],
      "_sort": 3,
      "dishes": [],
      "lat": 25.0899947,
      "lng": 121.5242868
    },
    {
      "name": "士林串燒",
      "description": "",
      "area": "士林",
      "rating": 4.9,
      "reviews": 1918,
      "categories": [
        "日式"
      ],
      "category": "日式",
      "tags": [],
      "_sort": 3,
      "dishes": [],
      "lat": 25.0878564,
      "lng": 121.5257469
    },
    {
      "name": "吳爸食堂 水餃/蒸餃/紅油抄手/氣鍋雞湯",
      "description": "手工水餃和紅油抄手，為你帶來家常的溫暖滋味。",
      "area": "松山",
      "rating": 4.9,
      "reviews": 124,
      "categories": [
        "中式"
      ],
      "category": "中式",
      "tags": [],
      "_sort": 3,
      "dishes": [],
      "lat": 25.0505997,
      "lng": 121.5757169
    },
    {
      "name": "星月 Hoshizuki",
      "description": "附設露台的質樸餐廳，供應經典日式料理和甜點。",
      "area": "",
      "rating": 4.9,
      "reviews": 577,
      "categories": [
        "日式"
      ],
      "category": "日式",
      "tags": [],
      "_sort": 3,
      "dishes": [],
      "lat": 25.1728045,
      "lng": 121.4464893
    },
    {
      "name": "柒息地串燒居酒屋士林店",
      "description": "新鮮海鮮料理專賣，超人氣的海味選擇",
      "area": "士林",
      "rating": 4.9,
      "reviews": 6456,
      "categories": [
        "日式"
      ],
      "category": "日式",
      "tags": [],
      "_sort": 3,
      "dishes": [],
      "lat": 25.0902601,
      "lng": 121.5266465
    },
    {
      "name": "萬墨蔬食漢堡OM vegan Burger",
      "description": "素食餐廳，提供健康蔬食料理。",
      "area": "信義",
      "rating": 4.9,
      "reviews": 107,
      "categories": [
        "素食"
      ],
      "tags": [],
      "category": "素食",
      "_sort": 3,
      "dishes": [],
      "lat": 25.0483778,
      "lng": 121.5751674
    },
    {
      "name": "大自然幸福蔬食坊",
      "description": "素食餐廳，提供健康蔬食料理。",
      "area": "中正",
      "rating": 4.9,
      "reviews": 15,
      "categories": [
        "素食"
      ],
      "tags": [],
      "category": "素食",
      "_sort": 3,
      "dishes": [],
      "lat": 25.0439111,
      "lng": 121.5097688
    },
    {
      "name": "聚善緣蔬食民權店",
      "description": "素食餐廳，提供健康蔬食料理。",
      "area": "中山",
      "rating": 4.9,
      "reviews": 23,
      "categories": [
        "素食"
      ],
      "tags": [],
      "category": "素食",
      "_sort": 3,
      "dishes": [],
      "lat": 25.0623215,
      "lng": 121.5324606
    },
    {
      "name": "君曜雞湯",
      "description": "中式餐廳，在地美味",
      "area": "信義",
      "rating": 4.9,
      "reviews": 1158,
      "address": "110台灣臺北市信義區中興里信義路四段393號",
      "categories": [
        "中式"
      ],
      "category": "中式",
      "tags": [],
      "_sort": 3,
      "dishes": [],
      "lat": 25.033308,
      "lng": 121.5585073
    },
    {
      "name": "王師父脆皮豬｜台北大同區美食",
      "description": "中式餐廳，在地美味",
      "area": "大同",
      "rating": 4.9,
      "reviews": 503,
      "address": "103台灣臺北市大同區建明里長安西路220巷9號",
      "categories": [
        "中式"
      ],
      "category": "中式",
      "tags": [],
      "_sort": 3,
      "dishes": [],
      "lat": 25.0511648,
      "lng": 121.5147096
    },
    {
      "name": "初殿鍋物 永春店｜平日套餐299元享60種自助吧｜寵物友善｜被火鍋耽誤的滷肉飯｜牛奶鍋｜麻辣鍋｜台北火鍋、美食、餐廳、restaurant",
      "description": "平日套餐享自助吧，寵物友善，火鍋與滷肉飯的美味結合。",
      "area": "",
      "rating": 4.8,
      "reviews": 1833,
      "categories": [
        "中式"
      ],
      "category": "中式",
      "tags": [],
      "_sort": 3,
      "dishes": [],
      "lat": 25.0158548,
      "lng": 121.5308682
    },
    {
      "name": "臺北窗口｜蔬食Vegetarian—素手捲 素刈包 輕食 中式點心",
      "description": "素食餐廳，提供健康蔬食料理。",
      "area": "中正",
      "rating": 4.8,
      "reviews": 72,
      "categories": [
        "素食"
      ],
      "tags": [],
      "category": "素食",
      "_sort": 3,
      "dishes": [],
      "lat": 25.0463586,
      "lng": 121.5178865
    },
    {
      "name": "荷麵亭 HASUMENTEI 北投店",
      "description": "精緻台菜麵食，人氣，提供優雅的用餐體驗。",
      "area": "北投",
      "rating": 4.8,
      "reviews": 2399,
      "categories": [
        "中式"
      ],
      "category": "中式",
      "tags": [],
      "_sort": 3,
      "dishes": [],
      "lat": 25.133434,
      "lng": 121.49799
    },
    {
      "name": "星馬快餐 Sin Ma Express 海南雞飯 星馬料理專賣店 台北南港環球百貨店",
      "description": "招牌海南雞飯, 人氣餐廳，提供正宗星馬料理。",
      "area": "南港",
      "rating": 4.8,
      "reviews": 1677,
      "categories": [
        "異國"
      ],
      "category": "異國",
      "tags": [],
      "_sort": 3,
      "dishes": [],
      "lat": 25.0528955,
      "lng": 121.6072597
    },
    {
      "name": "肉老大頂級肉品涮涮鍋 台北中山火鍋店| 錦西",
      "description": "新鮮海鮮料理專賣，超人氣的海味選擇",
      "area": "中山",
      "rating": 4.8,
      "reviews": 7515,
      "categories": [
        "火鍋"
      ],
      "category": "火鍋",
      "tags": [],
      "_sort": 3,
      "dishes": [],
      "lat": 25.0604096,
      "lng": 121.5212781
    },
    {
      "name": "肉老大頂級肉品涮涮鍋 台北大安火鍋店| 敦南",
      "description": "樸實的餐廳，專門供應肉類、海鮮與蔬食火鍋。",
      "area": "大安",
      "rating": 4.8,
      "reviews": 5263,
      "categories": [
        "火鍋"
      ],
      "category": "火鍋",
      "tags": [],
      "_sort": 3,
      "dishes": [],
      "lat": 25.0226641,
      "lng": 121.5498691
    },
    {
      "name": "李蝦記爆蝦火鍋 Shrimp at Lee's｜ATT 4 FUN 店",
      "description": "專注新鮮蝦類，火鍋口感極致，人氣火鍋選擇。",
      "area": "",
      "rating": 4.8,
      "reviews": 1947,
      "categories": [
        "火鍋"
      ],
      "category": "火鍋",
      "tags": [],
      "_sort": 3,
      "dishes": [],
      "lat": 25.035259,
      "lng": 121.5660561
    },
    {
      "name": "金洹苑 KIN KAN EN-日式燒肉火鍋吃到飽 台北日本和牛海鮮吃到飽人氣推薦",
      "description": "新鮮海鮮料理專賣，超人氣的海味選擇",
      "area": "",
      "rating": 4.8,
      "reviews": 18798,
      "categories": [
        "日式"
      ],
      "category": "日式",
      "tags": [],
      "_sort": 3,
      "dishes": [
        "日本和牛",
        "海鮮拼盤",
        "牛小排",
        "豬梅花",
        "霜淇淋"
      ],
      "lat": 25.0329636,
      "lng": 121.5654268
    },
    {
      "name": "Soloist! Cafe",
      "description": "",
      "area": "",
      "rating": 4.8,
      "reviews": 397,
      "categories": [
        "咖啡廳"
      ],
      "tags": [],
      "category": "咖啡廳",
      "_sort": 3,
      "dishes": [],
      "lat": 25.0213628,
      "lng": 121.5541246
    },
    {
      "name": "4+ Break Breakfast",
      "description": "",
      "area": "",
      "rating": 4.8,
      "reviews": 1744,
      "categories": [
        "中式"
      ],
      "category": "中式",
      "tags": [],
      "_sort": 3,
      "dishes": [],
      "lat": 25.0481837,
      "lng": 121.5331727
    },
    {
      "name": "素食 | 蔬食 | Vegetarian | 吉彖蔬食堂＆沙茶芝麻醬麻辣燙、皮蛋乾麵",
      "description": "",
      "area": "士林",
      "rating": 4.8,
      "reviews": 533,
      "categories": [
        "素食"
      ],
      "category": "素食",
      "tags": [],
      "_sort": 3,
      "dishes": [],
      "lat": 25.0881765,
      "lng": 121.5235121
    },
    {
      "name": "啼岸VeganResort 蔬食素食髮廊餐廳",
      "description": "素食餐廳，提供健康蔬食料理。",
      "area": "中正",
      "rating": 4.8,
      "reviews": 772,
      "categories": [
        "素食"
      ],
      "tags": [],
      "category": "素食",
      "_sort": 3,
      "dishes": [],
      "lat": 25.0237514,
      "lng": 121.5191273
    },
    {
      "name": "寶吉祥蔬食料理廚房",
      "description": "素食餐廳，提供健康蔬食料理。",
      "area": "信義",
      "rating": 4.8,
      "reviews": 553,
      "categories": [
        "素食"
      ],
      "tags": [],
      "category": "素食",
      "_sort": 3,
      "dishes": [],
      "lat": 25.0828068,
      "lng": 121.5527776
    },
    {
      "name": "馬友友印度蔬食餐廳 Mayur Indian Kitchen Vegetarian restaurant, MIK-3",
      "description": "素食餐廳，提供健康蔬食料理。",
      "area": "中正",
      "rating": 4.8,
      "reviews": 7162,
      "categories": [
        "素食"
      ],
      "tags": [],
      "category": "素食",
      "_sort": 3,
      "dishes": [],
      "lat": 25.0401204,
      "lng": 121.5323807
    },
    {
      "name": "雞肉本家 信維店 (雞肉飯專賣店/健康餐)",
      "description": "",
      "area": "松山",
      "rating": 4.8,
      "reviews": 708,
      "categories": [
        "中式"
      ],
      "category": "中式",
      "tags": [],
      "_sort": 3,
      "dishes": [],
      "lat": 25.0331723,
      "lng": 121.5458052
    },
    {
      "name": "이집_這家韓式烤肉 2號店_忠孝店",
      "description": "",
      "area": "",
      "rating": 4.8,
      "reviews": 2511,
      "categories": [
        "西式"
      ],
      "category": "西式",
      "tags": [],
      "_sort": 3,
      "dishes": [],
      "lat": 25.0436129,
      "lng": 121.5504245
    },
    {
      "name": "李氏兄弟44號餐酒館(李氏餐坊)",
      "description": "悠閒的餐廳，供應亞洲和西式佳餚，並提供葡萄酒、啤酒和雞尾酒。",
      "area": "文山",
      "rating": 4.8,
      "reviews": 867,
      "categories": [
        "中式"
      ],
      "category": "中式",
      "tags": [],
      "_sort": 3,
      "dishes": [],
      "lat": 24.9914219,
      "lng": 121.57353
    },
    {
      "name": "長生塩人 北投車站",
      "description": "超人氣，招牌鹽焗料理令人回味無窮，搭配新鮮食材，滿足你的味蕾。",
      "area": "北投",
      "rating": 4.8,
      "reviews": 3546,
      "categories": [
        "中式"
      ],
      "category": "中式",
      "tags": [],
      "_sort": 3,
      "dishes": [],
      "lat": 25.1327138,
      "lng": 121.4987251
    },
    {
      "name": "谷炭燒肉/北投美食 北投燒肉 北投餐廳 石牌美食 石牌燒肉 石牌餐廳",
      "description": "人氣，提供高品質燒肉體驗，搭配炭火烤製，肉質鮮嫩多汁。",
      "area": "北投",
      "rating": 4.8,
      "reviews": 2400,
      "categories": [
        "西式"
      ],
      "category": "西式",
      "tags": [],
      "_sort": 3,
      "dishes": [],
      "lat": 25.1166387,
      "lng": 121.5163317
    },
    {
      "name": "Knock Knock Heaven 內湖店",
      "description": "提供精緻中式料理，人氣餐廳，環境放鬆舒適。",
      "area": "內湖",
      "rating": 4.8,
      "reviews": 684,
      "categories": [
        "中式"
      ],
      "category": "中式",
      "tags": [],
      "_sort": 3,
      "dishes": [],
      "lat": 25.0617968,
      "lng": 121.5886617
    },
    {
      "name": "小貳 。食樂 little two 火鍋/簡餐/輕食 內湖美食 內湖鍋物 內湖外帶美食 內湖便當 內湖必吃 內湖火鍋",
      "description": "火鍋與輕食完美結合，人氣餐廳，內湖區的美食新選擇。",
      "area": "內湖",
      "rating": 4.8,
      "reviews": 216,
      "categories": [
        "中式"
      ],
      "category": "中式",
      "tags": [],
      "_sort": 3,
      "dishes": [
        {
          "name": "家常火鍋",
          "description": "內科簡餐店首選，家常風味火鍋"
        },
        {
          "name": "簡餐",
          "description": "簡單用心的美味簡餐，無雷推薦"
        },
        {
          "name": "輕食",
          "description": "清爽輕食選擇，內湖必吃鍋物"
        }
      ],
      "lat": 25.0783499,
      "lng": 121.5764521
    },
    {
      "name": "農耕車石頭火鍋",
      "description": "",
      "area": "內湖",
      "rating": 4.8,
      "reviews": 5202,
      "categories": [
        "火鍋"
      ],
      "category": "火鍋",
      "tags": [],
      "_sort": 3,
      "dishes": [],
      "lat": 25.081491,
      "lng": 121.5903845
    },
    {
      "name": "四川龍府",
      "description": "",
      "area": "內湖",
      "rating": 4.8,
      "reviews": 4303,
      "categories": [
        "火鍋"
      ],
      "category": "火鍋",
      "tags": [],
      "_sort": 3,
      "dishes": [],
      "lat": 25.0723058,
      "lng": 121.6052076
    },
    {
      "name": "島語 台北漢來店",
      "description": "島語, 超人氣台灣小吃, 提供多樣化的經典台灣美食。",
      "area": "南港",
      "rating": 4.8,
      "reviews": 14553,
      "categories": [
        "中式"
      ],
      "category": "中式",
      "tags": [],
      "_sort": 3,
      "dishes": [
        "at DuckDuckGo",
        "招牌 at DuckDuckGo",
        "推薦 招牌 at DuckDuckGo"
      ],
      "lat": 25.0580491,
      "lng": 121.6193417
    },
    {
      "name": "夏綠沁-義大利麵燉飯-餐酒館下午茶-松山機場美食-適合外帶外送",
      "description": "招牌義大利麵與燉飯，適合外帶外送，讓你在家也能享受美味。",
      "area": "松山",
      "rating": 4.8,
      "reviews": 908,
      "categories": [
        "咖啡廳"
      ],
      "category": "咖啡廳",
      "tags": [],
      "_sort": 3,
      "dishes": [],
      "lat": 25.0610134,
      "lng": 121.5476114
    },
    {
      "name": "石石鍋創",
      "description": "氣氛休閒的餐廳，專供由顧客自行烹煮的火鍋湯料，以及燉菜和米飯料理。",
      "area": "",
      "rating": 4.8,
      "reviews": 3340,
      "categories": [
        "火鍋"
      ],
      "category": "火鍋",
      "tags": [],
      "_sort": 3,
      "dishes": [],
      "lat": 25.054412,
      "lng": 121.550908
    },
    {
      "name": "竹苑shabu",
      "description": "",
      "area": "",
      "rating": 4.8,
      "reviews": 4437,
      "categories": [
        "火鍋"
      ],
      "category": "火鍋",
      "tags": [],
      "_sort": 3,
      "dishes": [],
      "lat": 25.0441102,
      "lng": 121.5475233
    },
    {
      "name": "波記私宅打邊爐",
      "description": "人氣私房火鍋，溫馨環境與美味湯底深受喜愛。",
      "area": "",
      "rating": 4.8,
      "reviews": 934,
      "categories": [
        "火鍋"
      ],
      "category": "火鍋",
      "tags": [],
      "_sort": 3,
      "dishes": [],
      "lat": 25.0423976,
      "lng": 121.5513968
    },
    {
      "name": "米釉麻辣鍋物｜大巨蛋美食｜大安區美食｜麻辣鴛鴦鍋",
      "description": "人氣麻辣鴛鴦鍋，麻辣與清湯的完美搭配，火辣刺激。",
      "area": "大安",
      "rating": 4.8,
      "reviews": 2169,
      "categories": [
        "火鍋"
      ],
      "category": "火鍋",
      "tags": [],
      "_sort": 3,
      "dishes": [],
      "lat": 25.0433421,
      "lng": 121.5538588
    },
    {
      "name": "紅九九｜秘製香料・個人鴛鴦",
      "description": "",
      "area": "",
      "rating": 4.8,
      "reviews": 3576,
      "categories": [
        "火鍋"
      ],
      "category": "火鍋",
      "tags": [],
      "_sort": 3,
      "dishes": [],
      "lat": 25.0521052,
      "lng": 121.5565239
    },
    {
      "name": "東華川府重慶老火鍋 - 台北忠孝店",
      "description": "",
      "area": "中正",
      "rating": 4.8,
      "reviews": 1131,
      "categories": [
        "火鍋"
      ],
      "category": "火鍋",
      "tags": [],
      "_sort": 3,
      "dishes": [],
      "lat": 25.0390987,
      "lng": 121.552106
    },
    {
      "name": "問鼎 ‧ 皇上吉祥 麻辣養生鍋-西門店",
      "description": "麻辣口味搭配養生元素，超人氣聚餐首選。",
      "area": "萬華",
      "rating": 4.8,
      "reviews": 11827,
      "categories": [
        "火鍋"
      ],
      "category": "火鍋",
      "tags": [],
      "_sort": 3,
      "dishes": [
        "18盎司花開富貴牛拼盤",
        "極品海鮮盤",
        "爆漿起司牛丸",
        "美國Choice頂級牛五花",
        "經典老油條"
      ],
      "lat": 25.0434989,
      "lng": 121.506295
    },
    {
      "name": "問鼎 ‧ 皇上吉祥 麻辣養生鍋-忠孝店",
      "description": "結合麻辣與養生，廣受食客好評，超人氣店家。",
      "area": "",
      "rating": 4.8,
      "reviews": 12361,
      "categories": [
        "火鍋"
      ],
      "category": "火鍋",
      "tags": [],
      "_sort": 3,
      "dishes": [
        "18盎司花開富貴牛拼盤",
        "極品海鮮盤",
        "爆漿起司牛丸",
        "美國Choice頂級牛五花",
        "經典老油條"
      ],
      "lat": 25.0412535,
      "lng": 121.5525003
    },
    {
      "name": "深紅海鮮鍋物-台北民權店｜活體現撈專門",
      "description": "活體現撈專門，海鮮新鮮程度讓人驚艷，人氣火鍋。",
      "area": "",
      "rating": 4.8,
      "reviews": 2176,
      "categories": [
        "火鍋"
      ],
      "category": "火鍋",
      "tags": [],
      "_sort": 3,
      "dishes": [],
      "lat": 25.0596389,
      "lng": 121.544748
    },
    {
      "name": "梁湯港式煲湯火鍋 l台北美食火鍋l港式煲湯l雞湯火鍋l活海鮮火鍋l花膠雞湯l和牛火鍋",
      "description": "特色雞湯及海鮮火鍋，精緻口味，人氣美食。",
      "area": "",
      "rating": 4.8,
      "reviews": 1699,
      "categories": [
        "火鍋"
      ],
      "category": "火鍋",
      "tags": [],
      "_sort": 3,
      "dishes": [],
      "lat": 25.0522911,
      "lng": 121.5569622
    },
    {
      "name": "鱻活驛棧",
      "description": "專注於新鮮海味，值得一試的美味海鮮體驗。",
      "area": "",
      "rating": 4.8,
      "reviews": 482,
      "categories": [
        "中式"
      ],
      "category": "中式",
      "tags": [],
      "_sort": 3,
      "dishes": [],
      "lat": 25.0587931,
      "lng": 121.5439314
    },
    {
      "name": "時刻饗聚MF｜士林芝山甜點、咖啡下午茶、義大利麵、Pizza",
      "description": "精緻甜點與義大利麵並重，適合下午茶，深受食客喜愛。",
      "area": "士林",
      "rating": 4.8,
      "reviews": 733,
      "categories": [
        "咖啡廳"
      ],
      "category": "咖啡廳",
      "tags": [],
      "_sort": 3,
      "dishes": [],
      "lat": 25.101623,
      "lng": 121.5236539
    },
    {
      "name": "嶼人咖啡-台北美食-餐廳-下午茶-cafe-coffee",
      "description": "舒適咖啡館，適合下午茶，氛圍佳，受到食客青睞。",
      "area": "",
      "rating": 4.8,
      "reviews": 485,
      "categories": [
        "咖啡廳"
      ],
      "category": "咖啡廳",
      "tags": [],
      "_sort": 3,
      "dishes": [
        {
          "name": "貓飯",
          "description": "名不虛傳的招牌貓飯，松山區巷弄內的隱藏美味"
        },
        {
          "name": "提拉米蘇",
          "description": "香濃美味提拉米蘇，搭配手沖單品咖啡品味香氣"
        },
        {
          "name": "草莓戚風蛋糕",
          "description": "可愛又美味的限量戚風蛋糕，搭配自家烘焙咖啡"
        }
      ],
      "lat": 25.0507937,
      "lng": 121.5682162
    },
    {
      "name": "安和咖啡商號 Cafe Ah! 信義安和咖啡/印度咖哩/美食/甜點",
      "description": "",
      "area": "信義",
      "rating": 4.8,
      "reviews": 393,
      "categories": [
        "咖啡廳"
      ],
      "tags": [],
      "category": "咖啡廳",
      "_sort": 3,
      "dishes": [],
      "lat": 25.0347855,
      "lng": 121.5529721
    },
    {
      "name": "新宿燒肉 牛舌的檸檬 臺北本店",
      "description": "招牌牛舌搭配檸檬, 肉質鮮嫩多汁, 是燒肉迷的首選。",
      "area": "",
      "rating": 4.8,
      "reviews": 1838,
      "categories": [
        "西式"
      ],
      "category": "西式",
      "tags": [],
      "_sort": 3,
      "dishes": [],
      "lat": 25.0402399,
      "lng": 121.5623571
    },
    {
      "name": "魚韻日式料理",
      "description": "日式料理之選，精緻美味，人氣不斷上升。",
      "area": "",
      "rating": 4.8,
      "reviews": 3217,
      "categories": [
        "日式"
      ],
      "category": "日式",
      "tags": [],
      "_sort": 3,
      "dishes": [],
      "lat": 25.0286282,
      "lng": 121.5400354
    },
    {
      "name": "林居sushi日本料理 永吉店",
      "description": "永吉店, 日式料理美味，人氣持續上升，值得推薦。",
      "area": "信義",
      "rating": 4.8,
      "reviews": 2819,
      "categories": [
        "日式"
      ],
      "category": "日式",
      "tags": [],
      "_sort": 3,
      "dishes": [],
      "lat": 25.0438187,
      "lng": 121.5688902
    },
    {
      "name": "創鮨 · 丼飯 壽司 清酒吧",
      "description": "",
      "area": "",
      "rating": 4.8,
      "reviews": 544,
      "categories": [
        "日式"
      ],
      "category": "日式",
      "tags": [],
      "_sort": 3,
      "dishes": [],
      "lat": 25.045285,
      "lng": 121.5471537
    },
    {
      "name": "一冠割烹 Yikuan Kappo",
      "description": "創新台菜融合, 美味佳餚不容錯過。",
      "area": "",
      "rating": 4.8,
      "reviews": 701,
      "categories": [
        "日式"
      ],
      "category": "日式",
      "tags": [],
      "_sort": 3,
      "dishes": [],
      "lat": 25.0359132,
      "lng": 121.5533172
    },
    {
      "name": "初衷鮨",
      "description": "專注新鮮的中式鮨品，人氣之選。",
      "area": "",
      "rating": 4.8,
      "reviews": 381,
      "categories": [
        "中式"
      ],
      "category": "中式",
      "tags": [],
      "_sort": 3,
      "dishes": [],
      "lat": 25.0665505,
      "lng": 121.5269787
    },
    {
      "name": "迪諾早午餐",
      "description": "創意豐富早午餐選擇，受喜愛的咖啡喫茶，讓你享受輕鬆時光。",
      "area": "",
      "rating": 4.8,
      "reviews": 614,
      "categories": [
        "咖啡廳"
      ],
      "category": "咖啡廳",
      "tags": [],
      "_sort": 3,
      "dishes": [
        {
          "name": "早午餐拼盤",
          "description": "豐盛早午餐拼盤，多種配菜，營養均衡"
        },
        {
          "name": "法式吐司",
          "description": "招牌法式吐司，外酥內軟，搭配楓糖漿"
        },
        {
          "name": "手工漢堡",
          "description": "手工漢堡，現做麵包搭配新鮮肉排"
        }
      ],
      "lat": 25.0667131,
      "lng": 121.5289596
    },
    {
      "name": "肉你好燒肉-合江總舖",
      "description": "人氣燒肉店，肉質鮮美，口感極佳，是肉食控的天堂。",
      "area": "",
      "rating": 4.8,
      "reviews": 3003,
      "categories": [
        "西式"
      ],
      "category": "西式",
      "tags": [],
      "_sort": 3,
      "dishes": [],
      "lat": 25.0609889,
      "lng": 121.5391278
    },
    {
      "name": "肉次方 燒肉放題 台北峨眉店",
      "description": "新鮮海鮮料理專賣，超人氣的海味選擇",
      "area": "",
      "rating": 4.8,
      "reviews": 23178,
      "categories": [
        "西式"
      ],
      "category": "西式",
      "tags": [],
      "_sort": 3,
      "dishes": [
        "美國Choice牛小排",
        "豬梅花",
        "雞腿肉",
        "霜淇淋",
        "哈根達斯冰淇淋"
      ],
      "lat": 25.04357,
      "lng": 121.5070993
    },
    {
      "name": "山上走走 日式燒肉台北華山店",
      "description": "",
      "area": "中山",
      "rating": 4.8,
      "reviews": 14368,
      "categories": [
        "日式"
      ],
      "category": "日式",
      "tags": [],
      "_sort": 3,
      "dishes": [
        "at DuckDuckGo",
        "招牌 at DuckDuckGo",
        "和牛套餐 $1",
        "推薦 招牌 at DuckDuckGo"
      ],
      "lat": 25.0422951,
      "lng": 121.5293369
    },
    {
      "name": "上吉燒肉",
      "description": "供應傳統燒肉料理和經典小菜的時髦餐廳。",
      "area": "",
      "rating": 4.8,
      "reviews": 2006,
      "categories": [
        "西式"
      ],
      "category": "西式",
      "tags": [],
      "_sort": 3,
      "dishes": [],
      "lat": 25.0429578,
      "lng": 121.5558226
    },
    {
      "name": "久碳吉炭火燒肉",
      "description": "口感鮮嫩的炭火燒肉，讓人一試成主顧。",
      "area": "",
      "rating": 4.8,
      "reviews": 280,
      "categories": [
        "西式"
      ],
      "category": "西式",
      "tags": [],
      "_sort": 3,
      "dishes": [
        {
          "name": "澳洲和牛拼盤",
          "description": "M9+澳洲和牛，大理石般油花，肉質細緻入口軟嫩化開"
        },
        {
          "name": "月見蔥油飯",
          "description": "淋上油蔥放一顆蛋黃，攪拌均勻後鹹香味十足"
        },
        {
          "name": "海鮮拼盤",
          "description": "去殼蝦子、鮮甜蛤蜊、生食級干貝，炭烤後散發淡淡海味"
        }
      ],
      "lat": 25.0424147,
      "lng": 121.5540464
    },
    {
      "name": "胖肚肚燒肉 大安店",
      "description": "人氣中式燒肉，豐富的選擇與美味醬料，令人一再光顧。",
      "area": "大安",
      "rating": 4.8,
      "reviews": 5104,
      "categories": [
        "西式"
      ],
      "category": "西式",
      "tags": [],
      "_sort": 3,
      "dishes": [],
      "lat": 25.0279849,
      "lng": 121.5432422
    },
    {
      "name": "王品牛排 台北中山北店",
      "description": "超人氣牛排館，以高品質的牛排和優質服務著稱，口味無人能敵。",
      "area": "中山",
      "rating": 4.8,
      "reviews": 12528,
      "categories": [
        "西式"
      ],
      "category": "西式",
      "tags": [],
      "_sort": 3,
      "dishes": [
        "王品招牌牛排",
        "法式紐約客牛排",
        "嫩煎干貝",
        "法式洋蔥湯",
        "熔岩巧克力蛋糕"
      ],
      "lat": 25.0533809,
      "lng": 121.5228424
    },
    {
      "name": "王品牛排 台北南京東店",
      "description": "以精緻牛排和優雅氛圍聞名，吸引眾多食客光臨的超人氣餐廳。",
      "area": "中山",
      "rating": 4.8,
      "reviews": 8041,
      "categories": [
        "西式"
      ],
      "category": "西式",
      "tags": [],
      "_sort": 3,
      "dishes": [],
      "lat": 25.0517436,
      "lng": 121.5563155
    },
    {
      "name": "忠孝｜燒肉政宗 YAKINIKU MASAMUNE",
      "description": "忠孝燒肉政宗, 超人氣燒肉火鍋，肉質鮮美，讓人流連忘返。",
      "area": "",
      "rating": 4.8,
      "reviews": 4306,
      "categories": [
        "西式"
      ],
      "category": "西式",
      "tags": [],
      "_sort": 3,
      "dishes": [],
      "lat": 25.0420989,
      "lng": 121.5481839
    },
    {
      "name": "雞老闆 桶仔雞 士林店",
      "description": "人氣桶仔雞，肉質鮮美，香氣四溢，是宵夜首選。",
      "area": "士林",
      "rating": 4.8,
      "reviews": 1035,
      "categories": [
        "中式"
      ],
      "category": "中式",
      "tags": [],
      "_sort": 3,
      "dishes": [],
      "lat": 25.0881435,
      "lng": 121.525947
    },
    {
      "name": "戰 鬥 雞 無骨 醉雞/油雞 饒河店",
      "description": "無骨雞肉柔嫩多汁，值得一試的夜市美味。",
      "area": "松山",
      "rating": 4.8,
      "reviews": 101,
      "categories": [
        "中式"
      ],
      "nm_area": "饒河街觀光夜市",
      "category": "中式",
      "tags": [],
      "_sort": 3,
      "dishes": [
        {
          "name": "醉雞餐盒",
          "description": "招牌無骨醉雞，酒香入味肉質鮮嫩"
        },
        {
          "name": "油雞餐盒",
          "description": "無骨油雞搭配鮮燙蔬菜，健康輕食選擇"
        },
        {
          "name": "醉雞便當",
          "description": "饒河夜市人氣醉雞便當，平價美味"
        }
      ],
      "lat": 25.050329,
      "lng": 121.5730648
    },
    {
      "name": "香菘河內烤肉粉專賣店",
      "description": "",
      "area": "萬華",
      "rating": 4.8,
      "reviews": 717,
      "categories": [
        "西式"
      ],
      "category": "西式",
      "tags": [],
      "_sort": 3,
      "dishes": [],
      "lat": 25.0378366,
      "lng": 121.4984522
    },
    {
      "name": "Monday蔬食料理 錦州店",
      "description": "素食餐廳，提供健康蔬食料理。",
      "area": "中山",
      "rating": 4.8,
      "reviews": 1344,
      "categories": [
        "素食"
      ],
      "tags": [],
      "category": "素食",
      "_sort": 3,
      "dishes": [],
      "lat": 25.0603565,
      "lng": 121.5429535
    },
    {
      "name": "麵屋技庵",
      "description": "日式料理餐廳",
      "area": "中山",
      "rating": 4.8,
      "reviews": 1427,
      "address": "10491台灣臺北市中山區大直里大直街18號",
      "categories": [
        "日式"
      ],
      "category": "日式",
      "tags": [],
      "_sort": 3,
      "dishes": [],
      "lat": 25.081289,
      "lng": 121.546284
    },
    {
      "name": "HU’s Restaurant 互餐廳",
      "description": "中式餐廳，在地美味",
      "area": "大同",
      "rating": 4.8,
      "reviews": 674,
      "address": "103台灣臺北市大同區延平里重慶北路二段172號2樓",
      "categories": [
        "中式"
      ],
      "category": "中式",
      "tags": [],
      "_sort": 3,
      "dishes": [],
      "lat": 25.059345,
      "lng": 121.513398
    },
    {
      "name": "雲水食堂 yunshuikitchen|2025台北國際牛肉麵金牌獎|臺北牛肉麵推薦|萬華牛肉麵推薦|臺北美食推薦|萬華美食推薦|艋舺美食推薦beefnoodlesoup",
      "description": "推薦金牌牛肉麵，湯頭清爽，肉質鮮美。",
      "area": "萬華",
      "rating": 4.7,
      "reviews": 507,
      "categories": [
        "中式"
      ],
      "category": "中式",
      "tags": [],
      "_sort": 3,
      "dishes": [],
      "lat": 25.0200827,
      "lng": 121.4950041
    },
    {
      "name": "Takeout burger & cafe 內湖店（最後點餐晚上9點，恕不接待10歲以下幼童內用）",
      "description": "e 內湖店, 招牌外帶漢堡, 人氣咖啡喫茶店，晚上9點後不接待10歲以下幼童內用。",
      "area": "內湖",
      "rating": 4.7,
      "reviews": 918,
      "categories": [
        "咖啡廳"
      ],
      "category": "咖啡廳",
      "tags": [],
      "_sort": 3,
      "dishes": [],
      "lat": 25.0608323,
      "lng": 121.5798512
    },
    {
      "name": "COCA泰式海鮮火鍋 ‧ 泰式料理-聚餐餐廳推薦｜商務聚餐｜台北東區｜大安區｜忠孝敦化",
      "description": "",
      "area": "大安",
      "rating": 4.7,
      "reviews": 1216,
      "categories": [
        "火鍋"
      ],
      "category": "火鍋",
      "tags": [],
      "_sort": 3,
      "dishes": [],
      "lat": 25.0407259,
      "lng": 121.552645
    },
    {
      "name": "Coffee Underwater",
      "description": "",
      "area": "",
      "rating": 4.7,
      "reviews": 789,
      "categories": [
        "咖啡廳"
      ],
      "category": "咖啡廳",
      "tags": [],
      "_sort": 3,
      "dishes": [],
      "lat": 25.0527704,
      "lng": 121.540137
    },
    {
      "name": "鹿境早午餐 Arrival Brunch & Cafe - 早午餐推薦 ｜ 餐廳 ｜小巨蛋早午餐 ｜ 包場 ｜ 法式吐司 ｜ 漢堡｜咖喱 ｜小巨蛋早午餐｜台北早午餐推薦",
      "description": "裝潢素雅的餐廳，供應常見的早午餐，包括三明治、漢堡和各式小菜。",
      "area": "",
      "rating": 4.7,
      "reviews": 1678,
      "categories": [
        "咖啡廳"
      ],
      "tags": [],
      "category": "咖啡廳",
      "_sort": 3,
      "dishes": [],
      "lat": 25.0523044,
      "lng": 121.5541544
    },
    {
      "name": "燒肉中山｜台北信義",
      "description": "人氣燒肉場所，提供多樣化的肉品選擇，滿足食客的需求。",
      "area": "中山",
      "rating": 4.7,
      "reviews": 5197,
      "categories": [
        "西式"
      ],
      "category": "西式",
      "tags": [],
      "_sort": 3,
      "dishes": [],
      "lat": 25.03531,
      "lng": 121.5660665
    },
    {
      "name": "MaoInn Steak 錨隱廚牛排龍蝦餐酒館",
      "description": "",
      "area": "",
      "rating": 4.7,
      "reviews": 557,
      "categories": [
        "西式"
      ],
      "category": "西式",
      "tags": [],
      "_sort": 3,
      "dishes": [],
      "lat": 25.1103158,
      "lng": 121.5293918
    },
    {
      "name": "PAPA RESTAURANT （台北師大店）／師大美食/師大義大利麵/師大簡餐/師大披薩/師大手工烘培/師大歐式麵包/師大下午茶/師大聚餐推薦/師大商業午餐/師大包場",
      "description": "歐式餐點多樣，手工披薩與義大利麵深受喜愛。",
      "area": "大安",
      "rating": 4.7,
      "reviews": 2127,
      "categories": [
        "咖啡廳"
      ],
      "category": "咖啡廳",
      "tags": [],
      "_sort": 3,
      "dishes": [],
      "lat": 25.0243099,
      "lng": 121.5291828
    },
    {
      "name": "13_Burger",
      "description": "",
      "area": "大安",
      "rating": 4.7,
      "reviews": 901,
      "categories": [
        "西式"
      ],
      "category": "西式",
      "tags": [],
      "_sort": 3,
      "dishes": [],
      "lat": 25.0243038,
      "lng": 121.5293108
    },
    {
      "name": "肉桂樹 The Cinnamon Tree 肉桂捲-師大店",
      "description": "e, 肉桂捲香氣四溢，受歡迎的甜品選擇。",
      "area": "大安",
      "rating": 4.7,
      "reviews": 553,
      "categories": [
        "甜品"
      ],
      "category": "甜品",
      "tags": [],
      "_sort": 3,
      "dishes": [],
      "lat": 25.0243025,
      "lng": 121.5287731
    },
    {
      "name": "味萊樹 創意蔬食料理 台北總店",
      "description": "素食餐廳，提供健康蔬食料理。",
      "area": "信義",
      "rating": 4.7,
      "reviews": 427,
      "categories": [
        "素食"
      ],
      "tags": [],
      "category": "素食",
      "_sort": 3,
      "dishes": [],
      "lat": 25.0271835,
      "lng": 121.5622154
    },
    {
      "name": "Gaia Flow 全植料理 | 純素 | 無麩質 | 有機 | 自然 | 友善農法 | Vegan Restaurant | Gluten Free",
      "description": "素食餐廳，提供健康蔬食料理。",
      "area": "中正",
      "rating": 4.7,
      "reviews": 91,
      "categories": [
        "素食"
      ],
      "tags": [],
      "category": "素食",
      "_sort": 3,
      "dishes": [],
      "lat": 25.039796,
      "lng": 121.5225474
    },
    {
      "name": "丰禾 台味風格料理 台北南京東店",
      "description": "",
      "area": "中山",
      "rating": 4.7,
      "reviews": 10923,
      "categories": [
        "中式"
      ],
      "tags": [],
      "category": "中式",
      "_sort": 3,
      "dishes_searched": true,
      "lat": 25.0517575,
      "lng": 121.5340217
    },
    {
      "name": "師大雞肉飯專門店",
      "description": "",
      "area": "大安",
      "rating": 4.7,
      "reviews": 1127,
      "categories": [
        "中式"
      ],
      "category": "中式",
      "tags": [],
      "_sort": 3,
      "dishes": [],
      "lat": 25.0238347,
      "lng": 121.5288179
    },
    {
      "name": "瑞哥雞肉飯中崙店",
      "description": "招牌雞腿飯口味一如既往的美味。",
      "area": "",
      "rating": 4.7,
      "reviews": 386,
      "categories": [
        "中式"
      ],
      "category": "中式",
      "tags": [],
      "_sort": 3,
      "dishes": [],
      "lat": 25.0475563,
      "lng": 121.5521085
    },
    {
      "name": "政武牛肉麵 Zheng Wu beef noodles",
      "description": "",
      "area": "",
      "rating": 4.7,
      "reviews": 979,
      "categories": [
        "中式"
      ],
      "category": "中式",
      "tags": [],
      "_sort": 3,
      "dishes": [],
      "lat": 25.0422413,
      "lng": 121.5473707
    },
    {
      "name": "肉多多火鍋-台北西門店",
      "description": "專注肉類火鍋，口味豐富，人氣火鍋選擇。",
      "area": "萬華",
      "rating": 4.7,
      "reviews": 1648,
      "categories": [
        "火鍋"
      ],
      "category": "火鍋",
      "tags": [],
      "_sort": 3,
      "dishes": [],
      "lat": 25.0442343,
      "lng": 121.5072709
    },
    {
      "name": "真芳碳烤吐司-民生敦北店 台北早餐三明治",
      "description": "受歡迎的碳烤吐司，讓你享受極致的早餐體驗。",
      "area": "",
      "rating": 4.7,
      "reviews": 991,
      "categories": [
        "中式"
      ],
      "category": "中式",
      "tags": [],
      "_sort": 3,
      "dishes": [],
      "lat": 25.058208,
      "lng": 121.552634
    },
    {
      "name": "이집_這家韓式烤肉 1號店_延吉店",
      "description": "招牌韓式烤肉，人氣餐廳，讓你感受濃厚的韓國風情。",
      "area": "大安",
      "rating": 4.7,
      "reviews": 2152,
      "categories": [
        "西式"
      ],
      "category": "西式",
      "tags": [],
      "_sort": 3,
      "dishes": [],
      "lat": 25.0426752,
      "lng": 121.5550722
    },
    {
      "name": "就是這間-功夫牛肉麵",
      "description": "",
      "area": "",
      "rating": 4.7,
      "reviews": 638,
      "categories": [
        "中式"
      ],
      "category": "中式",
      "tags": [],
      "_sort": 3,
      "dishes": [],
      "lat": 25.0468666,
      "lng": 121.5461002
    },
    {
      "name": "Cow過來（原悅喀西餐）",
      "description": "",
      "area": "文山",
      "rating": 4.7,
      "reviews": 299,
      "categories": [
        "西式"
      ],
      "category": "西式",
      "tags": [],
      "_sort": 3,
      "dishes": [],
      "lat": 24.9878317,
      "lng": 121.553488
    },
    {
      "name": "呼嚕小酒館 Purrson Bistro",
      "description": "人氣，特色中式料理，讓您在輕鬆氛圍中品味台灣味道。",
      "area": "文山",
      "rating": 4.7,
      "reviews": 2345,
      "categories": [
        "中式"
      ],
      "category": "中式",
      "tags": [],
      "_sort": 3,
      "dishes": [],
      "lat": 24.9890488,
      "lng": 121.5679392
    },
    {
      "name": "18精緻小館",
      "description": "精緻的台菜料理，讓每一口都充滿驚喜與滿足感。",
      "area": "文山",
      "rating": 4.7,
      "reviews": 820,
      "categories": [
        "中式"
      ],
      "category": "中式",
      "tags": [],
      "_sort": 3,
      "dishes": [],
      "lat": 24.9832006,
      "lng": 121.5619727
    },
    {
      "name": "小倉庫食研所",
      "description": "超人氣餐廳，提供多樣化的美味料理選擇",
      "area": "士林",
      "rating": 4.7,
      "reviews": 7975,
      "categories": [
        "中式"
      ],
      "category": "中式",
      "tags": [],
      "_sort": 3,
      "dishes": [],
      "lat": 25.0969916,
      "lng": 121.5213135
    },
    {
      "name": "歡樂便所主題餐廳",
      "description": "",
      "area": "士林",
      "rating": 4.7,
      "reviews": 4610,
      "categories": [
        "中式"
      ],
      "category": "中式",
      "tags": [],
      "_sort": 3,
      "dishes": [],
      "lat": 25.0895891,
      "lng": 121.5268333
    },
    {
      "name": "John的料理/士林官邸美食/無提供化妝室",
      "description": "",
      "area": "士林",
      "rating": 4.7,
      "reviews": 265,
      "categories": [
        "中式"
      ],
      "category": "中式",
      "tags": [],
      "_sort": 3,
      "dishes": [],
      "lat": 25.097145,
      "lng": 121.5329306
    },
    {
      "name": "漁噹家食堂",
      "description": "招牌海鮮菜品新鮮美味，適合家庭聚餐，讓人感受到家的溫暖。",
      "area": "北投",
      "rating": 4.7,
      "reviews": 324,
      "categories": [
        "中式"
      ],
      "category": "中式",
      "tags": [],
      "_sort": 3,
      "dishes": [],
      "lat": 25.115498,
      "lng": 121.516249
    },
    {
      "name": "北投奇岩一號",
      "description": "招牌台菜創意料理，讓你在享受美食的同時感受北投的自然之美。",
      "area": "北投",
      "rating": 4.7,
      "reviews": 457,
      "categories": [
        "中式"
      ],
      "category": "中式",
      "tags": [],
      "_sort": 3,
      "dishes": [],
      "lat": 25.1347904,
      "lng": 121.5072708
    },
    {
      "name": "左爺爺風味小館",
      "description": "",
      "area": "北投",
      "rating": 4.7,
      "reviews": 372,
      "categories": [
        "中式"
      ],
      "category": "中式",
      "tags": [],
      "_sort": 3,
      "dishes": [],
      "lat": 25.1082016,
      "lng": 121.5183326
    },
    {
      "name": "百鍋匯 北投美食",
      "description": "特色鍋品多樣，人氣餐廳，適合分享的聚餐選擇。",
      "area": "北投",
      "rating": 4.7,
      "reviews": 240,
      "categories": [
        "中式"
      ],
      "category": "中式",
      "tags": [],
      "_sort": 3,
      "dishes": [],
      "lat": 25.1390096,
      "lng": 121.4864457
    },
    {
      "name": "天空廚房",
      "description": "",
      "area": "北投",
      "rating": 4.7,
      "reviews": 473,
      "categories": [
        "中式"
      ],
      "category": "中式",
      "tags": [],
      "_sort": 3,
      "dishes": [],
      "lat": 25.1207209,
      "lng": 121.4690288
    },
    {
      "name": "阿亮小吃 (必吃宵夜美食、平價麵館 滷味小吃、人氣銅板料理)",
      "description": "必吃宵夜美食，平價美味麵食超人氣，讓你一試成主顧。",
      "area": "北投",
      "rating": 4.7,
      "reviews": 2814,
      "categories": [
        "中式"
      ],
      "category": "中式",
      "tags": [],
      "_sort": 3,
      "dishes": [],
      "lat": 25.11195,
      "lng": 121.510303
    },
    {
      "name": "Agusto奧古斯托 牛排龍蝦餐酒館 內科店｜台北美食義式餐廳 生日聚餐包場推薦",
      "description": "科店, 精緻義式牛排與龍蝦, 生日聚餐的理想選擇。",
      "area": "內湖",
      "rating": 4.7,
      "reviews": 378,
      "categories": [
        "西式"
      ],
      "category": "西式",
      "tags": [],
      "_sort": 3,
      "dishes": [],
      "lat": 25.0826774,
      "lng": 121.6040391
    },
    {
      "name": "羽樂歐陸創意料理",
      "description": "現代風格餐廳，供應海鮮料理、義大利麵與沙拉等異國美食。",
      "area": "松山",
      "rating": 4.7,
      "reviews": 4375,
      "categories": [
        "西式"
      ],
      "category": "西式",
      "tags": [],
      "_sort": 3,
      "dishes": [],
      "lat": 25.0513556,
      "lng": 121.5564875
    },
    {
      "name": "NAGOYA 道地日式蛋包飯（開放電話及私訊訂位）",
      "description": "招牌日式蛋包飯，超人氣，濃郁醬汁包裹著軟嫩蛋皮。",
      "area": "松山",
      "rating": 4.7,
      "reviews": 4529,
      "categories": [
        "日式"
      ],
      "category": "日式",
      "tags": [],
      "_sort": 3,
      "dishes": [],
      "lat": 25.0520561,
      "lng": 121.5583302
    },
    {
      "name": "鄞家食堂",
      "description": "簡約的餐廳，供應在地美食，包括魚類、肉類菜餚、湯品和麵食。",
      "area": "松山",
      "rating": 4.7,
      "reviews": 1804,
      "categories": [
        "中式"
      ],
      "category": "中式",
      "tags": [],
      "_sort": 3,
      "dishes": [],
      "lat": 25.0467547,
      "lng": 121.5507974
    },
    {
      "name": "關東本家",
      "description": "",
      "area": "松山",
      "rating": 4.7,
      "reviews": 1662,
      "categories": [
        "中式"
      ],
      "category": "中式",
      "tags": [],
      "_sort": 3,
      "dishes": [],
      "lat": 25.0500195,
      "lng": 121.5626459
    },
    {
      "name": "青樓中式餐酒館",
      "description": "裝飾溫馨的舒適餐廳，提供烤鴨料理，還有海鮮與熱炒料理。",
      "area": "松山",
      "rating": 4.7,
      "reviews": 2634,
      "categories": [
        "中式"
      ],
      "category": "中式",
      "tags": [],
      "_sort": 3,
      "dishes": [],
      "lat": 25.0496774,
      "lng": 121.5708898
    },
    {
      "name": "忻殿堂火鍋 Xin HOT POT",
      "description": "超人氣火鍋，湯底多樣，食材新鮮可口。",
      "area": "",
      "rating": 4.7,
      "reviews": 3546,
      "categories": [
        "火鍋"
      ],
      "category": "火鍋",
      "tags": [],
      "_sort": 3,
      "dishes": [],
      "lat": 25.0434486,
      "lng": 121.5479034
    },
    {
      "name": "這一小鍋 台北東森站前店（無接受訂位）【呷Bar店】",
      "description": "",
      "area": "中正",
      "rating": 4.7,
      "reviews": 3699,
      "categories": [
        "火鍋"
      ],
      "category": "火鍋",
      "tags": [],
      "_sort": 3,
      "dishes": [],
      "lat": 25.04646,
      "lng": 121.5174454
    },
    {
      "name": "青花驕麻辣鍋 台北中山北店",
      "description": "",
      "area": "中山",
      "rating": 4.7,
      "reviews": 21288,
      "categories": [
        "火鍋"
      ],
      "category": "火鍋",
      "tags": [],
      "_sort": 3,
      "dishes": [
        "麻辣鍋底",
        "鴨血",
        "豆腐",
        "霜降牛肉",
        "手工蝦滑"
      ],
      "lat": 25.051733,
      "lng": 121.522787
    },
    {
      "name": "老朋友小酌熱炒",
      "description": "氣氛活絡的小巧餐廳，供應炒飯、烤肉和海鮮等中式料理，並提供啤酒。",
      "area": "",
      "rating": 4.7,
      "reviews": 3322,
      "categories": [
        "中式"
      ],
      "category": "中式",
      "tags": [],
      "_sort": 3,
      "dishes": [],
      "lat": 25.031544,
      "lng": 121.552248
    },
    {
      "name": "Toast Chat",
      "description": "超人氣台菜，招牌吐司搭配創意配料，令人垂涎。",
      "area": "",
      "rating": 4.7,
      "reviews": 4224,
      "categories": [
        "中式"
      ],
      "category": "中式",
      "tags": [],
      "_sort": 3,
      "dishes": [],
      "lat": 25.0409345,
      "lng": 121.5414366
    },
    {
      "name": "粼茶 LimTê by YOUR¡ 酉日",
      "description": "",
      "area": "",
      "rating": 4.7,
      "reviews": 565,
      "categories": [
        "中式"
      ],
      "category": "中式",
      "tags": [],
      "_sort": 3,
      "dishes": [],
      "lat": 25.0396976,
      "lng": 121.5767198
    },